     2.10           OBSERVATION DATA    G (GPS)             RINEX VERSION / TYPE
Convert                                 12-Aug-2008 17:04   PGM / RUN BY / DATE 
Signal Strength values S1,S2 are in dBHz                    COMMENT             
                                                            MARKER NAME         
                                                            MARKER NUMBER       
                                                            OBSERVER / AGENCY   
SVA05050095         NOV RT2             2.210               REC # / TYPE / VERS 
                                                            ANT # / TYPE        
  39.910376520   56.30065983  49.269912651                  APPROX POSITION XYZ 
        0.0000        0.0000        0.0000                  ANTENNA: DELTA H/E/N
     1     1                                                WAVELENGTH FACT L1/2
     1     1     7   G01   G06   G10   G16   G17   G21   G22WAVELENGTH FACT L1/2
     1     1     2   G26   G30                              WAVELENGTH FACT L1/2
                                                            COMMENT             
                                                            COMMENT             
                                                            COMMENT             
                                                            COMMENT             
                                                            COMMENT             
     8    C1    L1    D1    S1    P2    L2    D2    S2      # / TYPES OF OBSERV 
     1.000                                                  INTERVAL            
  2006    10    29    01    44    23.0000000    GPS         TIME OF FIRST OBS   
  2006    10    29    01    54    54.0000000    GPS         TIME OF LAST OBS    
    14                                                      LEAP SECONDS        
                                                            END OF HEADER       
 06 10 29 01 44 23.0000000  0  9G10G26G21G22G 6G30G 1G17G16                     
  23566504.01004 138481652.76614      3817.44504        37.900  

  20419315.83045 121943062.50145     -1549.34445        39.300  

  20774250.81705 123808259.07315      1891.05905        39.000  

  22179966.49004 131195352.99614     -3351.39504        38.600  

  22009261.57804 130298287.16314      -752.49204        38.700  

  22386473.05604 132280552.06214      3017.99204        38.600  

  19614024.06805 117711226.74015       421.52705        39.500  

  22294596.96104 131797734.18414     -2508.65604        38.500  

  24086554.12704 141214529.17014      2340.66404        38.000  

 06 10 29 01 44 24.0000000  0  9G10G26G21G22G 6G30G 1G17G16                     
  23565777.49344 138477835.15554      3817.19944        38.100  

  20419610.64945 121944612.05145     -1549.59045        39.200  

  20773891.02205 123806368.42115      1890.48805        39.100  

  22180604.29044 131198704.44554     -3351.54744        38.500  

  22009404.88204 130299040.14314      -753.25004        38.300  

  22385898.80604 132277534.13214      3018.01604        38.500  

  19613943.89505 117710805.42215       420.97305        39.600  

  22295074.34344 131800243.02654     -2509.22744        38.500  

  24086108.79104 141212188.98814      2339.68004        37.800  

 06 10 29 01 44 25.0000000  0  9G10G26G21G22G 6G30G 1G17G16                     
  23565051.04744 138474017.52244      3817.57444        37.900  

  20419905.55845 121946161.83745     -1550.00445        39.200  

  20773531.35645 123804478.12655      1890.30545        39.300  

  22181242.09144 131202056.07144     -3351.48044        38.600  

  22009548.32804 130299793.73714      -754.12904        38.600  

  22385324.55304 132274516.27514      3017.97704        38.400  

  19613863.83705 117710384.65615       420.55505        39.600  

  22295551.84104 131802752.21304     -2509.35204        38.400  

  24085663.57204 141209849.19314      2339.60504        37.600  

 06 10 29 01 44 26.0000000  0  9G10G26G21G22G 6G30G 1G17G16                     
  23564324.56904 138470199.85404      3817.44904        38.100  

  20420200.50345 121947711.85045     -1550.29345        39.100  

  20773171.69944 123802588.22744      1889.79344        38.800  

  22181880.01544 131205407.90044     -3351.88344        38.700  

  22009691.86204 130300547.94414      -754.58204        38.600  

  22384750.25504 132271498.46614      3017.76604        38.300  

  19613783.87605 117709964.43415       419.68805        39.500  

  22296029.38404 131805261.74414     -2509.69904        38.500  

  24085218.37404 141207509.79214      2339.23004        37.800  

 06 10 29 01 44 27.0000000  0  9G10G26G21G22G 6G30G 1G17G16                     
  23563598.10604 138466382.34514      3817.53504        38.000  

  20420495.49045 121949262.27645     -1550.69945        39.300  

  20772812.19145 123800698.91345      1889.14545        39.100  

  22182517.89144 131208760.09644     -3352.32044        38.500  

  22009835.53204 130301302.97414      -755.53504        38.500  

  22384176.07004 132268480.93214      3017.48004        38.500  

  19613704.03605 117709544.93115       419.03505        39.600  

  22296506.99004 131807771.83114     -2510.17204        38.400  

  24084773.24904 141205170.98314      2338.62904        37.800  

 06 10 29 01 44 28.0000000  0  9G10G26G21G22G 6G30G 1G17G16                     
  23562871.71804 138462565.05514      3817.54704        38.100  

  20420790.57245 121950813.16145     -1550.97345        39.200  

  20772452.79345 123798810.23545      1888.33645        39.100  

  22183155.92544 131212112.72544     -3352.91444        38.500  

  22009979.38944 130302058.86754      -756.37944        38.700  

  22383601.95604 132265463.69914      3017.30504        38.200  

  19613624.36305 117709126.22715       418.42605        39.600  

  22296984.77304 131810282.53014     -2511.01604        38.600  

  24084328.42104 141202832.83114      2337.79304        38.000  

 06 10 29 01 44 29.0000000  0  9G10G26G21G22G 6G30G 1G17G16                     
  23562145.36404 138458748.00514      3817.09804        38.100  

  20421085.78805 121952364.51805     -1551.79305        39.200  

  20772093.41745 123796922.13345      1887.85945        39.200  

  22183794.04744 131215465.75544     -3353.21144        38.600  

  22010123.38944 130302815.61844      -757.50044        38.600  

  22383027.80404 132262446.75814      3017.03104        38.300  

  19613544.83305 117708708.27915       417.65605        39.600  

  22297462.67704 131812793.79514     -2511.69104        38.300  

  24083883.57004 141200495.30014      2337.19104        37.800  

 06 10 29 01 44 30.0000000  0  9G10G26G21G22G 6G30G 1G17G16                     
  23561419.04404 138454930.96714      3816.97304        37.900  

  20421381.07445 121953916.14655     -1551.84445        39.400  

  20771734.18445 123795034.53145      1887.43845        39.000  

  22184432.14544 131218819.05744     -3353.46544        38.500  

  22010267.52744 130303573.04244      -757.91844        38.600  

  22382453.71704 132259430.01014      3016.37504        38.500  

  19613465.44105 117708290.98115       416.93805        39.400  

  22297940.53005 131815305.46715     -2511.57005        38.900  

  24083438.78104 141198158.24814      2336.91404        37.900  

 06 10 29 01 44 31.0000000  0  9G10G26G21G22G 6G30G 1G17G16                     
  23560692.71804 138451114.07414      3816.67204        38.100  

  20421676.38405 121955468.17205     -1552.25005        39.000  

  20771375.10205 123793147.46305      1886.85205        39.000  

  22185070.31604 131222172.69704     -3353.75004        38.400  

  22010411.80144 130304331.26044      -758.53544        38.600  

  22381879.72004 132256413.44214      3016.26204        38.400  

  19613386.15605 117707874.34315       416.40205        39.600  

  22298418.61244 131817817.66054     -2512.26644        38.500  

  24082994.13704 141195821.75714      2336.05104        37.800  

 06 10 29 01 44 32.0000000  0  9G10G26G21G22G 6G30G 1G17G16                     
  23559966.44544 138447297.30554      3816.70344        38.000  

  20421971.79405 121957020.57515     -1552.66005        39.300  

  20771016.06505 123791260.92815      1886.27305        39.000  

  22185708.57204 131225526.68014     -3354.18004        38.500  

  22010556.20304 130305090.25004      -759.23004        38.600  

  22381305.78904 132253397.09414      3016.27704        38.400  

  19613307.01345 117707458.42955       415.38345        39.400  

  22298896.68444 131820330.35744     -2512.89544        38.400  

  24082549.69804 141193485.83614      2335.77004        37.400  

 06 10 29 01 44 33.0000000  0  9G10G26G21G22G 6G30G 1G17G16                     
  23559240.14644 138443480.66944      3816.45344        38.000  

  20422267.30005 121958573.34915     -1553.14105        39.400  

  20770657.17905 123789374.92115      1885.66805        39.100  

  22186346.88004 131228880.98414     -3354.50004        38.500  

  22010700.76804 130305850.01714      -760.18004        38.600  

  22380731.82804 132250380.95914      3016.14804        38.500  

  19613227.99905 117707043.18505       414.95705        39.600  

  22299374.92004 131822843.57904     -2513.72304        38.200  

  24082105.29304 141191150.47014      2335.08604        37.700  

 06 10 29 01 44 34.0000000  0  9G10G26G21G22G 6G30G 1G17G16                     
  23558513.90844 138439664.15444      3816.79744        38.000  

  20422562.84205 121960126.50915     -1553.41005        39.000  

  20770298.44545 123787489.47955      1885.30945        39.000  

  22186985.29204 131232235.63714     -3354.60504        38.500  

  22010845.51204 130306610.56514      -760.87504        38.500  

  22380157.93704 132247365.08514      3015.98804        38.300  

  19613149.13705 117706628.65915       414.16805        39.600  

  22299853.25844 131825357.28854     -2513.70344        38.700  

  24081660.98604 141188815.65814      2334.59804        37.900  

 06 10 29 01 44 35.0000000  0  9G10G26G21G22G 6G30G 1G17G16                     
  23557787.63744 138435847.80244      3816.31344        37.700  

  20422858.46805 121961680.06315     -1553.84805        39.100  

  20769939.73705 123785604.60705      1884.49605        39.000  

  22187623.68904 131235590.66114     -3355.29704        38.500  

  22010990.39904 130307371.91914      -761.93404        38.700  

  22379584.10204 132244349.43814      3015.43404        38.500  

  19613070.39505 117706214.84815       413.39505        39.600  

  22300331.69304 131827871.51504     -2514.41804        38.600  

  24081216.75544 141186481.39954      2333.86744        37.600  

 06 10 29 01 44 36.0000000  0  9G10G26G21G22G 6G30G 1G17G16                     
  23557061.45544 138432031.58344      3816.32844        38.200  

  20423154.14705 121963234.01815     -1554.14805        39.100  

  20769581.19705 123783720.27915      1884.12905        39.000  

  22188262.23704 131238946.03314     -3355.51204        38.600  

  22011135.43704 130308134.06414      -762.58204        38.600  

  22379010.36344 132241334.04054      3015.33244        38.300  

  19612991.80005 117705801.74015       412.60205        39.600  

  22300810.21204 131830386.30614     -2514.91404        38.400  

  24080772.66204 141184147.76404      2333.41804        38.100  

 06 10 29 01 44 37.0000000  0  9G10G26G21G22G 6G30G 1G17G16                     
  23556335.27904 138428215.45004      3816.41404        37.900  

  20423449.94405 121964788.30015     -1554.53505        39.300  

  20769222.75005 123781836.44215      1883.58205        38.900  

  22188900.76604 131242301.69214     -3355.61704        38.500  

  22011280.57204 130308896.93814      -763.23404        38.700  

  22378436.62944 132238318.80144      3015.15644        38.300  

  19612913.30805 117705389.29615       412.09405        39.700  

  22301288.83104 131832901.52714     -2515.53504        38.400  

  24080328.65504 141181814.61014      2332.98404        37.900  

 06 10 29 01 44 38.0000000  0  9G10G26G21G22G 6G30G 1G17G16                     
  23555609.09444 138424399.36654      3816.18044        38.200  

  20423745.76145 121966342.87155     -1554.66045        39.300  

  20768864.38645 123779953.06255      1883.13745        39.200  

  22189539.34844 131245657.60354     -3356.00044        38.500  

  22011425.87644 130309660.48954      -763.91844        38.500  

  22377862.91744 132235303.70944      3015.03544        38.500  

  19612834.93945 117704977.43355       411.45745        39.600  

  22301767.54544 131835417.16154     -2515.82444        38.500  

  24079884.70744 141179481.92354      2332.63344        37.900  

 06 10 29 01 44 39.0000000  0  9G10G26G21G22G 6G30G 1G17G16                     
  23554882.94744 138420583.47444      3816.09844        38.200  

  20424041.69705 121967897.90805     -1555.25005        39.200  

  20768506.05105 123778070.28905      1882.57405        39.100  

  22190178.04704 131249013.93304     -3356.66004        38.700  

  22011571.34304 130310424.88404      -764.67204        38.400  

  22377289.28944 132232288.91644      3014.54744        38.400  

  19612756.69805 117704566.34405       410.75805        39.600  

  22302246.37704 131837933.36904     -2516.68404        38.600  

  24079440.94704 141177149.89004      2331.71504        37.700  

 06 10 29 01 44 40.0000000  0  9G10G26G21G22G 6G30G 1G17G16                     
  23554156.85944 138416767.82244      3815.79344        37.800  

  20424337.73005 121969453.41015     -1555.83205        39.200  

  20768147.88005 123776188.18315      1881.85505        39.100  

  22190816.83604 131252370.71214     -3357.00804        38.500  

  22011716.93604 130311190.19514      -765.85204        38.700  

  22376715.62944 132229274.45544      3014.23844        38.400  

  19612678.64005 117704156.08615       409.79705        39.600  

  22302725.28904 131840450.20214     -2516.79304        38.300  

  24078997.28704 141174818.51114      2331.08204        38.000  

 06 10 29 01 44 41.0000000  0  9G10G26G21G22G 6G30G 1G17G16                     
  23553430.78944 138412952.37144      3815.51244        38.100  

  20424633.78845 121971009.36155     -1556.22745        39.300  

  20767789.82705 123774306.65915      1881.38705        39.000  

  22191455.67504 131255727.86214     -3357.28504        38.300  

  22011862.69504 130311956.29314      -766.42604        38.500  

  22376142.03344 132226260.26744      3014.03144        38.500  

  19612600.70105 117703746.55115       409.18405        39.700  

  22303204.31204 131842967.61314     -2517.73804        38.500  

  24078553.73404 141172487.72914      2330.57004        37.800  

 06 10 29 01 44 42.0000000  0  9G10G26G21G22G 6G30G 1G17G16                     
  23552704.75304 138409136.99204      3815.28904        37.800  

  20424929.90905 121972565.61105     -1556.41005        39.100  

  20767431.86305 123772425.62815      1880.92605        39.000  

  22192094.60304 131259085.30614     -3357.71504        38.500  

  22012008.64704 130312723.14514      -767.22304        38.300  

  22375568.47504 132223246.24904      3013.87104        38.500  

  19612522.90505 117703337.66515       408.60505        39.700  

  22303683.43144 131845485.44854     -2518.16044        38.600  

  24078110.23604 141170157.48114      2329.73404        37.900  

 06 10 29 01 44 43.0000000  0  9G10G26G21G22G 6G30G 1G17G16                     
  23551978.75004 138405321.74414      3815.05504        37.900  

  20425226.14605 121974122.27515     -1556.97705        39.000  

  20767074.03145 123770545.14455      1880.14145        39.100  

  22192733.56304 131262443.10114     -3358.04304        38.300  

  22012154.71204 130313490.77414      -768.02004        38.600  

  22374994.96604 132220232.46114      3013.46104        38.200  

  19612445.22905 117702929.49215       407.53505        39.500  

  22304162.68344 131848003.79944     -2518.58644        38.600  

  24077666.90304 141167827.76614      2329.18004        38.000  

 06 10 29 01 44 44.0000000  0  9G10G26G21G22G 6G30G 1G17G16                     
  23551252.76444 138401506.61554      3814.95344        37.900  

  20425522.43945 121975679.28155     -1557.09045        39.200  

  20766716.29245 123768665.18945      1879.88345        39.100  

  22193372.59644 131265801.21854     -3358.02344        38.800  

  22012300.93544 130314259.16854      -768.80144        38.600  

  22374421.50344 132217218.87054      3013.61344        38.600  

  19612367.70745 117702521.99455       407.11345        39.400  

  22304641.97644 131850522.65644     -2519.23044        38.600  

  24077223.63744 141165498.61354      2329.27044        37.900  

 06 10 29 01 44 45.0000000  0  9G10G26G21G22G 6G30G 1G17G16                     
  23550526.76504 138397691.50404      3815.03104        38.100  

  20425818.76705 121977236.58105     -1557.60205        39.300  

  20766358.66245 123766785.66745      1879.56645        39.000  

  22194011.70844 131269159.56644     -3358.31344        38.400  

  22012447.24804 130315028.22304      -769.38304        38.600  

  22373848.00104 132214205.39904      3013.54704        38.400  

  19612290.26745 117702115.06845       406.72345        39.600  

  22305121.42544 131853041.87944     -2519.19144        38.500  

  24076780.51604 141163169.90304      2328.52704        37.900  

 06 10 29 01 44 46.0000000  0  9G10G26G21G22G 6G30G 1G17G16                     
  23549800.79104 138393876.49414      3814.89104        37.900  

  20426115.17505 121978794.19015     -1557.68005        39.000  

  20766001.07305 123764906.65005      1878.87105        39.000  

  22194650.81204 131272518.20704     -3358.58604        38.600  

  22012593.75044 130315798.02454      -770.24644        38.700  

  22373274.56644 132211192.14254      3012.91444        38.300  

  19612212.94905 117701708.83505       405.80505        39.500  

  22305600.94104 131855561.59904     -2520.08204        38.600  

  24076337.46104 141160841.70914      2328.27704        37.800  

 06 10 29 01 44 47.0000000  0  9G10G26G21G22G 6G30G 1G17G16                     
  23549074.79304 138390061.51814      3814.73804        37.900  

  20426411.63245 121980352.10755     -1558.20745        39.000  

  20765643.58405 123763028.08915      1878.17205        38.900  

  22195289.97604 131275877.09714     -3358.88704        38.500  

  22012740.36344 130316568.49744      -770.79744        38.600  

  22372701.16304 132208178.96804      3013.17204        38.500  

  19612135.76805 117701303.17515       405.18805        39.700  

  22306080.52804 131858081.72114     -2520.29704        38.300  

  24075894.49804 141158514.03014      2327.38304        37.900  

 06 10 29 01 44 48.0000000  0  9G10G26G21G22G 6G30G 1G17G16                     
  23548348.82344 138386246.58454      3815.08644        38.200  

  20426708.16405 121981910.29905     -1558.19505        39.100  

  20765286.21305 123761149.97915      1877.72305        39.200  

  22195929.22804 131279236.25114     -3359.33604        38.600  

  22012887.11704 130317339.66904      -771.49204        38.700  

  22372127.80704 132205165.96814      3013.09004        38.500  

  19612058.68505 117700898.13015       404.76205        39.700  

  22306560.13804 131860602.24414     -2520.52704        38.200  

  24075451.56704 141156186.77014      2326.90204        37.600  

 06 10 29 01 44 49.0000000  0  9G10G26G21G22G 6G30G 1G17G16                     
  23547622.83704 138382431.71504      3814.70304        37.800  

  20427004.69705 121983468.83315     -1558.82005        39.400  

  20764928.89005 123759272.36015      1877.26205        39.100  

  22196568.50604 131282595.68014     -3359.63704        38.400  

  22013034.02804 130318111.56614      -772.32404        38.500  

  22371554.49104 132202153.14814      3012.77704        38.600  

  19611981.72605 117700493.74515       403.95705        39.800  

  22307039.85804 131863123.24814     -2520.98804        38.500  

  24075008.82904 141153860.04014      2326.45304        37.800  

 06 10 29 01 44 50.0000000  0  9G10G26G21G22G 6G30G 1G17G16                     
  23546896.92344 138378616.92954      3814.87544        37.900  

  20427301.32845 121985027.67755     -1558.76245        39.300  

  20764571.69445 123757395.22555      1876.91445        39.000  

  22197207.79344 131285955.38554     -3359.77044        38.600  

  22013181.03844 130318884.18254      -772.96944        38.600  

  22370981.23544 132199140.48554      3012.35244        38.500  

  19611904.88745 117700089.97755       403.64145        39.600  

  22307519.68944 131865644.69754     -2521.73444        38.500  

  24074566.15744 141151533.80054      2326.06644        37.700  

 06 10 29 01 44 51.0000000  0  9G10G26G21G22G 6G30G 1G17G16                     
  23546171.02904 138374802.21904      3814.61304        37.900  

  20427598.04005 121986586.85105     -1559.46905        39.200  

  20764214.60345 123755518.56145      1876.18445        39.200  

  22197847.19604 131289315.37604     -3360.51204        38.400  

  22013328.21604 130319657.48304      -773.53904        38.600  

  22370407.99304 132196127.93604      3012.48404        38.600  

  19611828.19505 117699686.85305       402.82405        39.600  

  22307999.57704 131868166.58204     -2522.30904        38.400  

  24074123.57544 141149208.06644      2325.40644        37.900  

 06 10 29 01 44 52.0000000  0  9G10G26G21G22G 6G30G 1G17G16                     
  23545445.16004 138370987.64414      3814.40604        38.000  

  20427894.81705 121988146.38915     -1559.68005        39.300  

  20763857.59645 123753642.46045      1875.96545        39.100  

  22198486.63304 131292675.70714     -3360.52004        38.600  

  22013475.51904 130320431.62314      -774.59404        38.700  

  22369834.79004 132193115.69414      3011.92204        38.500  

  19611751.63705 117699284.44215       401.87905        39.700  

  22308479.55904 131870688.96614     -2522.58604        38.600  

  24073681.09304 141146882.89604      2324.79704        37.800  

 06 10 29 01 44 53.0000000  0  9G10G26G21G22G 6G30G 1G17G16                     
  23544719.32204 138367173.30314      3814.39104        38.100  

  20428191.67205 121989706.42515     -1560.37105        39.300  

  20763500.68945 123751766.99045      1875.13745        39.100  

  22199126.19004 131296036.47514     -3361.12504        38.400  

  22013622.95604 130321206.59514      -775.41404        38.600  

  22369261.66704 132190103.72714      3011.78904        38.400  

  19611675.21205 117698882.79815       401.21505        39.700  

  22308959.66404 131873211.94814     -2523.29704        38.500  

  24073238.72304 141144558.37514      2324.29304        37.800  

 06 10 29 01 44 54.0000000  0  9G10G26G21G22G 6G30G 1G17G16                     
  23543993.50904 138363359.18314      3813.60204        37.800  

  20428488.63245 121991266.89855     -1560.79345        39.200  

  20763143.92245 123749892.13045      1874.59445        39.000  

  22199765.81004 131299397.62114     -3361.36304        38.600  

  22013770.58704 130321982.40514      -776.19104        38.500  

  22368688.55604 132187092.04614      3011.54304        38.400  

  19611598.93905 117698481.93215       400.26605        39.500  

  22309439.86804 131875735.51314     -2523.87904        38.300  

  24072796.51244 141142234.48754      2323.54344        37.600  

 06 10 29 01 44 55.0000000  0  9G10G26G21G22G 6G30G 1G17G16                     
  23543267.75304 138359545.15614      3814.27304        38.000  

  20428785.68545 121992827.78045     -1561.00445        39.000  

  20762787.25345 123748017.85445      1873.82845        39.000  

  22200405.49404 131302759.18014     -3361.85204        38.600  

  22013918.41704 130322759.04914      -776.84404        38.600  

  22368115.50104 132184080.64514      3011.23404        38.600  

  19611522.79205 117698081.78815       399.91005        39.700  

  22309920.19204 131878259.61914     -2524.30904        38.500  

  24072354.39944 141139911.18044      2323.13344        37.800  

 06 10 29 01 44 56.0000000  0  9G10G26G21G22G 6G30G 1G17G16                     
  23542542.00244 138355731.32454      3813.73844        38.000  

  20429082.76645 121994389.01345     -1561.53945        39.400  

  20762430.67805 123746144.10205      1873.66405        38.900  

  22201045.27504 131306121.03814     -3362.01204        38.600  

  22014066.36704 130323536.45214      -777.69904        38.300  

  22367542.48804 132181069.44514      3011.21904        38.500  

  19611446.76645 117697682.33455       399.25445        39.600  

  22310400.58544 131880784.20354     -2524.89844        38.500  

  24071912.40944 141137588.44344      2322.63744        37.800  

 06 10 29 01 44 57.0000000  0  9G10G26G21G22G 6G30G 1G17G16                     
  23541816.28604 138351917.45104      3813.99604        38.100  

  20429379.93845 121995950.50345     -1561.53145        39.300  

  20762074.20005 123744270.75115      1873.18005        39.100  

  22201685.02804 131309483.09314     -3362.07804        38.600  

  22014214.41744 130324314.49454      -778.28144        38.500  

  22366969.51204 132178058.34214      3010.96104        38.600  

  19611370.85105 117697283.44205       398.69505        39.500  

  22310881.08004 131883309.16904     -2525.37904        38.400  

  24071470.51304 141135266.11604      2322.16804        37.700  

 06 10 29 01 44 58.0000000  0  9G10G26G21G22G 6G30G 1G17G16                     
  23541090.54104 138348103.69014      3813.59804        37.900  

  20429677.12245 121997512.32145     -1561.73045        39.000  

  20761717.81605 123742397.92615      1872.66005        39.200  

  22202324.82804 131312845.47414     -3362.70304        38.600  

  22014362.61144 130325093.26244      -779.23444        38.500  

  22366396.57004 132175047.42314      3010.86704        38.500  

  19611295.06705 117696885.21215       397.82405        39.600  

  22311361.71704 131885834.57414     -2525.54704        38.400  

  24071028.66104 141132944.32314      2321.42204        37.800  

 06 10 29 01 44 59.0000000  0  9G10G26G21G22G 6G30G 1G17G16                     
  23540364.82704 138344290.01114      3813.41804        38.000  

  20429974.35845 121999074.51745     -1562.62945        39.300  

  20761361.53305 123740525.60915      1871.93805        39.000  

  22202964.67804 131316208.13514     -3362.98004        38.400  

  22014510.93944 130325872.78844      -779.83644        38.600  

  22365823.67104 132172036.68814      3010.68804        38.300  

  19611219.41045 117696487.63955       397.25445        39.600  

  22311842.36404 131888360.46814     -2526.05504        38.400  

  24070586.95104 141130623.03314      2321.21904        37.700  

 06 10 29 01 45  0.0000000  0  9G10G26G21G22G 6G30G 1G17G16                     
  23539639.12344 138340476.47254      3813.50044        37.900  

  20430271.69645 122000637.03745     -1562.64845        39.300  

  20761005.33645 123738653.79955      1871.62545        39.000  

  22203604.60344 131319571.12154     -3363.16444        38.600  

  22014659.42944 130326653.07844      -780.73444        38.600  

  22365250.78704 132169026.18614      3010.17604        38.400  

  19611143.87845 117696090.76145       396.49645        39.700  

  22312323.13744 131890886.87654     -2526.78544        38.400  

  24070145.31604 141128302.32014      2320.54304        37.800  

 06 10 29 01 45  1.0000000  0  9G10G26G21G22G 6G30G 1G17G16                     
  23538913.45544 138336663.05044      3813.48844        37.900  

  20430569.07705 122002199.96105     -1563.04305        39.200  

  20760649.23905 123736782.54305      1871.03505        39.100  

  22204244.58104 131322934.45304     -3363.30504        38.700  

  22014808.06004 130327434.15004      -781.69504        38.600  

  22364677.93704 132166015.88514      3010.14804        38.400  

  19611068.46645 117695694.56545       395.82845        39.300  

  22312803.95604 131893413.76004     -2527.00404        38.300  

  24069703.80404 141125982.16414      2319.79704        37.900  

 06 10 29 01 45  2.0000000  0  9G10G26G21G22G 6G30G 1G17G16                     
  23538187.78244 138332849.65944      3813.37944        38.100  

  20430866.53605 122003763.15115     -1563.00805        39.300  

  20760293.27645 123734911.74055      1870.76645        39.200  

  22204884.64944 131326298.01554     -3363.42644        38.500  

  22014956.82444 130328215.87154      -782.02344        38.500  

  22364105.11344 132163005.71254      3010.13344        38.500  

  19610993.17145 117695298.95245       395.51245        39.400  

  22313284.89104 131895941.04014     -2527.36304        38.500  

  24069262.37304 141123662.45314      2319.66804        37.800  

 06 10 29 01 45  3.0000000  0  9G10G26G21G22G 6G30G 1G17G16                     
  23537462.09644 138329036.26744      3813.04344        38.000  

  20431164.04305 122005326.57615     -1563.46105        39.000  

  20759937.34605 123733041.32605      1870.12105        39.100  

  22205524.75844 131329661.77244     -3363.87944        38.600  

  22015105.70204 130328998.24504      -783.09804        38.600  

  22363532.31104 132159995.62204      3009.88304        38.700  

  19610917.99945 117694903.89645       394.72745        39.600  

  22313765.88004 131898468.68414     -2527.95304        38.500  

  24068821.02504 141121343.15714      2318.91404        37.900  

 06 10 29 01 45  4.0000000  0  9G10G26G21G22G 6G30G 1G17G16                     
  23536736.45744 138325223.11244      3812.91444        38.100  

  20431461.65505 122006890.50015     -1564.26605        39.300  

  20759581.52205 123731171.57515      1869.41805        39.000  

  22206164.93944 131333025.98244     -3364.32044        38.300  

  22015254.75004 130329781.50114      -783.85904        38.500  

  22362959.56504 132156985.87414      3009.52704        38.600  

  19610842.97645 117694509.66745       393.82845        39.500  

  22314246.99604 131900996.95814     -2528.63704        38.600  

  24068379.83104 141119024.54114      2318.28904        37.900  

 06 10 29 01 45  5.0000000  0  9G10G26G21G22G 6G30G 1G17G16                     
  23536010.88004 138321410.19904      3812.73004        38.100  

  20431759.34245 122008454.89155     -1564.80545        39.100  

  20759225.85105 123729302.48715      1868.66005        39.100  

  22206805.23944 131336390.61644     -3364.51244        38.400  

  22015403.96104 130330565.63914      -784.64504        38.500  

  22362386.85404 132153976.45014      3009.35204        38.400  

  19610768.10405 117694116.22705       393.11305        39.400  

  22314728.22504 131903525.82714     -2529.35904        38.400  

  24067938.72704 141116706.59114      2317.76604        37.900  

 06 10 29 01 45  6.0000000  0  9G10G26G21G22G 6G30G 1G17G16                     
  23535285.32704 138317597.42414      3812.82804        38.100  

  20432057.09005 122010019.65905     -1564.86305        39.100  

  20758870.26305 123727433.91715      1868.43805        39.000  

  22207445.59504 131339755.61504     -3364.97704        38.500  

  22015553.32704 130331350.54014      -785.27004        38.600  

  22361814.23544 132150967.24654      3009.19144        38.400  

  19610693.36505 117693723.47515       392.64805        39.700  

  22315209.55904 131906055.20814     -2529.46104        38.600  

  24067497.75604 141114389.21114      2317.14104        38.000  

 06 10 29 01 45  7.0000000  0  9G10G26G21G22G 6G30G 1G17G16                     
  23534559.81644 138313784.76454      3812.87544        37.900  

  20432354.91705 122011584.81815     -1565.48405        39.100  

  20758514.77405 123725565.88415      1867.84005        39.000  

  22208086.03104 131343120.94114     -3365.48804        38.700  

  22015702.84544 130332136.24254      -786.21944        38.600  

  22361241.67244 132147958.28244      3008.93444        38.300  

  19610618.77705 117693331.44315       391.63705        39.600  

  22315691.01804 131908585.07514     -2529.98004        38.200  

  24067056.82604 141112072.36214      2316.69504        37.700  

 06 10 29 01 45  8.0000000  0  9G10G26G21G22G 6G30G 1G17G16                     
  23533834.34744 138309972.33144      3812.36344        37.900  

  20432652.81545 122013150.42255     -1565.71945        39.300  

  20758159.42545 123723698.50855      1867.13345        39.100  

  22208726.50544 131346486.68254     -3365.80544        38.400  

  22015852.50544 130332922.76944      -786.93844        38.700  

  22360669.11944 132144949.60644      3008.36344        38.300  

  19610544.31645 117692940.16755       390.89845        39.400  

  22316172.57944 131911115.51854     -2530.58244        38.300  

  24066616.06444 141109756.17554      2315.84044        38.000  

 06 10 29 01 45  9.0000000  0  9G10G26G21G22G 6G30G 1G17G16                     
  23533108.86904 138306159.95404      3812.20704        37.900  

  20432950.81045 122014716.33445     -1565.91045        39.200  

  20757804.16405 123721831.57705      1866.55505        39.100  

  22209367.03604 131349852.66804     -3365.97704        38.500  

  22016002.33404 130333710.00404      -787.56604        38.600  

  22360096.59444 132141941.09344      3008.48044        38.500  

  19610469.98545 117692549.51845       390.25045        39.700  

  22316654.20804 131913646.41004     -2531.12504        38.400  

  24066175.41744 141107440.47644      2315.35944        37.800  

 06 10 29 01 45 10.0000000  0  9G10G26G21G22G 6G30G 1G17G16                     
  23532383.42704 138302347.62614      3812.29704        38.100  

  20433248.83605 122016282.51605     -1566.30505        39.300  

  20757448.97905 123719965.09515      1866.02005        38.900  

  22210007.66104 131353218.90414     -3366.23804        38.500  

  22016152.28144 130334497.92954      -788.20744        38.700  

  22359524.12904 132138932.69104      3008.27704        38.500  

  19610395.76205 117692159.44905       389.75405        39.600  

  22317135.91504 131916177.68614     -2531.48804        38.700  

  24065734.84504 141105125.22904      2315.12504        37.700  

 06 10 29 01 45 11.0000000  0  9G10G26G21G22G 6G30G 1G17G16                     
  23531657.95004 138298535.25614      3812.31304        37.900  

  20433546.92405 122017848.94815     -1566.66405        39.300  

  20757093.86945 123718099.01455      1865.90645        39.200  

  22210648.29804 131356585.34814     -3366.55504        38.400  

  22016302.34004 130335286.49304      -789.01204        38.800  

  22358951.64904 132135924.37714      3008.27004        38.200  

  19610321.64605 117691769.95615       389.02705        39.400  

  22317617.70204 131918709.34214     -2531.99204        38.500  

  24065294.36744 141102810.41154      2314.54744        37.800  

 06 10 29 01 45 12.0000000  0  9G10G26G21G22G 6G30G 1G17G16                     
  23530932.50544 138294722.97654      3812.46144        37.800  

  20433845.04505 122019415.67415     -1566.75005        39.100  

  20756738.83605 123716233.40305      1865.54305        39.000  

  22211288.94344 131359952.02454     -3366.71544        38.300  

  22016452.53304 130336075.73114      -789.43804        38.400  

  22358379.21104 132132916.22114      3007.99604        38.600  

  19610247.65405 117691381.06415       388.63705        39.600  

  22318099.54904 131921241.40614     -2532.10204        38.600  

  24064853.99204 141100496.06904      2314.38304        37.900  

 06 10 29 01 45 13.0000000  0  9G10G26G21G22G 6G30G 1G17G16                     
  23530207.07844 138290910.82944      3811.98444        37.900  

  20434143.24405 122020982.79415     -1567.29705        39.300  

  20756383.94605 123714368.35915      1864.52305        39.200  

  22211929.67604 131363319.05604     -3367.18004        38.500  

  22016602.86904 130336865.77214      -790.42204        38.400  

  22357806.82804 132129908.26714      3008.18004        38.600  

  19610173.77805 117690992.88615       387.68805        39.600  

  22318581.45104 131923774.00714     -2533.16404        38.300  

  24064413.68604 141098182.30014      2313.60904        37.800  

 06 10 29 01 45 14.0000000  0  9G10G26G21G22G 6G30G 1G17G16                     
  23529481.67044 138287098.83444      3812.15244        38.000  

  20434441.52145 122022550.29555     -1567.50845        39.300  

  20756029.12445 123712503.85655      1864.28945        39.000  

  22212570.44244 131366686.46554     -3367.61744        38.200  

  22016753.34144 130337656.63054      -791.39544        38.700  

  22357234.48744 132126900.59854      3007.69144        38.400  

  19610100.03645 117690605.41755       387.23445        39.700  

  22319063.47444 131926307.09854     -2533.19544        38.600  

  24063973.49944 141095869.12854      2313.00444        37.800  

 06 10 29 01 45 15.0000000  0  9G10G26G21G22G 6G30G 1G17G16                     
  23528756.31404 138283287.00304      3811.66404        38.000  

  20434739.87305 122024118.20105     -1567.98805        39.000  

  20755674.45305 123710639.94505      1863.48805        39.100  

  22213211.30204 131370054.20304     -3367.83204        38.600  

  22016903.96104 130338448.24204      -792.00404        38.600  

  22356662.21044 132123893.17844      3007.03544        38.400  

  19610026.44805 117690218.67805       386.33605        39.700  

  22319545.59004 131928840.74304     -2534.00804        38.600  

  24063533.45304 141093556.51204      2312.39804        37.900  

 06 10 29 01 45 16.0000000  0  9G10G26G21G22G 6G30G 1G17G16                     
  23528030.99504 138279475.34914      3811.62104        38.100  

  20435038.34405 122025686.54515     -1568.60905        39.200  

  20755319.87145 123708776.60855      1863.00445        39.000  

  22213852.24104 131373422.34514     -3368.41404        38.400  

  22017054.76404 130339240.69314      -792.86704        38.600  

  22356089.99604 132120885.99704      3007.04704        38.500  

  19609952.99705 117689832.66515       385.69505        39.700  

  22320027.83104 131931374.89914     -2534.48404        38.300  

  24063093.48404 141091244.53014      2311.95704        37.800  

 06 10 29 01 45 17.0000000  0  9G10G26G21G22G 6G30G 1G17G16                     
  23527305.68904 138275663.84014      3811.27004        38.200  

  20435336.85805 122027255.27515     -1569.14505        39.100  

  20754965.39445 123706913.82345      1862.31645        38.900  

  22214493.19404 131376790.80814     -3368.52004        38.500  

  22017205.72204 130340033.95014      -793.84404        38.700  

  22355517.82404 132117879.07614      3006.66004        38.400  

  19609879.68005 117689447.37315       385.07405        39.600  

  22320510.17004 131933909.60514     -2535.12904        38.300  

  24062653.64944 141088933.09754      2311.08244        38.100  

 06 10 29 01 45 18.0000000  0  9G10G26G21G22G 6G30G 1G17G16                     
  23526580.40644 138271852.48454      3811.27744        38.000  

  20435635.44405 122028824.39715     -1569.29305        39.100  

  20754611.02845 123705051.63145      1862.03545        39.300  

  22215134.27844 131380159.64954     -3368.99244        38.500  

  22017356.82104 130340827.97714      -794.35904        38.300  

  22354945.67404 132114872.40114      3006.58604        38.600  

  19609806.48245 117689062.81455       384.02745        39.500  

  22320992.60904 131936444.81414     -2535.35904        38.700  

  24062213.90604 141086622.27104      2310.89804        37.600  

 06 10 29 01 45 19.0000000  0  9G10G26G21G22G 6G30G 1G17G16                     
  23525855.14804 138268041.20904      3811.41804        38.100  

  20435934.08545 122030393.83055     -1569.43045        39.000  

  20754256.74645 123703189.90545      1861.67645        39.000  

  22215775.41344 131383528.77544     -3369.23444        38.500  

  22017508.05104 130341622.74814      -795.16804        38.600  

  22354373.54104 132111865.89014      3006.50404        38.600  

  19609733.41505 117688678.86205       383.78105        39.700  

  22321475.09404 131938980.47014     -2535.91004        38.300  

  24061774.26744 141084311.94454      2310.13744        37.900  

 06 10 29 01 45 20.0000000  0  9G10G26G21G22G 6G30G 1G17G16                     
  23525129.92844 138264230.04254      3811.08644        38.200  

  20436232.79345 122031963.60945     -1569.78945        39.200  

  20753902.56345 123701328.70545      1860.77345        39.200  

  22216416.57144 131386898.18244     -3369.45744        38.400  

  22017659.42244 130342418.22854      -795.72744        38.700  

  22353801.43044 132108859.57254      3006.12544        38.500  

  19609660.48445 117688295.58855       382.88745        39.600  

  22321957.70044 131941516.59554     -2536.44144        38.500  

  24061334.75244 141082002.14644      2309.38744        37.700  

 06 10 29 01 45 21.0000000  0  9G10G26G21G22G 6G30G 1G17G16                     
  23524404.72244 138260418.96844      3811.19944        38.000  

  20436531.57105 122033533.75305     -1570.09405        39.100  

  20753548.50505 123699468.01305      1860.48405        39.200  

  22217057.80704 131390267.90604     -3369.84404        38.600  

  22017810.95104 130343214.47704      -796.41804        38.600  

  22353229.37104 132105853.43904      3006.11704        38.300  

  19609587.66205 117687912.98105       382.53505        39.700  

  22322440.39004 131944053.19104     -2536.88304        38.300  

  24060895.31444 141079692.86344      2309.03144        37.700  

 06 10 29 01 45 22.0000000  0  9G10G26G21G22G 6G30G 1G17G16                     
  23523679.50644 138256607.92744      3811.17244        37.900  

  20436830.43245 122035104.16155     -1570.51245        39.300  

  20753194.50605 123697607.75215      1859.91805        39.300  

  22217699.09104 131393637.84814     -3369.89104        38.400  

  22017962.61504 130344011.37814      -797.16004        38.700  

  22352657.33304 132102847.44614      3005.65204        38.300  

  19609514.96605 117687530.95415       381.77705        39.400  

  22322923.16204 131946590.17414     -2537.19104        38.200  

  24060455.93944 141077384.07044      2308.32044        38.100  

 06 10 29 01 45 23.0000000  0  9G10G26G21G22G 6G30G 1G17G16                     
  23522954.28804 138252796.94004      3810.60904        37.900  

  20437129.34945 122036674.85045     -1570.93045        39.100  

  20752840.61705 123695747.93815      1859.47305        39.000  

  22218340.40404 131397008.04914     -3370.26204        38.600  

  22018114.39704 130344808.97714      -797.78504        38.600  

  22352085.31504 132099841.56814      3005.66804        38.300  

  19609442.38605 117687149.53115       381.16805        39.700  

  22323405.99204 131949127.57614     -2537.63704        38.600  

  24060016.66904 141075075.70804      2308.19504        37.700  

 06 10 29 01 45 24.0000000  0  9G10G26G21G22G 6G30G 1G17G16                     
  23522229.11404 138248986.08414      3810.85504        37.800  

  20437428.32045 122038245.90845     -1571.27045        39.300  

  20752486.81605 123693888.69215      1859.02705        38.900  

  22218981.80404 131400378.58514     -3370.65204        38.700  

  22018266.32904 130345607.36414      -798.57404        38.400  

  22351513.31744 132096835.91454      3005.74644        38.300  

  19609369.94705 117686768.81215       380.27305        39.700  

  22323888.90904 131951665.47914     -2538.25004        38.500  

  24059577.50504 141072767.94314      2307.52704        37.900  

 06 10 29 01 45 25.0000000  0  9G10G26G21G22G 6G30G 1G17G16                     
  23521503.94004 138245175.36414      3810.86704        38.000  

  20437727.34945 122039817.38545     -1571.61745        39.300  

  20752133.10005 123692030.00815      1858.38305        39.000  

  22219623.23204 131403749.46914     -3371.10904        38.600  

  22018418.40304 130346406.53314      -799.52304        38.400  

  22350941.41044 132093830.52044      3005.25044        38.300  

  19609297.62505 117686388.81815       379.57805        39.500  

  22324371.95504 131954203.89814     -2539.08204        38.500  

  24059138.46304 141070460.74514      2306.65204        38.000  

 06 10 29 01 45 26.0000000  0  9G10G26G21G22G 6G30G 1G17G16                     
  23520778.80744 138241364.90954      3810.28144        37.800  

  20438026.46305 122041389.32805     -1572.30105        39.100  

  20751779.53205 123690171.95915      1857.84405        39.000  

  22220264.80144 131407120.80054     -3371.40244        38.500  

  22018570.62804 130347206.59814      -800.69504        38.600  

  22350369.58004 132090825.45704      3004.80904        38.500  

  19609225.45745 117686009.59055       379.04345        39.700  

  22324855.09404 131956742.91414     -2539.43804        38.300  

  24058699.52644 141068154.20454      2306.08644        37.900  

 06 10 29 01 45 27.0000000  0  9G10G26G21G22G 6G30G 1G17G16                     
  23520053.76644 138237554.71744      3810.04344        37.800  

  20438325.71505 122042961.80515     -1572.78505        39.400  

  20751426.08205 123688314.60515      1857.15605        39.200  

  22220906.44304 131410492.59504     -3371.97304        38.500  

  22018723.03504 130348007.54704      -801.37504        38.600  

  22349797.81644 132087820.75654      3004.37144        38.600  

  19609153.46945 117685631.23145       377.94945        39.300  

  22325338.37804 131959282.57014     -2539.82004        38.600  

  24058260.72744 141065848.37544      2305.35544        37.800  

 06 10 29 01 45 28.0000000  0  9G10G26G21G22G 6G30G 1G17G16                     
  23519328.78544 138233744.80144      3809.94544        37.800  

  20438625.02905 122044534.75015     -1573.15605        39.100  

  20751072.77105 123686457.93215      1856.17205        39.200  

  22221548.19304 131413864.84814     -3372.48404        38.500  

  22018875.61004 130348809.40504      -802.59804        38.600  

  22349226.08804 132084816.38104      3004.07404        38.600  

  19609081.63245 117685253.68045       377.00845        39.500  

  22325821.75304 131961822.85114     -2540.52304        38.600  

  24057822.08604 141063543.22404      2304.96504        37.900  

 06 10 29 01 45 29.0000000  0  9G10G26G21G22G 6G30G 1G17G16                     
  23518603.83544 138229934.96644      3809.59844        37.900  

  20438924.41105 122046108.05215     -1573.60505        39.300  

  20750719.54105 123684601.73615      1856.12105        39.100  

  22222189.98504 131417237.39114     -3372.49604        38.600  

  22019028.32804 130349611.99904      -803.06604        38.700  

  22348654.41644 132081812.21954      3004.11344        38.400  

  19609009.89445 117684876.77245       376.65245        39.600  

  22326305.23004 131964363.57514     -2540.82004        38.500  

  24057383.56304 141061238.59814      2304.43404        37.700  

 06 10 29 01 45 30.0000000  0  9G10G26G21G22G 6G30G 1G17G16                     
  23517878.85904 138226125.13404      3809.76604        38.100  

  20439223.85605 122047681.61715     -1573.77305        39.000  

  20750366.40705 123682745.97615      1855.76605        39.300  

  22222831.81304 131420610.15114     -3372.73004        38.600  

  22019181.19104 130350415.22604      -803.34404        38.600  

  22348082.76944 132078808.14244      3004.07044        38.300  

  19608938.29845 117684500.44545       375.91845        39.500  

  22326788.80304 131966904.72414     -2541.44504        38.500  

  24056945.07704 141058934.42114      2304.13304        37.700  

 06 10 29 01 45 31.0000000  0  9G10G26G21G22G 6G30G 1G17G16                     
  23517153.84504 138222315.25714      3809.77704        38.100  

  20439523.32005 122049255.33415     -1573.83205        39.200  

  20750013.32805 123680890.58015      1855.05505        39.000  

  22223473.66704 131423983.05614     -3373.00804        38.700  

  22019334.15204 130351219.06004      -804.15604        38.400  

  22347511.13144 132075804.10844      3003.88344        38.600  

  19608866.77145 117684124.61045       375.57445        39.700  

  22327272.43204 131969446.12414     -2541.41404        38.600  

  24056506.71604 141056630.61614      2303.30904        37.700  

 06 10 29 01 45 32.0000000  0  9G10G26G21G22G 6G30G 1G17G16                     
  23516428.88744 138218505.41554      3809.82844        38.000  

  20439822.84545 122050829.35855     -1574.45745        39.200  

  20749660.32345 123679035.61055      1854.69545        39.100  

  22224115.53844 131427356.19454     -3372.99644        38.600  

  22019487.24744 130352023.57044      -805.04744        38.700  

  22346939.50544 132072800.19044      3003.91444        38.600  

  19608795.38045 117683749.39245       374.86345        39.500  

  22327756.11744 131971987.95654     -2542.00844        38.100  

  24056068.39044 141054327.27254      2303.02044        37.900  

 06 10 29 01 45 33.0000000  0  9G10G26G21G22G 6G30G 1G17G16                     
  23515703.92104 138214695.64504      3809.47704        38.000  

  20440122.43905 122052403.67505     -1574.56605        39.200  

  20749307.41605 123677181.11505      1854.28105        39.300  

  22224757.50204 131430729.58804     -3373.38304        38.500  

  22019640.48604 130352828.77204      -805.45304        38.700  

  22346367.91844 132069796.42644      3003.75444        38.500  

  19608724.09545 117683374.77445       374.31345        39.600  

  22328239.90504 131974530.20504     -2542.37104        38.500  

  24055630.16704 141052024.39704      2302.72304        37.900  

 06 10 29 01 45 34.0000000  0  9G10G26G21G22G 6G30G 1G17G16                     
  23514978.97704 138210885.93414      3809.99604        37.900  

  20440422.07805 122053978.30915     -1574.85505        39.200  

  20748954.61845 123675327.13655      1853.75845        39.000  

  22225399.50404 131434103.27614     -3373.74604        38.600  

  22019793.83704 130353634.71914      -806.57004        38.800  

  22345796.36004 132066792.84704      3003.47304        38.500  

  19608652.94105 117683000.80605       373.61705        39.600  

  22328723.74904 131977072.91414     -2543.14504        38.300  

  24055192.02404 141049722.05614      2302.19104        37.900  

 06 10 29 01 45 35.0000000  0  9G10G26G21G22G 6G30G 1G17G16                     
  23514254.01804 138207076.36714      3809.39804        37.900  

  20440721.78305 122055553.32115     -1575.37105        39.200  

  20748601.93245 123673473.65245      1853.30945        39.200  

  22226041.56704 131437477.29014     -3374.34004        38.500  

  22019947.34104 130354441.37814      -806.93404        38.500  

  22345224.82604 132063789.46214      3003.10904        38.600  

  19608581.91205 117682627.52015       372.73405        39.500  

  22329207.69704 131979616.09214     -2543.64504        38.500  

  24054754.01704 141047420.24914      2301.51204        38.000  

 06 10 29 01 45 36.0000000  0  9G10G26G21G22G 6G30G 1G17G16                     
  23513529.09004 138203266.91814      3809.58204        38.100  

  20441021.54805 122057128.66015     -1575.67605        39.400  

  20748249.32605 123671620.73605      1852.68005        39.000  

  22226683.69104 131440851.59314     -3374.38304        38.700  

  22020101.00104 130355248.81614      -807.77704        38.600  

  22344653.33644 132060786.29254      3003.06344        38.600  

  19608511.03505 117682254.91515       372.24605        39.600  

  22329691.71904 131982159.72414     -2543.88704        38.600  

  24054316.10904 141045118.98114      2301.31604        37.900  

 06 10 29 01 45 37.0000000  0  9G10G26G21G22G 6G30G 1G17G16                     
  23512804.18104 138199457.51014      3809.48804        38.000  

  20441321.40205 122058704.32315     -1575.86305        39.100  

  20747896.81505 123669768.25215      1852.43405        39.100  

  22227325.83304 131444226.18614     -3374.98404        38.300  

  22020254.76604 130356056.95914      -808.49204        38.600  

  22344081.88504 132057783.27404      3003.01604        38.300  

  19608440.24305 117681882.91815       371.68405        39.500  

  22330175.83304 131984703.82414     -2544.39804        38.300  

  24053878.28104 141042818.22514      2300.49604        37.900  

 06 10 29 01 45 38.0000000  0  9G10G26G21G22G 6G30G 1G17G16                     
  23512079.30144 138195648.32654      3809.15644        38.300  

  20441621.32945 122060280.43655     -1576.53545        39.200  

  20747544.43045 123667916.41755      1851.56645        39.000  

  22227968.04344 131447601.14754     -3375.28144        38.500  

  22020408.70844 130356865.95354      -809.46144        38.500  

  22343510.48344 132054780.53354      3002.86744        38.400  

  19608369.60545 117681511.68155       370.85945        39.700  

  22330660.06744 131987248.46354     -2544.89544        38.500  

  24053440.57644 141040518.08854      2299.76644        37.900  

 06 10 29 01 45 39.0000000  0  9G10G26G21G22G 6G30G 1G17G16                     
  23511354.47104 138191839.40404      3808.79304        38.000  

  20441921.34205 122061857.03805     -1576.73405        39.300  

  20747192.16105 123666065.22605      1851.25405        39.000  

  22228610.35944 131450976.58444     -3375.54344        38.500  

  22020562.82204 130357675.85104      -810.35204        38.500  

  22342939.12804 132051778.19004      3002.16404        38.300  

  19608299.11805 117681141.28105       370.12105        39.600  

  22331144.41904 131989793.74204     -2545.47704        38.400  

  24053003.00104 141038218.64204      2299.31604        38.000  

 06 10 29 01 45 40.0000000  0  9G10G26G21G22G 6G30G 1G17G16                     
  23510629.65844 138188030.63454      3808.62944        38.200  

  20442221.42845 122063434.03555     -1577.10545        39.300  

  20746839.99845 123664214.61155      1850.57045        39.300  

  22229252.72304 131454352.36704     -3376.10504        38.600  

  22020717.08104 130358486.50414      -810.82804        38.300  

  22342367.81804 132048776.05914      3002.09804        38.500  

  19608228.76405 117680771.57415       369.34805        39.600  

  22331628.87604 131992339.52714     -2545.93804        38.600  

  24052565.55444 141035919.77354      2298.56344        37.700  

 06 10 29 01 45 41.0000000  0  9G10G26G21G22G 6G30G 1G17G16                     
  23509904.89744 138184222.03944      3808.44544        38.200  

  20442521.60645 122065011.45645     -1577.68045        39.000  

  20746487.93645 123662364.57245      1850.00445        39.000  

  22229895.19104 131457728.50514     -3376.08604        38.200  

  22020871.50104 130359298.00314      -811.87904        38.600  

  22341796.55204 132045774.18914      3001.83204        38.400  

  19608158.53605 117680402.61715       368.68805        39.500  

  22332113.43944 131994885.86654     -2546.78544        38.400  

  24052128.20504 141033621.49504      2297.90604        37.800  

 06 10 29 01 45 42.0000000  0  9G10G26G21G22G 6G30G 1G17G16                     
  23509180.17604 138180413.62004      3808.14104        37.900  

  20442821.85745 122066589.27845     -1578.07845        39.000  

  20746135.99045 123660515.13545      1849.10945        38.900  

  22230537.71044 131461105.04654     -3376.63344        38.400  

  22021026.07804 130360110.30814      -812.65604        38.400  

  22341225.33904 132042772.59014      3001.41004        38.300  

  19608088.48805 117680034.40015       367.77305        39.600  

  22332598.08144 131997432.72344     -2547.19544        38.600  

  24051690.98204 141031323.85214      2297.33604        37.900  

 06 10 29 01 45 43.0000000  0  9G10G26G21G22G 6G30G 1G17G16                     
  23508455.48404 138176605.34214      3808.30104        37.900  

  20443122.20405 122068167.49405     -1578.27005        39.300  

  20745784.14245 123658666.24545      1848.72745        39.100  

  22231180.35104 131464481.91404     -3376.89104        38.600  

  22021180.78704 130360923.40514      -813.57004        38.500  

  22340654.21144 132039771.21254      3001.43444        38.600  

  19608018.54605 117679666.87815       367.16805        39.400  

  22333082.83904 131999980.09704     -2548.00004        38.200  

  24051253.85604 141029026.75314      2296.91004        37.700  

 06 10 29 01 45 44.0000000  0  9G10G26G21G22G 6G30G 1G17G16                     
  23507730.85204 138172797.16414      3808.16004        38.000  

  20443422.61045 122069746.05355     -1578.62945        39.200  

  20745432.39045 123656817.86845      1848.28545        39.000  

  22231823.00904 131467859.08414     -3377.48004        38.600  

  22021335.65504 130361737.20214      -813.95704        38.400  

  22340083.09904 132036770.04004      3000.99204        38.600  

  19607948.73745 117679299.99555       366.64545        39.600  

  22333567.69144 132002527.91454     -2548.13344        38.100  

  24050816.85904 141026730.19514      2296.05504        37.700  

 06 10 29 01 45 45.0000000  0  9G10G26G21G22G 6G30G 1G17G16                     
  23507006.19444 138168989.02454      3808.29744        38.100  

  20443723.07245 122071324.87745     -1579.03945        39.400  

  20745080.72105 123654969.92105      1847.93805        39.000  

  22232465.72804 131471236.47714     -3377.59804        38.700  

  22021490.65604 130362551.69914      -814.68404        38.400  

  22339512.00144 132033768.95754      3001.26244        38.400  

  19607879.02405 117678933.72105       366.10505        39.600  

  22334052.61144 132005076.13644     -2548.53144        38.300  

  24050379.92104 141024434.07614      2295.91004        37.600  

 06 10 29 01 45 46.0000000  0  9G10G26G21G22G 6G30G 1G17G16                     
  23506281.51804 138165180.87004      3808.15204        38.000  

  20444023.53445 122072903.91645     -1579.16845        39.100  

  20744729.15945 123653122.40255      1847.28145        39.300  

  22233108.46804 131474614.05514     -3377.68404        38.300  

  22021645.76004 130363366.82914      -815.53104        38.600  

  22338940.93244 132030768.00344      3000.81644        38.500  

  19607809.39505 117678567.99015       365.42205        39.700  

  22334537.61144 132007624.70444     -2548.99244        38.600  

  24049943.08004 141022138.39314      2295.46904        37.800  

 06 10 29 01 45 47.0000000  0  9G10G26G21G22G 6G30G 1G17G16                     
  23505556.89204 138161372.79214      3807.85204        38.000  

  20444324.08945 122074483.29345     -1579.78145        39.200  

  20744377.66845 123651275.34545      1846.76245        39.000  

  22233751.22904 131477991.90014     -3377.95304        38.600  

  22021800.99004 130364182.65414      -816.17604        38.600  

  22338369.89304 132027767.17904      3000.77304        38.200  

  19607739.93705 117678202.88815       364.70305        39.600  

  22335022.65844 132010173.69844     -2549.22344        38.200  

  24049506.34904 141019843.21214      2294.83204        37.900  

 06 10 29 01 45 48.0000000  0  9G10G26G21G22G 6G30G 1G17G16                     
  23504832.21804 138157564.68814      3808.10504        38.000  

  20444624.67345 122076062.87945     -1579.71145        39.300  

  20744026.24445 123649428.67745      1846.51245        39.300  

  22234394.04204 131481369.92814     -3378.05104        38.400  

  22021956.33904 130364999.08514      -816.64104        38.700  

  22337798.91144 132024766.42254      3000.76244        38.500  

  19607670.56705 117677838.32515       364.25805        39.600  

  22335507.75844 132012723.03944     -2549.39844        38.600  

  24049069.65304 141017548.41914      2294.42604        37.800  

 06 10 29 01 45 49.0000000  0  9G10G26G21G22G 6G30G 1G17G16                     
  23504107.59804 138153756.70614      3808.14804        38.100  

  20444925.30745 122077642.80445     -1580.17645        39.300  

  20743674.90645 123647582.53445      1845.39545        39.100  

  22235036.92104 131484748.25714     -3378.39804        38.600  

  22022111.85204 130365816.29714      -817.71904        38.500  

  22337227.92804 132021765.88404      3000.43404        38.700  

  19607601.33405 117677474.43115       363.50005        39.700  

  22335992.97004 132015272.86804     -2550.09004        38.400  

  24048633.07704 141015254.17314      2293.97704        37.700  

 06 10 29 01 45 50.0000000  0  9G10G26G21G22G 6G30G 1G17G16                     
  23503383.02944 138149948.94654      3807.69544        38.000  

  20445226.03545 122079223.21445     -1580.66045        39.300  

  20743323.69745 123645737.01045      1845.09845        39.000  

  22235679.88444 131488127.03454     -3379.28144        38.200  

  22022267.54844 130366634.35454      -818.77044        38.500  

  22336657.00344 132018765.65654      3000.05144        38.700  

  19607532.24445 117677111.33955       362.57445        39.700  

  22336478.33644 132017823.26954     -2550.75844        38.200  

  24048196.61344 141012960.59154      2293.22344        37.800  

 06 10 29 01 45 51.0000000  0  9G10G26G21G22G 6G30G 1G17G16                     
  23502658.48904 138146141.44104      3807.34804        37.900  

  20445526.86605 122080804.09305     -1581.09805        39.100  

  20742972.63605 123643892.15005      1844.47305        39.000  

  22236322.91304 131491506.20404     -3379.32804        38.700  

  22022423.39044 130367453.27844      -819.48044        38.600  

  22336086.12804 132015765.73704      2999.63304        38.600  

  19607463.27805 117676749.00705       361.93005        39.600  

  22336963.80104 132020374.24104     -2550.96904        38.300  

  24047760.28244 141010667.65444      2292.33644        38.000  

 06 10 29 01 45 52.0000000  0  9G10G26G21G22G 6G30G 1G17G16                     
  23501933.85304 138142333.39114      3807.95304        38.000  

  20445827.64045 122082384.65555     -1580.51645        38.900  

  20742621.55605 123642047.16015      1844.77305        39.100  

  22236965.93304 131494885.06014     -3378.95704        38.500  

  22022579.25904 130368272.28804      -819.03904        38.500  

  22335515.16904 132012765.37914      3000.57804        38.300  

  19607394.33705 117676386.70415       362.24605        39.700  

  22337449.17604 132022925.07614     -2551.12104        38.400  

  24047323.93944 141008374.61844      2292.91844        37.900  

 06 10 29 01 45 53.0000000  0  9G10G26G21G22G 6G30G 1G17G16                     
  23501209.27604 138138525.70014      3807.41404        38.100  

  20446128.55345 122083965.85245     -1581.71545        39.200  

  20742270.60505 123640202.94815      1843.60905        39.100  

  22237608.98604 131498264.46814     -3380.04704        38.700  

  22022735.29604 130369092.34614      -820.80104        38.400  

  22334944.31604 132009765.49414      2999.46104        38.500  

  19607325.57105 117676025.35015       360.82405        39.600  

  22337934.71204 132025476.60914     -2552.01204        38.600  

  24046887.71844 141006082.38544      2291.71944        37.800  

 06 10 29 01 45 54.0000000  0  9G10G26G21G22G 6G30G 1G17G16                     
  23500484.80204 138134718.56014      3806.93404        38.100  

  20446429.58545 122085547.81345     -1582.15645        39.200  

  20741919.84105 123638359.69615      1842.95705        38.900  

  22238252.21104 131501644.61314     -3380.42204        38.500  

  22022891.55304 130369913.55614      -821.51204        38.700  

  22334373.57504 132006766.21814      2999.04304        38.600  

  19607257.01005 117675665.08515       359.84805        39.700  

  22338420.44504 132028029.06714     -2552.71104        38.500  

  24046451.68344 141003791.11844      2290.96944        37.800  

 06 10 29 01 45 55.0000000  0  9G10G26G21G22G 6G30G 1G17G16                     
  23499760.37804 138130911.70114      3806.80504        38.100  

  20446730.74845 122087130.30045     -1582.64545        38.900  

  20741569.20605 123636517.11815      1842.44905        39.200  

  22238895.53204 131505025.25214     -3381.21504        38.600  

  22023047.99904 130370735.69514      -822.53504        38.500  

  22333802.93704 132003767.33214      2998.68004        38.200  

  19607188.60605 117675305.65615       358.89105        39.400  

  22338906.26404 132030582.16714     -2553.42604        38.600  

  24046015.81644 141001500.57244      2290.10244        37.800  

 06 10 29 01 45 56.0000000  0  9G10G26G21G22G 6G30G 1G17G16                     
  23499035.98304 138127105.04414      3806.52004        38.200  

  20447031.95505 122088713.23005     -1583.17205        39.200  

  20741218.69805 123634675.17615      1841.64505        39.000  

  22239538.95104 131508406.26114     -3381.39104        38.600  

  22023204.60004 130371558.66814      -823.50404        38.600  

  22333232.33744 132000768.72354      2998.59044        38.300  

  19607120.33405 117674946.98215       358.32405        39.400  

  22339392.21204 132033135.81614     -2553.89804        38.300  

  24045580.05304 140999210.62804      2289.38704        37.700  

 06 10 29 01 45 57.0000000  0  9G10G26G21G22G 6G30G 1G17G16                     
  23498311.64744 138123298.50854      3806.41044        38.000  

  20447333.22605 122090296.49615     -1583.19505        39.300  

  20740868.28005 123632833.73115      1841.27005        39.100  

  22240182.40204 131511787.56414     -3381.41004        38.400  

  22023361.38304 130372382.38614      -824.16404        38.500  

  22332661.73544 131997770.31744      2998.17644        38.400  

  19607052.18945 117674588.95855       357.76645        39.400  

  22339878.25544 132035689.90954     -2554.42644        38.600  

  24045144.40404 140996921.23214      2289.10904        37.700  

 06 10 29 01 45 58.0000000  0  9G10G26G21G22G 6G30G 1G17G16                     
  23497587.29944 138119491.97944      3806.61744        37.800  

  20447634.57845 122091880.05355     -1583.98045        39.200  

  20740517.94905 123630992.74415      1840.79705        38.900  

  22240825.88604 131515169.11214     -3381.68804        38.300  

  22023518.27704 130373206.75014      -824.53104        38.500  

  22332091.15944 131994772.02444      2998.21544        38.500  

  19606984.18045 117674231.53945       357.17245        39.600  

  22340364.37844 132038244.41044     -2554.61344        38.200  

  24044708.82104 140994632.27514      2288.69904        37.700  

 06 10 29 01 45 59.0000000  0  9G10G26G21G22G 6G30G 1G17G16                     
  23496862.95444 138115685.58044      3806.22344        38.200  

  20447935.98205 122093463.91905     -1584.01605        39.200  

  20740167.69545 123629152.25355      1840.22345        39.000  

  22241469.44044 131518550.95454     -3382.16844        38.700  

  22023675.29844 130374031.87654      -825.62144        38.700  

  22331520.63344 131991773.91944      2997.84844        38.300  

  19606916.29445 117673874.78545       356.18845        39.600  

  22340850.59304 132040799.36504     -2555.26204        38.500  

  24044273.37004 140992343.86114      2287.94104        38.000  

 06 10 29 01 46  0.0000000  0  9G10G26G21G22G 6G30G 1G17G16                     
  23496138.61244 138111879.13644      3806.34844        37.900  

  20448237.42005 122095048.00815     -1583.95305        39.500  

  20739817.54005 123627312.14005      1839.92205        39.100  

  22242113.03444 131521932.96844     -3382.04344        38.500  

  22023832.42544 130374857.59844      -825.92244        38.500  

  22330950.14804 131988775.87304      2997.93004        38.600  

  19606848.50305 117673518.55505       355.89105        39.400  

  22341336.85904 132043354.66914     -2555.31604        38.500  

  24043837.98304 140990055.88614      2287.60504        37.800  

 06 10 29 01 46  1.0000000  0  9G10G26G21G22G 6G30G 1G17G16                     
  23495414.28544 138108072.78944      3806.02044        38.100  

  20448538.91605 122096632.41815     -1584.57805        39.100  

  20739467.47605 123625472.53715      1839.24205        39.100  

  22242756.65244 131525315.23744     -3382.37544        38.400  

  22023989.70844 130375684.04144      -826.76644        38.700  

  22330379.65204 131985777.98614      2997.99604        38.700  

  19606780.81505 117673162.94315       355.39105        39.600  

  22341823.19244 132045910.37554     -2555.71144        38.500  

  24043402.68344 140987768.32454      2287.65244        37.700  

 06 10 29 01 46  2.0000000  0  9G10G26G21G22G 6G30G 1G17G16                     
  23494689.96944 138104266.40144      3806.55144        38.100  

  20448840.46645 122098217.03855     -1584.55145        39.200  

  20739117.51645 123623633.32855      1838.89145        39.100  

  22243400.31544 131528697.69744     -3382.50844        38.600  

  22024147.10744 130376511.10244      -827.39144        38.500  

  22329809.19044 131982780.20154      2998.04344        38.200  

  19606713.25645 117672807.89755       354.77345        39.400  

  22342309.60944 132048466.46844     -2556.37544        38.400  

  24042967.47144 140985481.25944      2286.79344        37.900  

 06 10 29 01 46  3.0000000  0  9G10G26G21G22G 6G30G 1G17G16                     
  23493965.64544 138100460.06844      3805.99244        38.100  

  20449142.03405 122099801.93005     -1584.92605        39.000  

  20738767.62505 123621794.53605      1838.29305        38.900  

  22244043.99044 131532080.37944     -3382.90244        38.300  

  22024304.64644 130377338.82944      -828.18444        38.800  

  22329238.73604 131979782.53104      2997.44904        38.600  

  19606645.81305 117672453.43005       354.09405        39.600  

  22342796.06004 132051022.89804     -2556.37104        38.500  

  24042532.33504 140983194.62804      2286.36304        37.700  

 06 10 29 01 46  4.0000000  0  9G10G26G21G22G 6G30G 1G17G16                     
  23493241.34904 138096653.93504      3806.02004        38.200  

  20449443.70305 122101387.26815     -1585.55505        39.300  

  20738417.84105 123619956.36315      1837.89105        39.100  

  22244687.76004 131535463.46604     -3383.33604        38.400  

  22024462.30544 130378167.39644      -828.95744        38.600  

  22328668.34244 131976785.12454      2997.38744        38.400  

  19606578.48005 117672099.70915       353.19505        39.600  

  22343282.65844 132053579.92854     -2557.20344        38.500  

  24042097.31104 140980908.61514      2285.41404        37.800  

 06 10 29 01 46  5.0000000  0  9G10G26G21G22G 6G30G 1G17G16                     
  23492517.13544 138092848.07954      3805.78944        38.300  

  20449745.48605 122102973.13715     -1585.99205        39.400  

  20738068.19605 123618118.89715      1837.39105        38.900  

  22245331.63004 131538847.03214     -3383.82804        38.600  

  22024620.17904 130378996.87304      -829.96504        38.600  

  22328098.01704 131973788.12704      2996.82404        38.300  

  19606511.31205 117671746.84515       352.55905        39.500  

  22343769.38004 132056137.58604     -2557.90604        38.500  

  24041662.43904 140978623.31814      2285.27004        37.900  

 06 10 29 01 46  6.0000000  0  9G10G26G21G22G 6G30G 1G17G16                     
  23491792.92504 138089042.45904      3805.39104        38.200  

  20450047.34105 122104559.44915     -1586.56605        39.100  

  20737718.66445 123616282.05055      1836.52745        39.100  

  22245975.57704 131542230.99014     -3384.28104        38.700  

  22024778.21204 130379827.22714      -830.76604        38.600  

  22327527.80204 131970791.43714      2996.31304        38.600  

  19606444.31305 117671394.74015       351.97705        39.600  

  22344256.19704 132058695.81814     -2558.37504        38.200  

  24041227.68904 140976338.69514      2284.24204        37.800  

 06 10 29 01 46  7.0000000  0  9G10G26G21G22G 6G30G 1G17G16                     
  23491068.77804 138085237.02814      3805.35204        38.100  

  20450349.29405 122106146.20015     -1587.03905        39.100  

  20737369.23105 123614445.81605      1836.02705        39.100  

  22246619.59004 131545615.34214     -3384.44904        38.400  

  22024936.36504 130380658.40114      -831.68804        38.700  

  22326957.59304 131967794.98714      2996.32804        38.300  

  19606377.46705 117671043.40415       351.01205        39.500  

  22344743.10904 132061254.62614     -2559.30504        38.500  

  24040793.04344 140974054.64854      2283.96544        37.700  

 06 10 29 01 46  8.0000000  0  9G10G26G21G22G 6G30G 1G17G16                     
  23490344.67744 138081431.83954      3805.00044        38.100  

  20450651.33845 122107733.41655     -1587.47345        39.200  

  20737019.91145 123612610.20655      1835.58645        39.000  

  22247263.65844 131549000.12854     -3384.92644        38.400  

  22025094.69144 130381490.43454      -832.64144        38.600  

  22326387.47644 131964798.88254      2996.04344        38.500  

  19606310.76545 117670692.85055       350.22345        39.700  

  22345230.15744 132063813.97054     -2559.34044        38.500  

  24040358.51444 140971771.26744      2283.24244        37.900  

 06 10 29 01 46  9.0000000  0  9G10G26G21G22G 6G30G 1G17G16                     
  23489620.59004 138077626.74604      3805.05904        37.800  

  20450953.44605 122109320.96105     -1587.63705        39.300  

  20736670.68945 123610775.14145      1834.67245        39.100  

  22247907.79504 131552385.20804     -3385.35504        38.500  

  22025253.14604 130382323.21704      -833.37504        38.400  

  22325817.34604 131961802.97604      2995.50004        38.300  

  19606244.16905 117670342.95205       349.32005        39.600  

  22345717.28004 132066373.81504     -2559.97704        38.500  

  24039924.09504 140969488.45304      2282.58604        37.900  

 06 10 29 01 46 10.0000000  0  9G10G26G21G22G 6G30G 1G17G16                     
  23488896.53304 138073821.76714      3804.95304        37.900  

  20451255.63145 122110908.86755     -1588.02345        39.100  

  20736321.56945 123608940.58545      1834.17645        39.200  

  22248552.04504 131555770.58914     -3385.35204        38.300  

  22025411.76804 130383156.72314      -833.66004        38.500  

  22325247.26804 131958807.25114      2995.82804        38.300  

  19606177.71745 117669993.72455       348.93445        39.700  

  22346204.48804 132068934.11614     -2560.30104        38.600  

  24039489.77344 140967206.15754      2282.01644        37.900  

 06 10 29 01 46 11.0000000  0  9G10G26G21G22G 6G30G 1G17G16                     
  23488172.48604 138070016.82514      3804.88704        37.900  

  20451557.87505 122112497.03405     -1588.03905        39.100  

  20735972.55045 123607106.46845      1833.73045        38.900  

  22249196.29504 131559156.20614     -3385.94104        38.500  

  22025570.49704 130383990.92314      -834.41004        38.600  

  22324677.23004 131955811.67314      2995.49204        38.500  

  19606111.36305 117669645.06905       348.44105        39.600  

  22346691.76844 132071494.81354     -2560.87944        38.300  

  24039055.55344 140964924.33144      2281.42644        37.900  

 06 10 29 01 46 12.0000000  0  9G10G26G21G22G 6G30G 1G17G16                     
  23487448.40404 138066211.86914      3805.00404        38.000  

  20451860.13045 122114085.42955     -1588.37945        39.200  

  20735623.61445 123605272.73845      1833.40645        38.900  

  22249840.58104 131562541.98314     -3386.16404        38.500  

  22025729.34804 130384825.73214      -835.18004        38.700  

  22324107.19644 131952816.15754      2995.43044        38.500  

  19606045.10605 117669296.97715       347.67205        39.700  

  22347179.12444 132074055.84044     -2561.51244        38.300  

  24038621.41004 140962642.88604      2281.18004        38.000  

 06 10 29 01 46 13.0000000  0  9G10G26G21G22G 6G30G 1G17G16                     
  23486724.37504 138062406.97814      3804.85504        38.000  

  20452162.46845 122115674.13545     -1588.95745        39.000  

  20735274.76445 123603439.49745      1833.03545        39.100  

  22250484.91604 131565928.01514     -3385.98004        38.300  

  22025888.34204 130385661.24814      -835.80904        38.700  

  22323537.20804 131949820.78504      2995.37104        38.500  

  19605978.99305 117668949.50315       347.19505        39.600  

  22347666.53244 132076617.29144     -2561.57844        38.600  

  24038187.35704 140960361.98714      2280.62504        37.700  

 06 10 29 01 46 14.0000000  0  9G10G26G21G22G 6G30G 1G17G16                     
  23486000.35844 138058602.20454      3804.73044        37.800  

  20452464.87045 122117263.20745     -1589.44945        39.400  

  20734926.02345 123601606.76845      1832.40645        39.000  

  22251129.33744 131569314.37554     -3386.53144        38.700  

  22026047.49244 130386497.49754      -836.73444        38.700  

  22322967.25644 131946825.63854      2995.05144        38.500  

  19605912.99145 117668602.68655       346.55545        39.400  

  22348154.03744 132079179.21144     -2562.07444        38.500  

  24037753.41844 140958081.57954      2280.10944        37.800  

 06 10 29 01 46 15.0000000  0  9G10G26G21G22G 6G30G 1G17G16                     
  23485276.37204 138054797.60004      3804.50004        38.100  

  20452767.34145 122118852.62045     -1589.46545        39.300  

  20734577.39105 123599774.62605      1831.76205        39.300  

  22251773.83304 131572701.08104     -3387.13304        38.500  

  22026206.78104 130387334.54404      -837.32004        38.500  

  22322397.35004 131943830.70904      2994.91404        38.200  

  19605847.14805 117668256.58905       345.77005        39.700  

  22348641.65144 132081741.63244     -2562.59044        38.500  

  24037319.59304 140955801.78704      2279.35904        37.800  

 06 10 29 01 46 16.0000000  0  9G10G26G21G22G 6G30G 1G17G16                     
  23484552.43744 138050993.24954      3804.16444        38.100  

  20453069.92145 122120442.57045     -1589.96545        39.200  

  20734228.86905 123597943.11515      1831.28905        39.200  

  22252418.38904 131576088.21014     -3387.26204        38.600  

  22026366.21504 130388172.49414      -838.37104        38.700  

  22321827.50604 131940836.12614      2994.63704        38.600  

  19605781.41105 117667911.29915       344.98005        39.400  

  22349129.38104 132084304.68304     -2563.22704        38.200  

  24036885.89044 140953522.65754      2278.73844        38.000  

 06 10 29 01 46 17.0000000  0  9G10G26G21G22G 6G30G 1G17G16                     
  23483828.50104 138047188.94804      3804.18404        38.100  

  20453372.53205 122122032.81405     -1590.43405        39.100  

  20733880.43005 123596112.12115      1830.46905        39.000  

  22253063.00504 131579475.61714     -3387.73004        38.300  

  22026525.78904 130389011.12414      -838.86704        38.400  

  22321257.69804 131937841.71914      2994.27704        38.600  

  19605715.79545 117667566.63055       344.40245        39.700  

  22349617.19204 132086868.12414     -2563.57004        38.600  

  24036452.27644 140951244.02544      2278.17244        37.900  

 06 10 29 01 46 18.0000000  0  9G10G26G21G22G 6G30G 1G17G16                     
  23483104.57004 138043384.78114      3804.17604        38.000  

  20453675.20805 122123623.38615     -1590.73805        39.000  

  20733532.06805 123594281.60615      1830.17205        39.300  

  22253707.69504 131582863.31714     -3387.91004        38.500  

  22026685.51604 130389850.50114      -839.66404        38.500  

  22320687.91404 131934847.49414      2994.04304        38.500  

  19605650.31705 117667222.63705       343.50805        39.600  

  22350105.08304 132089432.07814     -2564.57804        38.600  

  24036018.77544 140948965.92044      2277.69944        37.800  

 06 10 29 01 46 19.0000000  0  9G10G26G21G22G 6G30G 1G17G16                     
  23482380.67544 138039580.66754      3804.14544        37.900  

  20453977.96305 122125214.26415     -1591.10505        39.100  

  20733183.83205 123592451.60415      1829.71105        39.100  

  22254352.40304 131586251.27114     -3388.17204        38.600  

  22026845.39204 130390690.58114      -840.41804        38.500  

  22320118.14204 131931853.41314      2993.89504        38.600  

  19605584.97505 117666879.24815       343.18005        39.600  

  22350593.03504 132091996.38414     -2564.43004        38.800  

  24035585.35644 140946688.32844      2277.35944        37.800  

 06 10 29 01 46 20.0000000  0  9G10G26G21G22G 6G30G 1G17G16                     
  23481656.78204 138035776.63604      3804.03104        37.900  

  20454280.74145 122126805.45155     -1591.32045        39.400  

  20732835.69705 123590622.06615      1829.33205        39.000  

  22254997.14204 131589639.49414     -3388.25804        38.600  

  22027005.40504 130391531.38614      -841.25404        38.500  

  22319548.40744 131928859.52654      2993.76644        38.500  

  19605519.73245 117666536.48555       342.46945        39.500  

  22351081.08304 132094561.16814     -2565.00404        38.600  

  24035152.07004 140944411.23504      2276.71904        37.900  

 06 10 29 01 46 21.0000000  0  9G10G26G21G22G 6G30G 1G17G16                     
  23480932.89804 138031972.65314      3804.27004        38.200  

  20454583.58205 122128396.91205     -1591.49205        39.200  

  20732487.62345 123588792.97855      1828.80945        39.000  

  22255641.95804 131593027.94114     -3388.34804        38.300  

  22027165.54504 130392372.84614      -841.83604        38.700  

  22318978.70204 131925865.73004      2993.82804        38.700  

  19605454.65645 117666194.33245       341.97745        39.500  

  22351569.23204 132097126.33914     -2565.66804        38.400  

  24034718.86004 140942134.60914      2276.45704        37.700  

 06 10 29 01 46 22.0000000  0  9G10G26G21G22G 6G30G 1G17G16                     
  23480209.05004 138028168.71714      3804.07804        38.100  

  20454886.51145 122129988.69155     -1592.11745        39.200  

  20732139.61805 123586964.36705      1828.37505        39.200  

  22256286.79744 131596416.65354     -3389.06644        38.300  

  22027325.81404 130393215.00614      -842.44504        38.500  

  22318409.00104 131922872.11614      2993.48404        38.600  

  19605389.64845 117665852.80245       341.09445        39.400  

  22352057.43044 132099691.91454     -2565.94944        38.300  

  24034285.74204 140939858.47214      2275.91004        38.000  

 06 10 29 01 46 23.0000000  0  9G10G26G21G22G 6G30G 1G17G16                     
  23479485.24804 138024364.97414      3803.87504        37.800  

  20455189.48145 122131580.84845     -1592.11745        39.300  

  20731791.75645 123585136.31255      1827.73845        39.000  

  22256931.70704 131599805.70904     -3389.25404        38.500  

  22027486.19804 130394057.95514      -843.38304        38.600  

  22317839.37904 131919878.72514      2993.26204        38.600  

  19605324.79145 117665511.97645       340.52745        39.600  

  22352545.71544 132102257.99744     -2566.13744        38.300  

  24033852.70704 140937582.92014      2275.53504        37.800  

 06 10 29 01 46 24.0000000  0  9G10G26G21G22G 6G30G 1G17G16                     
  23478761.43944 138020561.33254      3803.23444        38.000  

  20455492.50005 122133173.34305     -1592.64105        39.300  

  20731444.01945 123583308.79345      1827.30145        39.100  

  22257576.69804 131603195.04014     -3389.27704        38.400  

  22027646.73504 130394901.62414      -843.91804        38.600  

  22317269.78404 131916885.52314      2993.25404        38.600  

  19605260.07205 117665171.78105       339.87105        39.400  

  22353034.12104 132104824.55004     -2567.00404        38.800  

  24033419.77504 140935307.89214      2274.67604        37.900  

 06 10 29 01 46 25.0000000  0  9G10G26G21G22G 6G30G 1G17G16                     
  23478037.67744 138016757.82244      3803.45344        38.100  

  20455795.63505 122134766.23915     -1593.13705        39.100  

  20731096.35105 123581481.82705      1826.75005        39.000  

  22258221.75504 131606584.78714     -3390.29304        38.600  

  22027807.43904 130395746.13914      -845.05904        38.500  

  22316700.23704 131913892.60514      2992.62904        38.500  

  19605195.48705 117664832.36015       339.09405        39.400  

  22353522.62604 132107391.61814     -2567.46104        38.500  

  24032986.95604 140933033.47114      2274.25804        37.700  

 06 10 29 01 46 26.0000000  0  9G10G26G21G22G 6G30G 1G17G16                     
  23477313.95444 138012954.53144      3803.13344        38.100  

  20456098.87045 122136359.57355     -1593.48845        39.200  

  20730748.81845 123579655.50955      1825.90645        39.100  

  22258866.84244 131609974.84954     -3390.13744        38.700  

  22027968.29444 130396591.44054      -845.70344        38.700  

  22316130.74244 131910899.92154      2992.73444        38.400  

  19605131.04245 117664493.64155       338.25445        39.600  

  22354011.22744 132109959.22754     -2567.63344        38.500  

  24032554.27544 140930759.67454      2273.56644        37.800  

 06 10 29 01 46 27.0000000  0  9G10G26G21G22G 6G30G 1G17G16                     
  23476590.29044 138009151.54144      3802.84044        38.000  

  20456402.18605 122137953.44405     -1594.18405        39.200  

  20730401.40905 123577829.85105      1825.10205        39.100  

  22259512.05704 131613365.44904     -3390.85904        38.600  

  22028129.34144 130397437.68044      -846.82844        38.700  

  22315561.32604 131907907.66104      2992.12504        38.300  

  19605066.74805 117664155.78805       337.62905        39.400  

  22354499.94304 132112527.51104     -2568.78904        38.400  

  24032121.68304 140928486.57404      2272.62104        37.700  

 06 10 29 01 46 28.0000000  0  9G10G26G21G22G 6G30G 1G17G16                     
  23475866.66804 138005348.79704      3802.55504        37.900  

  20456705.57005 122139547.77715     -1594.76205        39.100  

  20730054.12005 123576004.86515      1824.46105        39.100  

  22260157.29704 131616756.43314     -3391.09404        38.500  

  22028290.55044 130398284.80044      -847.66844        38.600  

  22314991.98104 131904915.71514      2991.90604        38.500  

  19605002.60305 117663818.71915       336.98805        39.500  

  22354988.78304 132115096.35314     -2568.97704        38.500  

  24031689.26804 140926214.16614      2271.78504        37.900  

 06 10 29 01 46 29.0000000  0  9G10G26G21G22G 6G30G 1G17G16                     
  23475143.02404 138001546.17014      3802.84804        37.900  

  20457009.03305 122141142.47215     -1594.65605        39.300  

  20729706.93545 123574180.39355      1824.25445        39.100  

  22260802.68204 131620147.77514     -3391.59404        38.700  

  22028451.89244 130399132.67244      -848.04344        38.400  

  22314422.66604 131901924.00214      2991.42204        38.200  

  19604938.59105 117663482.37015       336.03505        39.600  

  22355477.68604 132117665.68414     -2569.46104        38.500  

  24031256.96904 140923942.32114      2271.57004        37.700  

 06 10 29 01 46 30.0000000  0  9G10G26G21G22G 6G30G 1G17G16                     
  23474419.42404 137997743.65414      3802.38304        38.000  

  20457312.55705 122142737.50615     -1595.51605        39.200  

  20729359.81845 123572356.45945      1823.55945        39.100  

  22261448.08904 131623539.36814     -3391.81604        38.400  

  22028613.39744 130399981.28044      -849.19144        38.600  

  22313853.40504 131898932.43514      2991.38704        38.300  

  19604874.69805 117663146.63715       335.14805        39.600  

  22355966.67104 132120235.46814     -2570.00404        38.500  

  24030824.75804 140921670.96114      2271.25804        37.900  

 06 10 29 01 46 31.0000000  0  9G10G26G21G22G 6G30G 1G17G16                     
  23473695.86344 137993941.20054      3802.80944        38.000  

  20457616.13705 122144332.84615     -1595.50805        39.300  

  20729012.81405 123570532.98105      1823.42605        39.300  

  22262093.54804 131626931.25814     -3392.14504        38.700  

  22028775.01744 130400830.57044      -849.34044        38.700  

  22313284.15204 131895941.05414      2991.37104        38.400  

  19604810.92305 117662811.54215       334.54305        39.600  

  22356455.77744 132122805.67954     -2570.35544        38.400  

  24030392.64804 140919400.13314      2270.68804        37.600  

 06 10 29 01 46 32.0000000  0  9G10G26G21G22G 6G30G 1G17G16                     
  23472972.31844 137990138.82044      3802.52744        38.200  

  20457919.75345 122145928.44955     -1595.90245        39.300  

  20728665.91145 123568709.97955      1822.68845        39.000  

  22262739.01144 131630323.33954     -3392.10944        38.500  

  22028936.75744 130401680.57244      -850.28944        38.500  

  22312714.93144 131892949.79854      2991.45344        38.500  

  19604747.24745 117662477.03155       334.17645        39.700  

  22356944.94944 132125376.26644     -2570.81344        38.400  

  24029960.56144 140917129.74954      2270.35544        37.700  

 06 10 29 01 46 33.0000000  0  9G10G26G21G22G 6G30G 1G17G16                     
  23472248.74204 137986336.46604      3802.31304        38.000  

  20458223.45005 122147524.34305     -1595.89505        39.200  

  20728319.10805 123566887.43105      1822.19105        39.100  

  22263384.58144 131633715.68144     -3392.43044        38.600  

  22029098.63504 130402531.23304      -850.85904        38.800  

  22312145.75104 131889958.66804      2991.27704        38.500  

  19604683.68705 117662143.12305       333.66405        39.600  

  22357434.18304 132127947.27804     -2571.32004        38.600  

  24029528.65004 140914859.88104      2269.54704        37.900  

 06 10 29 01 46 34.0000000  0  9G10G26G21G22G 6G30G 1G17G16                     
  23471525.21444 137982534.23454      3802.07844        37.900  

  20458527.21645 122149120.57255     -1596.29745        39.200  

  20727972.39405 123565065.39315      1821.57005        39.100  

  22264030.16804 131637108.32104     -3393.05104        38.200  

  22029260.65204 130403382.63914      -851.83604        38.700  

  22311576.58104 131886967.74114      2991.02004        38.600  

  19604620.29105 117661809.88815       332.79705        39.500  

  22357923.50404 132130518.72614     -2571.70304        38.400  

  24029096.81604 140912590.52814      2269.09404        37.600  

 06 10 29 01 46 35.0000000  0  9G10G26G21G22G 6G30G 1G17G16                     
  23470801.64244 137978732.13644      3802.09444        37.900  

  20458831.04405 122150717.19305     -1596.64105        39.100  

  20727625.76645 123563243.88955      1821.26245        38.900  

  22264675.83704 131640501.28614     -3392.98004        38.400  

  22029422.81604 130404234.81214      -852.37904        38.300  

  22311007.49104 131883977.06414      2990.57404        38.300  

  19604557.01305 117661477.34115       332.02705        39.500  

  22358412.92904 132133090.67914     -2572.32804        38.300  

  24028665.10204 140910321.73914      2268.48404        37.800  

 06 10 29 01 46 36.0000000  0  9G10G26G21G22G 6G30G 1G17G16                     
  23470078.15944 137974930.19744      3801.94944        38.000  

  20459134.91145 122152314.18855     -1597.04345        39.300  

  20727279.26245 123561422.96845      1820.60545        38.900  

  22265321.58104 131643894.60414     -3393.78904        38.200  

  22029585.09604 130405087.78214      -853.51604        38.500  

  22310438.43604 131880986.60914      2990.14804        38.400  

  19604493.84305 117661145.48915       331.59805        39.600  

  22358902.45204 132135663.13814     -2573.06604        38.600  

  24028233.48104 140908053.52614      2267.91804        37.600  

 06 10 29 01 46 37.0000000  0  9G10G26G21G22G 6G30G 1G17G16                     
  23469354.65804 137971128.18104      3801.96104        37.900  

  20459438.82845 122153911.33245     -1597.14545        39.000  

  20726932.80045 123559602.35645      1820.39845        39.000  

  22265967.31704 131647287.98414     -3393.52304        38.500  

  22029747.51504 130405941.28614      -853.87104        38.600  

  22309869.39104 131877996.14214      2990.03904        38.300  

  19604430.76105 117660814.12015       330.82005        39.400  

  22359392.02704 132138235.82414     -2572.92604        38.400  

  24027801.90304 140905785.66414      2267.53104        37.800  

 06 10 29 01 46 38.0000000  0  9G10G26G21G22G 6G30G 1G17G16                     
  23468631.20544 137967326.41854      3801.49244        37.800  

  20459742.84545 122155508.96745     -1597.68045        39.200  

  20726586.47545 123557782.43345      1819.49245        39.000  

  22266613.15944 131650681.83654     -3394.13744        38.400  

  22029910.10944 130406795.68454      -854.89844        38.700  

  22309300.39544 131875006.02454      2989.93844        38.700  

  19604367.85045 117660483.56155       329.97745        39.600  

  22359881.74044 132140809.17054     -2573.80144        38.500  

  24027370.45544 140903518.47454      2266.80944        37.700  

 06 10 29 01 46 39.0000000  0  9G10G26G21G22G 6G30G 1G17G16                     
  23467907.79104 137963524.85404      3801.50804        37.900  

  20460046.93845 122157107.02645     -1598.35945        39.200  

  20726240.24205 123555963.09205      1819.14505        39.000  

  22267259.07144 131654076.06044     -3394.12944        38.600  

  22030072.84004 130407650.89304      -855.59804        38.800  

  22308731.45204 131872016.16704      2990.01204        38.500  

  19604305.06705 117660153.73005       329.53505        39.400  

  22360371.51044 132143383.01044     -2573.89544        38.500  

  24026939.15404 140901251.91804      2266.02304        37.800  

 06 10 29 01 46 40.0000000  0  9G10G26G21G22G 6G30G 1G17G16                     
  23467184.41704 137959723.44614      3801.28904        37.900  

  20460351.11645 122158705.47245     -1598.55145        39.400  

  20725894.13805 123554144.32915      1818.45305        39.000  

  22267905.05144 131657470.65844     -3394.86344        38.600  

  22030235.74244 130408506.92154      -856.69944        38.400  

  22308162.57204 131869026.59314      2989.43004        38.500  

  19604242.43705 117659824.63115       328.72705        39.500  

  22360861.39744 132145957.39144     -2574.71144        38.500  

  24026507.95804 140898985.92614      2265.73404        37.900  

 06 10 29 01 46 41.0000000  0  9G10G26G21G22G 6G30G 1G17G16                     
  23466461.09604 137955922.22214      3801.10904        37.900  

  20460655.37305 122160304.34005     -1599.05905        39.200  

  20725548.12905 123552326.14515      1817.98805        38.900  

  22268551.05444 131660865.57544     -3394.77744        38.600  

  22030398.78504 130409363.69904      -857.05104        38.600  

  22307593.71104 131866037.25414      2989.39804        38.700  

  19604179.93445 117659496.23155       327.94145        39.600  

  22361351.38644 132148532.28144     -2575.13744        38.400  

  24026076.86544 140896720.53954      2265.19544        37.900  

 06 10 29 01 46 42.0000000  0  9G10G26G21G22G 6G30G 1G17G16                     
  23465737.77104 137952121.05114      3801.48004        37.900  

  20460959.70405 122161903.50515     -1599.27305        39.200  

  20725202.24105 123550508.44115      1817.37505        38.900  

  22269197.11144 131664260.77844     -3395.30544        38.500  

  22030561.96904 130410221.21614      -857.78104        38.500  

  22307024.88204 131863048.08414      2988.98404        38.500  

  19604117.55105 117659168.45405       327.73005        39.600  

  22361841.48044 132151107.57644     -2575.31344        38.100  

  24025645.84604 140894455.68104      2264.28504        37.700  

 06 10 29 01 46 43.0000000  0  9G10G26G21G22G 6G30G 1G17G16                     
  23465014.42804 137948319.91314      3800.99204        38.100  

  20461264.06605 122163502.91715     -1599.77305        39.200  

  20724856.41205 123548691.16815      1817.03905        39.000  

  22269843.22304 131667656.16104     -3395.24204        38.500  

  22030725.24004 130411079.38514      -858.84804        38.500  

  22306456.09604 131860059.02414      2988.61304        38.600  

  19604055.28045 117658841.27455       326.88345        39.600  

  22362331.59004 132153683.26004     -2575.90204        38.400  

  24025214.94644 140892191.23854      2264.21544        37.800  

 06 10 29 01 46 44.0000000  0  9G10G26G21G22G 6G30G 1G17G16                     
  23464291.12204 137944518.90414      3800.79304        38.000  

  20461568.49005 122165102.67115     -1600.06305        39.100  

  20724510.68105 123546874.40915      1816.66805        38.900  

  22270489.39204 131671051.86514     -3395.78104        38.400  

  22030888.66204 130411938.27214      -859.18804        38.600  

  22305887.32944 131857070.14254      2988.63744        38.500  

  19603993.13445 117658514.74445       326.14145        39.600  

  22362821.79004 132156259.39814     -2576.25404        38.500  

  24024784.13444 140889927.33944      2263.68044        37.900  

 06 10 29 01 46 45.0000000  0  9G10G26G21G22G 6G30G 1G17G16                     
  23463567.84904 137940718.04414      3800.73004        37.900  

  20461872.98405 122166702.82415     -1600.21105        39.400  

  20724165.06505 123545058.24115      1816.00405        39.000  

  22271135.61704 131674447.91214     -3395.91404        38.400  

  22031052.26604 130412797.96914      -859.82804        38.600  

  22305318.60104 131854081.51804      2988.52004        38.300  

  19603931.13145 117658188.91645       325.73445        39.800  

  22363312.11704 132158836.06014     -2576.83604        38.600  

  24024353.44344 140887664.04544      2263.02044        37.700  

 06 10 29 01 46 46.0000000  0  9G10G26G21G22G 6G30G 1G17G16                     
  23462844.60004 137936917.29414      3800.68004        37.900  

  20462177.53205 122168303.34315     -1600.93405        39.100  

  20723819.57705 123543242.58215      1815.55905        39.400  

  22271781.86644 131677844.26854     -3396.50044        38.700  

  22031216.01204 130413658.42614      -860.72704        38.500  

  22304749.91904 131851093.10514      2988.24604        38.600  

  19603869.25245 117657863.78245       324.85545        39.600  

  22363802.53804 132161413.18914     -2577.55904        38.600  

  24023922.82644 140885401.27644      2262.49244        38.000  

 06 10 29 01 46 47.0000000  0  9G10G26G21G22G 6G30G 1G17G16                     
  23462121.36504 137933116.72114      3800.65604        38.000  

  20462482.19105 122169904.19515     -1600.90205        39.300  

  20723474.19305 123541427.48915      1814.86305        39.000  

  22272428.22844 131681240.95144     -3396.89544        38.500  

  22031379.89504 130414519.65014      -861.57804        38.800  

  22304181.27904 131848104.92114      2987.93804        38.600  

  19603807.52045 117657539.33645       324.26645        39.600  

  22364293.03804 132163990.79714     -2577.96904        38.600  

  24023492.33644 140883139.09744      2261.91444        37.900  

 06 10 29 01 46 48.0000000  0  9G10G26G21G22G 6G30G 1G17G16                     
  23461398.18004 137929316.34814      3800.32004        38.000  

  20462786.92505 122171505.54015     -1601.64805        39.300  

  20723128.91105 123539613.02715      1814.09805        39.200  

  22273074.68904 131684638.04204     -3397.27704        38.500  

  22031543.92545 130415381.71555      -862.47345        38.900  

  22303612.72704 131845117.03214      2987.61304        38.600  

  19603745.93245 117657215.66745       323.13745        39.600  

  22364783.66504 132166568.95714     -2578.36704        38.300  

  24023061.96444 140880877.55344      2261.13344        37.700  

 06 10 29 01 46 49.0000000  0  9G10G26G21G22G 6G30G 1G17G16                     
  23460675.01304 137925516.21814      3799.85504        38.100  

  20463091.74005 122173107.32515     -1601.66405        39.200  

  20722783.74105 123537799.18015      1813.49205        39.000  

  22273721.22004 131688035.55214     -3397.99204        38.500  

  22031708.11604 130416244.63704      -863.23004        38.400  

  22303044.23344 131842129.46754      2987.47344        38.300  

  19603684.47805 117656892.73905       322.69905        39.600  

  22365274.39704 132169147.70714     -2579.12104        38.300  

  24022631.73004 140878616.65104      2260.68804        38.000  

 06 10 29 01 46 50.0000000  0  9G10G26G21G22G 6G30G 1G17G16                     
  23459951.90144 137921716.26754      3799.60244        38.200  

  20463396.60545 122174709.52755     -1602.50445        39.100  

  20722438.68944 123535985.91654      1813.07044        38.800  

  22274367.84344 131691433.38654     -3398.07444        38.400  

  22031872.48444 130417108.36054      -864.15644        38.800  

  22302475.76744 131839142.15844      2987.04344        38.800  

  19603623.17745 117656570.59055       321.68845        39.600  

  22365765.22644 132171726.97954     -2579.57444        38.600  

  24022201.60644 140876356.36454      2260.07044        37.800  

 06 10 29 01 46 51.0000000  0  9G10G26G21G22G 6G30G 1G17G16                     
  23459228.84704 137917916.43604      3799.80104        38.100  

  20463701.56045 122176312.09045     -1602.68045        39.100  

  20722093.75105 123534173.21705      1812.30505        39.100  

  22275014.50604 131694831.57204     -3398.09804        38.400  

  22032036.97504 130417972.85204      -864.70304        38.500  

  22301907.37644 131836155.06944      2986.95344        38.400  

  19603561.99605 117656249.08405       321.32005        39.500  

  22366256.15704 132174306.73004     -2579.91404        38.400  

  24021771.58004 140874096.63904      2259.61304        37.800  

 06 10 29 01 46 52.0000000  0  9G10G26G21G22G 6G30G 1G17G16                     
  23458505.77504 137914116.66114      3799.50804        37.900  

  20464006.55245 122177914.93045     -1602.94145        39.100  

  20721748.89605 123532360.96715      1811.96105        39.300  

  22275661.21604 131698229.95614     -3398.21104        38.400  

  22032201.61104 130418838.02914      -865.55504        38.500  

  22301338.98444 131833168.09544      2987.18044        38.400  

  19603500.93605 117655928.20115       320.62105        39.600  

  22366747.10044 132176886.86754     -2580.25844        38.300  

  24021341.66104 140871837.41214      2258.99204        37.900  

 06 10 29 01 46 53.0000000  0  9G10G26G21G22G 6G30G 1G17G16                     
  23457782.70904 137910316.95214      3799.50804        37.900  

  20464311.62005 122179518.04805     -1603.12105        39.200  

  20721404.12904 123530549.19314      1811.56604        38.800  

  22276308.00104 131701628.64214     -3398.81604        38.300  

  22032366.40444 130419703.86254      -866.15644        38.700  

  22300770.63304 131830181.29504      2986.69504        38.300  

  19603439.99205 117655607.90915       320.15605        39.800  

  22367238.18844 132179467.43344     -2580.98844        38.300  

  24020911.81544 140869578.61454      2258.53944        37.900  

 06 10 29 01 46 54.0000000  0  9G10G26G21G22G 6G30G 1G17G16                     
  23457059.67904 137906517.30214      3799.74604        38.000  

  20464616.74905 122181121.47215     -1603.57005        39.100  

  20721059.44005 123528737.85715      1811.05905        39.000  

  22276954.79604 131705027.51314     -3398.86304        38.500  

  22032531.27444 130420570.41144      -866.78144        38.500  

  22300202.28744 131827194.61454      2986.71144        38.100  

  19603379.15805 117655288.22115       319.73405        39.700  

  22367729.32304 132182048.35704     -2581.07004        38.100  

  24020482.05604 140867320.33504      2258.10204        37.900  

 06 10 29 01 46 55.0000000  0  9G10G26G21G22G 6G30G 1G17G16                     
  23456336.61304 137902717.63314      3799.79704        38.200  

  20464921.91145 122182725.12155     -1603.87145        39.300  

  20720714.84005 123526926.94315      1810.71905        39.000  

  22277601.63004 131708426.60014     -3399.36304        38.300  

  22032696.28044 130421437.55944      -867.32444        38.500  

  22299633.93904 131824208.02304      2986.77304        38.500  

  19603318.42505 117654969.10315       318.93005        39.600  

  22368220.52744 132184629.66854     -2581.55544        38.500  

  24020052.36704 140865062.47914      2257.32404        38.000  

 06 10 29 01 46 56.0000000  0  9G10G26G21G22G 6G30G 1G17G16                     
  23455613.56744 137898918.09854      3799.24244        37.900  

  20465227.10945 122184329.09445     -1604.32445        39.200  

  20720370.32745 123525116.54555      1809.91445        38.900  

  22278248.48544 131711825.95854     -3399.49244        38.700  

  22032861.43644 130422305.46544      -868.16444        38.600  

  22299065.64244 131821221.63354      2986.19944        38.700  

  19603257.83245 117654650.63055       318.12145        39.500  

  22368711.82644 132187211.38644     -2581.91844        38.300  

  24019622.84944 140862805.14254      2256.93844        37.900  

 06 10 29 01 46 57.0000000  0  9G10G26G21G22G 6G30G 1G17G16                     
  23454890.58204 137895118.71604      3799.22304        38.100  

  20465532.41545 122185933.45645     -1604.63345        39.100  

  20720025.91805 123523306.70705      1809.69505        38.900  

  22278895.40944 131715225.65344     -3399.92244        38.400  

  22033026.75844 130423174.15044      -869.16044        38.700  

  22298497.37104 131818235.48404      2985.74204        38.300  

  19603197.34105 117654332.84905       317.42205        39.600  

  22369203.24004 132189793.64204     -2582.57804        38.400  

  24019193.39804 140860548.40304      2256.44904        37.700  

 06 10 29 01 46 58.0000000  0  9G10G26G21G22G 6G30G 1G17G16                     
  23454167.62404 137891319.50514      3799.04704        38.000  

  20465837.79905 122187538.22905     -1604.93405        39.100  

  20719681.65005 123521497.45715      1808.93805        39.200  

  22279542.42804 131718625.73104     -3400.35204        38.500  

  22033192.21204 130424043.64704      -869.88704        38.500  

  22297929.18304 131815249.57514      2985.60904        38.800  

  19603136.99705 117654015.82415       316.57005        39.400  

  22369694.74804 132192376.40914     -2583.14804        38.500  

  24018764.08944 140858292.24354      2255.89844        37.800  

 06 10 29 01 46 59.0000000  0  9G10G26G21G22G 6G30G 1G17G16                     
  23453444.69004 137887520.49214      3798.85504        38.100  

  20466143.26045 122189143.43155     -1605.52745        39.100  

  20719337.49005 123519688.80515      1808.43805        38.900  

  22280189.50104 131722026.14214     -3400.23404        38.700  

  22033357.82944 130424913.93954      -870.53144        38.600  

  22297361.05204 131812263.95214      2985.49604        38.400  

  19603076.80205 117653699.51615       315.93805        39.400  

  22370186.33804 132194959.71614     -2583.70704        38.100  

  24018334.88204 140856036.72904      2255.21504        37.800  

 06 10 29 01 47  0.0000000  0  9G10G26G21G22G 6G30G 1G17G16                     
  23452721.81204 137883721.64114      3798.62504        38.000  

  20466448.79105 122190749.00905     -1605.93405        39.200  

  20718993.43905 123517880.73415      1807.75405        39.100  

  22280836.64104 131725426.94914     -3401.22304        38.600  

  22033523.58544 130425785.05344      -871.61344        38.700  

  22296792.95104 131809278.57114      2985.33604        38.400  

  19603016.74305 117653383.91215       315.12505        39.600  

  22370678.01904 132197543.49314     -2583.96904        38.600  

  24017905.76144 140853781.77354      2254.72344        37.700  

 06 10 29 01 47  1.0000000  0  9G10G26G21G22G 6G30G 1G17G16                     
  23451998.93004 137879922.93014      3798.83204        38.100  

  20466754.38545 122192354.96155     -1606.06645        39.100  

  20718649.48705 123516073.20415      1807.09405        39.000  

  22281483.87804 131728828.05114     -3401.46104        38.500  

  22033689.50004 130426656.89504      -872.43004        38.700  

  22296224.90304 131806293.41814      2985.15604        38.400  

  19602956.80705 117653069.01915       314.63305        39.600  

  22371169.79144 132200127.80454     -2584.55144        38.100  

  24017476.75404 140851527.40304      2254.20704        37.700  

 06 10 29 01 47  2.0000000  0  9G10G26G21G22G 6G30G 1G17G16                     
  23451276.08144 137876124.32154      3798.75444        38.000  

  20467060.02845 122193961.25945     -1606.33645        39.200  

  20718305.62845 123514266.19155      1806.55545        39.100  

  22282131.11044 131732229.42154     -3401.25444        38.600  

  22033855.53044 130427529.48154      -872.75844        38.600  

  22295656.88244 131803308.46854      2985.06644        38.500  

  19602897.01045 117652754.76355       314.04345        39.600  

  22371661.66844 132202712.53144     -2584.90644        38.500  

  24017047.88944 140849273.56854      2253.38344        37.800  

 06 10 29 01 47  3.0000000  0  9G10G26G21G22G 6G30G 1G17G16                     
  23450553.26404 137872325.87304      3798.15604        37.900  

  20467365.76745 122195567.91645     -1606.85545        39.200  

  20717961.86605 123512459.70605      1806.33605        39.000  

  22282778.44344 131735631.13244     -3401.89544        38.300  

  22034021.73004 130428402.84604      -873.71104        38.500  

  22295088.93504 131800323.71704      2984.74604        38.700  

  19602837.35305 117652441.19905       313.23405        39.600  

  22372153.61444 132205297.75144     -2585.31644        38.500  

  24016619.09604 140847020.28904      2252.96904        38.000  

 06 10 29 01 47  4.0000000  0  9G10G26G21G22G 6G30G 1G17G16                     
  23449830.46604 137868527.49114      3798.35904        37.900  

  20467671.54245 122197174.90345     -1607.28145        39.200  

  20717618.22945 123510653.75355      1805.52345        38.900  

  22283425.87844 131739033.13444     -3402.37544        38.400  

  22034188.04804 130429276.93214      -874.55904        38.600  

  22294520.98604 131797339.18914      2984.00004        38.600  

  19602777.81605 117652128.29415       312.43805        39.500  

  22372645.65744 132207883.41644     -2585.90244        38.300  

  24016190.40504 140844767.54214      2252.35904        37.700  

 06 10 29 01 47  5.0000000  0  9G10G26G21G22G 6G30G 1G17G16                     
  23449107.67304 137864729.16814      3798.47304        37.900  

  20467977.39105 122198782.14005     -1607.32005        39.100  

  20717274.65445 123508848.21845      1805.22345        39.000  

  22284073.30744 131742435.34044     -3402.43044        38.400  

  22034354.49744 130430151.67654      -875.04344        38.700  

  22293953.05104 131794354.72314      2984.57804        38.500  

  19602718.36205 117651815.95115       312.05105        39.600  

  22373137.74544 132210469.44444     -2586.18444        38.300  

  24015761.81904 140842515.22714      2252.20304        37.700  

 06 10 29 01 47  6.0000000  0  9G10G26G21G22G 6G30G 1G17G16                     
  23448384.87944 137860930.88254      3798.12144        38.000  

  20468283.29005 122200389.65615     -1607.77005        39.400  

  20716931.15845 123507043.12345      1804.96145        39.100  

  22284720.74744 131745837.76844     -3402.77044        38.500  

  22034521.07904 130431027.07704      -875.56304        38.500  

  22293385.15604 131791370.39414      2984.37904        38.200  

  19602659.03305 117651504.19815       311.51605        39.600  

  22373629.90504 132213055.84404     -2586.36304        38.500  

  24015333.29444 140840263.37454      2251.85244        38.000  

 06 10 29 01 47  7.0000000  0  9G10G26G21G22G 6G30G 1G17G16                     
  23447662.09004 137857132.69604      3798.14804        38.100  

  20468589.28705 122201997.48415     -1608.13305        39.300  

  20716587.75445 123505238.55445      1804.26245        39.300  

  22285368.26944 131749240.44844     -3402.77044        38.400  

  22034687.80344 130431903.21554      -876.31644        38.600  

  22292817.28604 131788386.24614      2984.17204        38.400  

  19602599.82045 117651193.07855       310.66845        39.500  

  22374122.16704 132215642.71214     -2587.11704        38.500  

  24014904.87704 140838012.06604      2251.09004        38.000  

 06 10 29 01 47  8.0000000  0  9G10G26G21G22G 6G30G 1G17G16                     
  23446939.34204 137853334.64014      3797.75404        37.900  

  20468895.30605 122203605.67815     -1608.69905        39.300  

  20716244.46445 123503434.51245      1803.78945        39.200  

  22286015.85204 131752643.47204     -3403.33604        38.300  

  22034854.63804 130432780.08504      -877.41404        38.600  

  22292249.45804 131785402.34214      2983.77004        38.600  

  19602540.75045 117650882.64645       310.03145        39.500  

  22374614.51104 132218230.04014     -2587.76604        38.600  

  24014476.60444 140835761.31454      2250.33244        37.800  

 06 10 29 01 47  9.0000000  0  9G10G26G21G22G 6G30G 1G17G16                     
  23446216.66604 137849536.94414      3797.70704        37.900  

  20469201.42805 122205214.46315     -1609.10905        39.000  

  20715901.31305 123501631.24805      1802.80905        39.000  

  22286663.52304 131756047.03514     -3403.97704        38.300  

  22035021.67104 130433657.95914      -878.41404        38.700  

  22291681.72604 131782418.86814      2983.07404        38.800  

  19602481.85245 117650573.14445       308.96145        39.500  

  22375106.99704 132220818.06014     -2588.44104        38.400  

  24014048.44444 140833511.35544      2249.63344        37.700  

 06 10 29 01 47 10.0000000  0  9G10G26G21G22G 6G30G 1G17G16                     
  23445494.02304 137845739.44814      3797.56304        38.000  

  20469507.63905 122206823.65915     -1609.35505        39.000  

  20715558.28205 123499828.57115      1802.62105        39.200  

  22287311.30504 131759450.93614     -3403.93804        38.300  

  22035188.87104 130434536.62614      -878.93404        38.300  

  22291114.02104 131779435.64214      2983.14504        38.200  

  19602423.09045 117650264.34745       308.54745        39.400  

  22375599.60604 132223406.62014     -2588.75004        38.300  

  24013620.41644 140831261.98544      2249.13744        37.800  

 06 10 29 01 47 11.0000000  0  9G10G26G21G22G 6G30G 1G17G16                     
  23444771.40804 137841942.01414      3797.30104        38.000  

  20469813.91705 122208433.15415     -1609.31605        39.000  

  20715215.35705 123498026.37715      1801.81605        39.100  

  22287959.10104 131762855.12214     -3404.28904        38.500  

  22035356.25544 130435416.02154      -879.52344        38.600  

  22290546.36604 131776452.58314      2983.07404        38.500  

  19602364.45545 117649956.19245       307.82445        39.700  

  22376092.25344 132225995.57754     -2589.00044        38.500  

  24013192.48744 140829013.14144      2248.43044        38.000  

 06 10 29 01 47 12.0000000  0  9G10G26G21G22G 6G30G 1G17G16                     
  23444048.82004 137838144.71314      3797.25804        38.200  

  20470120.25305 122210043.02315     -1610.09405        39.100  

  20714872.52205 123496224.70615      1801.35905        39.100  

  22288606.96304 131766259.58614     -3404.47704        38.500  

  22035523.77944 130436296.15744      -880.60244        38.500  

  22289978.73904 131773469.72214      2983.13304        38.300  

  19602305.94045 117649648.68745       307.12145        39.600  

  22376585.00904 132228585.01804     -2589.66804        38.400  

  24012764.65344 140826764.82144      2248.18044        37.900  

 06 10 29 01 47 13.0000000  0  9G10G26G21G22G 6G30G 1G17G16                     
  23443326.21704 137834347.49114      3797.20704        38.000  

  20470426.66205 122211653.17815     -1610.07405        39.100  

  20714529.79705 123494423.53815      1800.97305        39.200  

  22289254.91204 131769664.34314     -3404.72704        38.600  

  22035691.38304 130437176.99804      -880.91804        38.500  

  22289411.15604 131770487.07314      2982.75404        38.500  

  19602247.54605 117649341.85405       306.47305        39.600  

  22377077.84004 132231174.88014     -2589.95304        38.300  

  24012336.90104 140824517.03404      2247.44904        37.700  

 06 10 29 01 47 14.0000000  0  9G10G26G21G22G 6G30G 1G17G16                     
  23442603.63644 137830550.37354      3797.18044        38.000  

  20470733.11445 122213263.65355     -1610.55945        38.900  

  20714187.13945 123492622.88555      1800.36345        39.300  

  22289902.88844 131773069.36654     -3405.14544        38.600  

  22035859.16844 130438058.56454      -882.04744        38.600  

  22288843.61244 131767504.57854      2982.24244        38.700  

  19602189.27645 117649035.62055       305.88345        39.600  

  22377570.74144 132233765.16954     -2590.59844        38.300  

  24011909.26144 140822269.73654      2247.06644        37.800  

 06 10 29 01 47 15.0000000  0  9G10G26G21G22G 6G30G 1G17G16                     
  23441881.10204 137826753.39504      3796.75804        38.000  

  20471039.65105 122214874.51705     -1611.20305        39.000  

  20713844.58005 123490822.75705      1799.61705        39.200  

  22290550.85944 131776474.69944     -3405.50844        38.200  

  22036027.06104 130438940.88104      -882.84804        38.400  

  22288276.11944 131764522.30544      2981.89544        38.400  

  19602131.12705 117648730.08705       305.10205        39.600  

  22378063.74704 132236355.94104     -2591.12904        38.500  

  24011481.70804 140820023.03004      2246.37904        37.900  

 06 10 29 01 47 16.0000000  0  9G10G26G21G22G 6G30G 1G17G16                     
  23441158.59004 137822956.61214      3796.77004        38.100  

  20471346.27605 122216485.78515     -1611.39805        39.300  

  20713502.14145 123489023.23055      1799.12945        39.100  

  22291198.93204 131779880.41404     -3405.91804        38.500  

  22036195.13004 130439824.02114      -883.47304        38.400  

  22287708.64004 131761540.30904      2981.55904        38.600  

  19602073.14605 117648425.30115       304.27305        39.800  

  22378556.86604 132238947.26214     -2591.65604        38.200  

  24011054.29604 140817776.94914      2245.66804        37.800  

 06 10 29 01 47 17.0000000  0  9G10G26G21G22G 6G30G 1G17G16                     
  23440436.12704 137819160.03714      3796.61304        38.100  

  20471652.96805 122218097.49815     -1611.75405        39.200  

  20713159.81705 123487224.32605      1798.68805        39.000  

  22291847.07804 131783286.52514     -3406.50404        38.400  

  22036363.33644 130440708.00354      -884.21944        38.500  

  22287141.24904 131758558.56714      2981.94904        38.400  

  19602015.31305 117648121.27015       303.45305        39.400  

  22379050.07404 132241539.12614     -2592.24604        38.300  

  24010626.99304 140815531.47414      2245.27704        37.700  

 06 10 29 01 47 18.0000000  0  9G10G26G21G22G 6G30G 1G17G16                     
  23439713.69404 137815363.59214      3796.46504        38.100  

  20471959.73005 122219709.57215     -1612.46105        39.200  

  20712817.59705 123485425.95415      1798.28505        39.100  

  22292495.32904 131786692.90314     -3406.29704        38.500  

  22036531.69844 130441592.72744      -885.13344        38.700  

  22286573.90804 131755577.07614      2981.42604        38.500  

  19601957.57045 117647817.87355       303.27345        39.800  

  22379543.39004 132244131.43514     -2592.60904        38.400  

  24010199.78404 140813286.55514      2244.66004        37.800  

 06 10 29 01 47 19.0000000  0  9G10G26G21G22G 6G30G 1G17G16                     
  23438991.28804 137811567.38714      3796.34404        37.700  

  20472266.58345 122221322.06855     -1612.57445        39.300  

  20712475.49204 123483628.22014      1797.48004        38.800  

  22293143.69304 131790099.73014     -3407.11304        38.300  

  22036700.20044 130442478.30444      -885.89544        38.700  

  22286006.59404 131752595.89514      2981.02704        38.400  

  19601899.98005 117647515.29605       302.39105        39.500  

  22380036.80104 132246724.32014     -2593.28504        38.500  

  24009772.73104 140811042.30414      2243.89504        37.800  

 06 10 29 01 47 20.0000000  0  9G10G26G21G22G 6G30G 1G17G16                     
  23438268.90944 137807771.29654      3795.71544        37.800  

  20472573.51945 122222934.94745     -1613.14145        39.100  

  20712133.48445 123481831.00955      1797.02345        38.900  

  22293792.02744 131793506.82254     -3407.16044        38.600  

  22036868.87344 130443364.62744      -886.62944        38.700  

  22285439.30744 131749614.91854      2980.45744        38.400  

  19601842.51745 117647213.36555       301.76645        39.600  

  22380530.28744 132249317.65354     -2593.45744        38.200  

  24009345.77244 140808798.58054      2243.23844        37.700  

 06 10 29 01 47 21.0000000  0  9G10G26G21G22G 6G30G 1G17G16                     
  23437546.56504 137803975.27804      3796.00404        38.000  

  20472880.48805 122224548.11205     -1613.27305        39.100  

  20711791.57645 123480034.30445      1796.33645        39.200  

  22294440.43704 131796914.20804     -3407.51604        38.400  

  22037037.66904 130444251.67604      -887.53104        38.600  

  22284872.03544 131746634.08244      2980.59844        38.300  

  19601785.18705 117646912.07505       300.95705        39.700  

  22381023.84804 132251911.43004     -2593.77004        38.300  

  24008918.91504 140806555.37104      2243.12904        38.100  

 06 10 29 01 47 22.0000000  0  9G10G26G21G22G 6G30G 1G17G16                     
  23436824.21504 137800179.37314      3795.75004        37.900  

  20473187.50805 122226161.60515     -1613.72305        39.100  

  20711449.76045 123478238.06845      1795.87545        39.300  

  22295088.89304 131800321.83514     -3407.73804        38.400  

  22037206.57004 130445139.38114      -887.66804        38.600  

  22284304.85844 131743653.42844      2980.75044        38.400  

  19601727.97705 117646611.41015       300.39505        39.600  

  22381517.51504 132254505.65014     -2594.71104        38.400  

  24008492.14104 140804312.69314      2242.37104        37.700  

 06 10 29 01 47 23.0000000  0  9G10G26G21G22G 6G30G 1G17G16                     
  23436101.89444 137796383.52454      3796.01644        38.200  

  20473494.59705 122227775.39015     -1614.03905        38.900  

  20711108.03205 123476442.32105      1795.42205        39.000  

  22295737.37204 131803729.71614     -3407.65204        38.200  

  22037375.62104 130446027.85014      -888.90204        38.500  

  22283737.68944 131740672.92344      2980.54344        38.500  

  19601670.89305 117646311.35715       300.02305        39.600  

  22382011.22104 132257100.23614     -2594.83204        38.400  

  24008065.46904 140802070.49214      2242.04304        37.600  

 06 10 29 01 47 24.0000000  0  9G10G26G21G22G 6G30G 1G17G16                     
  23435379.57804 137792587.77504      3795.80104        38.200  

  20473801.73405 122229389.49315     -1614.48405        39.200  

  20710766.38805 123474647.07215      1795.07805        39.100  

  22296385.89204 131807137.87214     -3408.35204        38.500  

  22037544.83704 130446916.99514      -889.67604        38.700  

  22283170.50944 131737692.59444      2980.39144        38.300  

  19601613.92745 117646011.95055       299.12945        39.600  

  22382505.02404 132259695.28414     -2595.53504        38.400  

  24007638.86504 140799828.80514      2241.41804        37.700  

 06 10 29 01 47 25.0000000  0  9G10G26G21G22G 6G30G 1G17G16                     
  23434657.29004 137788792.09814      3795.82404        38.200  

  20474108.96945 122231003.88755     -1614.48445        39.300  

  20710424.84405 123472852.33115      1794.34405        39.000  

  22297034.46304 131810546.30014     -3408.71504        38.300  

  22037714.19004 130447806.83114      -890.24204        38.600  

  22282603.40804 131734712.44604      2979.89504        38.600  

  19601557.08305 117645713.18205       298.39505        39.600  

  22382998.93004 132262290.71114     -2595.67204        38.600  

  24007212.36604 140797587.62514      2240.87904        37.800  

 06 10 29 01 47 26.0000000  0  9G10G26G21G22G 6G30G 1G17G16                     
  23433935.03944 137784996.60654      3795.19944        37.900  

  20474416.23445 122232618.68345     -1615.08245        39.300  

  20710083.41045 123471058.12855      1793.84045        39.000  

  22297683.10844 131813955.01254     -3408.59044        38.300  

  22037883.68144 130448697.45954      -890.84444        38.600  

  22282036.36944 131731732.53254      2979.68444        38.500  

  19601500.35445 117645415.08655       297.69945        39.500  

  22383492.90744 132264886.64654     -2596.10544        38.400  

  24006785.99144 140795347.04154      2240.37144        37.800  

 06 10 29 01 47 27.0000000  0  9G10G26G21G22G 6G30G 1G17G16                     
  23433212.78304 137781201.21904      3795.14504        38.000  

  20474723.59045 122234233.81545     -1615.35945        39.300  

  20709742.08305 123469264.46705      1793.37505        39.300  

  22298331.82704 131817364.08104     -3409.12504        38.500  

  22038053.29404 130449588.86104      -891.89804        38.600  

  22281469.34904 131728752.79704      2979.52304        38.400  

  19601443.75305 117645117.67505       297.16405        39.600  

  22383986.97044 132267483.07844     -2596.94544        38.400  

  24006359.71804 140793106.99704      2239.66004        37.700  

 06 10 29 01 47 28.0000000  0  9G10G26G21G22G 6G30G 1G17G16                     
  23432490.56704 137777406.00814      3795.18404        37.900  

  20475031.04345 122235849.35945     -1615.63345        39.200  

  20709400.84905 123467471.38815      1792.83205        39.100  

  22298980.61904 131820773.51014     -3409.78504        38.400  

  22038223.09604 130450481.05014      -892.81604        38.600  

  22280902.37204 131725773.34914      2979.41804        38.600  

  19601387.29905 117644821.00615       296.38305        39.400  

  22384481.15144 132270079.99444     -2596.96144        38.500  

  24005933.56104 140790867.56114      2239.25004        37.900  

 06 10 29 01 47 29.0000000  0  9G10G26G21G22G 6G30G 1G17G16                     
  23431768.40804 137773610.98614      3794.57404        38.200  

  20475338.55745 122237465.30545     -1616.20745        39.400  

  20709059.75005 123465678.87915      1792.33205        39.200  

  22299629.47304 131824183.24414     -3410.00404        38.400  

  22038393.03104 130451374.02014      -893.44904        38.700  

  22280335.44304 131722794.14414      2978.85204        38.800  

  19601330.97805 117644525.00715       295.69505        39.600  

  22384975.42544 132272677.42444     -2597.71544        38.600  

  24005507.50504 140788628.72314      2238.59004        37.700  

 06 10 29 01 47 30.0000000  0  9G10G26G21G22G 6G30G 1G17G16                     
  23431046.23404 137769816.04414      3794.81304        38.200  

  20475646.09045 122239081.57045     -1616.32445        39.200  

  20708718.75605 123463886.88915      1791.43805        39.000  

  22300278.37644 131827593.25954     -3410.24644        38.400  

  22038563.10004 130452267.71314      -894.19104        38.800  

  22279768.54404 131719815.11814      2978.98004        38.500  

  19601274.78705 117644229.68815       294.81605        39.600  

  22385469.79444 132275275.28544     -2598.25844        38.500  

  24005081.55444 140786390.38254      2237.96544        37.600  

 06 10 29 01 47 31.0000000  0  9G10G26G21G22G 6G30G 1G17G16                     
  23430324.15404 137766021.34814      3794.62104        38.000  

  20475953.72305 122240698.28105     -1616.90605        39.200  

  20708377.88705 123462095.52915      1791.03905        39.100  

  22300927.36104 131831003.69704     -3410.61704        38.400  

  22038733.33204 130453162.25114      -894.84404        38.600  

  22279201.70904 131716836.39414      2978.59404        38.600  

  19601218.73345 117643935.12755       294.15645        39.700  

  22385964.27844 132277873.69644     -2598.39844        38.500  

  24004655.73704 140784152.70904      2237.44104        37.700  

 06 10 29 01 47 32.0000000  0  9G10G26G21G22G 6G30G 1G17G16                     
  23429602.05804 137762226.80114      3794.44104        37.900  

  20476261.44105 122242315.37015     -1617.17605        39.000  

  20708037.09405 123460304.71915      1790.68405        39.000  

  22301576.44004 131834414.45914     -3410.87504        38.400  

  22038903.72304 130454057.58314      -895.70304        38.400  

  22278634.94844 131713857.93454      2978.42244        38.500  

  19601162.79145 117643641.27745       293.32045        39.600  

  22386458.83404 132280472.63204     -2599.35904        38.300  

  24004230.03144 140781915.62954      2236.90644        37.700  

 06 10 29 01 47 33.0000000  0  9G10G26G21G22G 6G30G 1G17G16                     
  23428879.99904 137758432.35314      3794.46504        38.200  

  20476569.23105 122243932.78115     -1617.36305        39.400  

  20707696.41305 123458514.41715      1790.31305        39.000  

  22302225.55904 131837825.48014     -3410.99204        38.300  

  22039074.21604 130454953.60914      -896.15204        38.300  

  22278068.18844 131710879.60844      2978.41444        38.600  

  19601106.99145 117643348.05245       292.97345        39.700  

  22386953.48204 132283071.99014     -2599.67604        38.600  

  24003804.41444 140779679.05144      2236.11744        37.800  

 06 10 29 01 47 34.0000000  0  9G10G26G21G22G 6G30G 1G17G16                     
  23428157.96804 137754638.00614      3794.35904        38.000  

  20476877.09405 122245550.49915     -1617.71105        39.300  

  20707355.80245 123456724.62455      1789.66845        39.100  

  22302874.71104 131841236.77814     -3411.46104        38.400  

  22039244.86404 130455850.37014      -897.10904        38.500  

  22277501.44804 131707901.47704      2978.25804        38.400  

  19601051.32045 117643055.45745       292.23845        39.600  

  22387448.20804 132285671.74414     -2599.81604        38.700  

  24003378.91944 140777442.98544      2235.75444        37.800  

 06 10 29 01 47 35.0000000  0  9G10G26G21G22G 6G30G 1G17G16                     
  23427435.92604 137750843.68814      3794.40604        38.000  

  20477184.98605 122247168.50915     -1617.89505        39.100  

  20707015.30045 123454935.26445      1789.23045        39.300  

  22303523.89604 131844648.29514     -3411.53504        38.300  

  22039415.62904 130456747.79414      -897.69104        38.600  

  22276934.73704 131704923.48414      2978.18004        38.700  

  19600995.76245 117642763.45945       291.85545        39.600  

  22387942.98504 132288271.89314     -2599.94504        38.200  

  24002953.50444 140775207.41244      2235.46544        37.900  

 06 10 29 01 47 36.0000000  0  9G10G26G21G22G 6G30G 1G17G16                     
  23426713.94944 137747049.45254      3794.42644        38.000  

  20477492.93005 122248786.81515     -1618.44105        39.100  

  20706674.88045 123453146.39445      1788.51245        39.100  

  22304173.13704 131848060.05414     -3411.80104        38.400  

  22039586.54104 130457645.88514      -898.40604        38.700  

  22276368.07104 131701945.64414      2977.46904        38.500  

  19600940.32545 117642472.07745       290.93445        39.500  

  22388437.85504 132290872.45314     -2600.81304        38.400  

  24002528.17644 140772972.31844      2234.94944        37.900  

 06 10 29 01 47 37.0000000  0  9G10G26G21G22G 6G30G 1G17G16                     
  23425991.97544 137743255.32244      3794.03144        38.200  

  20477800.96005 122250405.41615     -1618.84405        39.000  

  20706334.56545 123451358.02645      1788.04745        39.000  

  22304822.42304 131851472.09314     -3412.13304        38.300  

  22039757.59104 130458544.70714      -898.77304        38.500  

  22275801.41004 131698967.95414      2977.52704        38.400  

  19600885.00305 117642181.32705       290.59405        39.700  

  22388932.82304 132293473.45114     -2601.23404        38.100  

  24002102.92904 140770737.75504      2234.34404        38.100  

 06 10 29 01 47 38.0000000  0  9G10G26G21G22G 6G30G 1G17G16                     
  23425269.99744 137739461.28744      3794.18844        38.200  

  20478109.03745 122252024.37155     -1619.34045        39.500  

  20705994.35145 123449570.17145      1787.44145        39.200  

  22305471.76544 131854884.42454     -3412.54344        38.600  

  22039928.80444 130459444.29854      -899.98044        38.600  

  22275234.81444 131695990.47854      2977.37944        38.300  

  19600829.79945 117641891.26455       289.50845        39.600  

  22389427.88344 132296074.89054     -2601.66444        38.400  

  24001677.80544 140768503.70854      2233.82444        37.800  

 06 10 29 01 47 39.0000000  0  9G10G26G21G22G 6G30G 1G17G16                     
  23424548.04244 137735667.42844      3793.60544        38.200  

  20478417.14945 122253643.68445     -1619.46945        39.100  

  20705654.22345 123447782.88145      1787.04745        38.900  

  22306121.17004 131858297.06704     -3413.12504        38.500  

  22040100.13004 130460344.62904      -900.91404        38.500  

  22274668.25944 131693013.23044      2977.25844        38.400  

  19600774.72345 117641601.84045       289.23445        39.500  

  22389923.02404 132298676.81604     -2602.33604        38.500  

  24001252.78904 140766270.26004      2233.02704        37.900  

 06 10 29 01 47 40.0000000  0  9G10G26G21G22G 6G30G 1G17G16                     
  23423826.11844 137731873.69944      3793.76244        38.000  

  20478725.35805 122255263.37505     -1619.88705        39.300  

  20705314.19305 123445996.12505      1786.30905        39.100  

  22306770.67344 131861710.02254     -3413.19144        38.700  

  22040271.59404 130461245.70314      -901.27304        38.500  

  22274101.75944 131690036.19544      2977.04744        38.400  

  19600719.77705 117641313.13805       288.41005        39.600  

  22390418.26204 132301279.20214     -2602.53904        38.300  

  24000827.87304 140764037.33914      2232.57804        37.900  

 06 10 29 01 47 41.0000000  0  9G10G26G21G22G 6G30G 1G17G16                     
  23423104.19004 137728080.12804      3793.65604        38.000  

  20479033.66305 122256883.45515     -1620.37105        39.000  

  20704974.28345 123444209.95155      1785.93845        38.900  

  22307420.20344 131865123.33144     -3413.53944        38.500  

  22040443.20504 130462147.58814      -902.09004        38.700  

  22273535.32104 131687059.42504      2976.68404        38.400  

  19600664.95705 117641025.15315       287.48805        39.600  

  22390913.57704 132303882.09414     -2602.97304        38.200  

  24000403.11504 140761805.05114      2232.05104        37.500  

 06 10 29 01 47 42.0000000  0  9G10G26G21G22G 6G30G 1G17G16                     
  23422382.33104 137724286.75514      3793.47304        38.100  

  20479342.02905 122258503.93715     -1620.72705        39.000  

  20704634.49345 123442424.37045      1785.03545        38.900  

  22308069.75944 131868536.98544     -3413.89544        38.400  

  22040614.97604 130463050.28014      -903.14104        38.600  

  22272968.88704 131684082.91514      2976.18404        38.300  

  19600610.29405 117640737.88315       286.76605        39.300  

  22391409.00504 132306485.52414     -2603.80904        38.600  

  23999978.43404 140759573.36714      2231.35204        37.900  

 06 10 29 01 47 43.0000000  0  9G10G26G21G22G 6G30G 1G17G16                     
  23421660.48644 137720493.48854      3793.34444        38.000  

  20479650.45205 122260124.72215     -1620.77305        39.400  

  20704294.79345 123440639.27045      1785.02345        39.200  

  22308719.44044 131871950.91744     -3413.87144        38.300  

  22040786.89204 130463953.67514      -903.48404        38.600  

  22272402.50104 131681106.55714      2976.58604        38.600  

  19600555.77345 117640451.23455       286.52045        39.600  

  22391904.49904 132309089.34314     -2603.89504        38.400  

  23999553.85204 140757342.17714      2230.80104        37.600  

 06 10 29 01 47 44.0000000  0  9G10G26G21G22G 6G30G 1G17G16                     
  23420938.67844 137716700.39144      3792.89544        38.200  

  20479958.95445 122261745.94055     -1621.62545        39.100  

  20703955.20605 123438854.78205      1784.05905        39.000  

  22309369.16844 131875365.19144     -3414.40244        38.500  

  22040958.94944 130464857.87154      -904.51244        38.600  

  22271836.16844 131678130.48554      2975.94944        38.600  

  19600501.37945 117640165.31445       285.77345        39.600  

  22392400.09444 132311693.71954     -2604.86744        38.500  

  23999129.40444 140755111.60054      2230.23444        37.800  

 06 10 29 01 47 45.0000000  0  9G10G26G21G22G 6G30G 1G17G16                     
  23420216.91804 137712907.50704      3792.69504        38.000  

  20480267.54005 122263367.56505     -1621.96105        39.200  

  20703615.74105 123437070.88515      1783.60905        38.900  

  22310018.97304 131878779.86404     -3414.79304        38.300  

  22041131.17004 130465762.90804      -905.57404        38.600  

  22271269.88144 131675154.68844      2975.62144        38.500  

  19600447.10605 117639880.16005       284.95305        39.700  

  22392895.79704 132314298.60704     -2605.31604        38.400  

  23998705.04804 140752881.66404      2229.23804        37.800  

 06 10 29 01 47 46.0000000  0  9G10G26G21G22G 6G30G 1G17G16                     
  23419495.19004 137709114.80214      3792.95304        38.000  

  20480576.19205 122264989.62615     -1622.19105        39.200  

  20703276.40605 123435287.62015      1782.98805        39.000  

  22310668.83104 131882194.89214     -3415.11304        38.400  

  22041303.55004 130466668.75114      -906.19104        38.700  

  22270703.65444 131672179.17844      2975.44544        38.200  

  19600392.97405 117639595.73715       284.17605        39.600  

  22393391.59504 132316904.03214     -2605.55504        38.600  

  23998280.82204 140750652.34714      2229.09404        37.800  

 06 10 29 01 47 47.0000000  0  9G10G26G21G22G 6G30G 1G17G16                     
  23418773.49304 137705322.24114      3792.45304        38.000  

  20480884.94845 122266612.01555     -1622.62545        39.200  

  20702937.16905 123433504.86415      1782.44505        39.000  

  22311318.77304 131885610.22314     -3415.33604        38.300  

  22041476.04604 130467575.33914      -906.98804        38.600  

  22270137.49244 131669203.85944      2975.27744        38.500  

  19600338.96605 117639311.98515       283.23405        39.600  

  22393887.48504 132319509.89614     -2605.80104        38.300  

  23997856.68104 140748423.56114      2228.43804        37.800  

 06 10 29 01 47 48.0000000  0  9G10G26G21G22G 6G30G 1G17G16                     
  23418051.82004 137701529.76114      3792.59404        37.900  

  20481193.73305 122268234.71205     -1622.56305        39.100  

  20702598.00505 123431722.58015      1782.10205        39.000  

  22311968.69904 131889025.80814     -3415.70704        38.300  

  22041648.65204 130468482.62014      -907.57804        38.300  

  22269571.34044 131666228.71344      2975.03544        38.500  

  19600285.08405 117639028.83315       282.89805        39.600  

  22394383.45204 132322116.20614     -2606.67604        38.300  

  23997432.64804 140746195.28214      2227.96104        37.800  

 06 10 29 01 47 49.0000000  0  9G10G26G21G22G 6G30G 1G17G16                     
  23417330.17004 137697737.33414      3792.50404        38.100  

  20481502.58005 122269857.69515     -1623.42605        38.900  

  20702258.93245 123429940.79255      1781.31645        39.000  

  22312618.70004 131892441.62414     -3416.15204        38.500  

  22041821.42504 130469390.58014      -908.29304        38.600  

  22269005.20044 131663253.69344      2974.89844        38.400  

  19600231.31505 117638746.30515       282.11705        39.600  

  22394879.47444 132324722.87354     -2606.98044        38.300  

  23997008.71704 140743967.50614      2227.35204        37.900  

 06 10 29 01 47 50.0000000  0  9G10G26G21G22G 6G30G 1G17G16                     
  23416608.52004 137693945.04614      3792.11304        37.800  

  20481811.49745 122271480.99355     -1623.23045        39.000  

  20701919.95905 123428159.50405      1781.05105        38.900  

  22313268.79304 131895857.72814     -3416.49604        38.500  

  22041994.35404 130470299.28114      -909.22704        38.600  

  22268439.09104 131660278.87104      2974.75004        38.500  

  19600177.66905 117638464.41215       281.70705        39.600  

  22395375.61044 132327329.98244     -2607.35244        38.200  

  23996584.88804 140741740.23114      2227.13304        37.800  

 06 10 29 01 47 51.0000000  0  9G10G26G21G22G 6G30G 1G17G16                     
  23415886.86504 137690152.80414      3792.19104        38.100  

  20482120.46645 122273104.62845     -1623.48045        39.100  

  20701581.08305 123426378.70615      1780.59805        39.200  

  22313918.92504 131899274.06414     -3416.48004        38.600  

  22042167.39404 130471208.66214      -909.52004        38.500  

  22267873.04404 131657304.24214      2974.40604        38.500  

  19600124.14305 117638183.16015       281.05505        39.600  

  22395871.80404 132329937.52904     -2607.71904        38.500  

  23996161.14004 140739513.51114      2226.52004        37.900  

 06 10 29 01 47 52.0000000  0  9G10G26G21G22G 6G30G 1G17G16                     
  23415165.25004 137686360.74714      3791.69504        38.100  

  20482429.49045 122274728.62245     -1624.21945        39.100  

  20701242.31205 123424598.45015      1780.08205        39.300  

  22314569.09604 131902690.74714     -3416.84804        38.400  

  22042340.62944 130472118.85054      -910.78544        38.500  

  22267307.01504 131654329.78614      2974.39104        38.600  

  19600070.76405 117637902.59715       280.09005        39.700  

  22396368.09304 132332545.55414     -2608.23404        38.400  

  23995737.51404 140737287.33014      2225.68404        37.800  

 06 10 29 01 47 53.0000000  0  9G10G26G21G22G 6G30G 1G17G16                     
  23414443.68804 137682568.89714      3791.78504        38.200  

  20482738.59745 122276353.05045     -1624.67645        39.100  

  20700903.63705 123422818.86415      1779.32005        39.000  

  22315219.33344 131906107.81354     -3417.32044        38.300  

  22042513.96644 130473029.85144      -911.50844        38.600  

  22266741.05004 131651355.66614      2974.07804        38.500  

  19600017.50845 117637622.77755       279.69145        39.600  

  22396864.48404 132335154.13314     -2608.97304        38.300  

  23995314.04704 140735061.80014      2225.13304        37.800  

 06 10 29 01 47 54.0000000  0  9G10G26G21G22G 6G30G 1G17G16                     
  23413722.15904 137678777.26314      3791.48004        37.900  

  20483047.80445 122277977.90845     -1624.96545        39.100  

  20700565.09105 123421039.85215      1778.75005        39.100  

  22315869.65604 131909525.25104     -3417.51604        38.400  

  22042687.44344 130473941.68244      -912.19944        38.600  

  22266175.13104 131648381.82614      2973.69104        38.700  

  19599964.41905 117637343.74805       278.53905        39.600  

  22397360.96904 132337763.23714     -2609.42204        38.400  

  23994890.65004 140732836.91614      2224.58604        37.800  

 06 10 29 01 47 55.0000000  0  9G10G26G21G22G 6G30G 1G17G16                     
  23413000.67304 137674985.74614      3791.55104        38.000  

  20483357.08245 122279603.12545     -1625.40645        39.100  

  20700226.68505 123419261.38915      1777.89105        39.100  

  22316520.01504 131912943.01514     -3418.03904        38.600  

  22042861.07344 130474854.26744      -913.08244        38.600  

  22265609.27204 131645408.20514      2973.48004        38.300  

  19599911.43045 117637065.37855       277.86345        39.700  

  22397857.54204 132340372.79914     -2609.83604        38.500  

  23994467.38604 140730612.56014      2223.99204        37.800  

 06 10 29 01 47 56.0000000  0  9G10G26G21G22G 6G30G 1G17G16                     
  23412279.22344 137671194.38254      3791.25844        37.900  

  20483666.39745 122281228.71345     -1625.97345        39.300  

  20699888.34145 123417483.45555      1777.89845        39.000  

  22317170.47344 131916361.05954     -3418.10244        38.300  

  22043034.86344 130475767.59844      -913.68444        38.600  

  22265043.45344 131642434.78254      2973.18044        38.600  

  19599858.56945 117636787.64445       277.32845        39.700  

  22398354.22344 132342982.84654     -2610.40644        38.500  

  23994044.21044 140728388.76754      2223.60944        37.800  

 06 10 29 01 47 57.0000000  0  9G10G26G21G22G 6G30G 1G17G16                     
  23411557.78004 137667403.15604      3791.21904        38.000  

  20483975.81505 122282854.63505     -1626.19105        39.200  

  20699550.11305 123415706.08505      1777.00005        39.100  

  22317820.94304 131919779.43204     -3418.39104        38.500  

  22043208.81644 130476681.68544      -914.32444        38.500  

  22264477.68544 131639461.59344      2973.07444        38.400  

  19599805.84205 117636510.63405       276.51205        39.600  

  22398850.94904 132345593.33704     -2610.59804        38.300  

  23993621.14204 140726165.56504      2222.91804        37.800  

 06 10 29 01 47 58.0000000  0  9G10G26G21G22G 6G30G 1G17G16                     
  23410836.34804 137663611.99914      3791.17604        38.000  

  20484285.29105 122284480.85715     -1626.38305        39.200  

  20699211.98905 123413929.18615      1776.50805        39.000  

  22318471.50004 131923198.02714     -3418.52704        38.500  

  22043382.90304 130477596.46904      -915.25404        38.500  

  22263911.92844 131636488.54944      2972.86344        38.500  

  19599753.24845 117636234.20855       276.04745        39.400  

  22399347.79104 132348204.24314     -2610.98404        38.600  

  23993198.16304 140723942.84814      2222.51204        37.800  

 06 10 29 01 47 59.0000000  0  9G10G26G21G22G 6G30G 1G17G16                     
  23410114.92804 137659820.92714      3791.03104        37.900  

  20484594.78545 122286107.39555     -1626.64545        39.100  

  20698873.96205 123412152.78415      1776.04305        39.100  

  22319122.11804 131926616.92014     -3419.06304        38.300  

  22043557.14604 130478511.96114      -915.91004        38.500  

  22263346.20204 131633515.68104      2972.76604        38.600  

  19599700.79345 117635958.42145       275.54745        39.600  

  22399844.70604 132350815.56814     -2611.39104        38.500  

  23992775.28004 140721720.63914      2221.81604        37.800  

 06 10 29 01 48  0.0000000  0  9G10G26G21G22G 6G30G 1G17G16                     
  23409393.56704 137656030.03714      3790.89504        38.000  

  20484904.37005 122287734.28705     -1626.88305        39.200  

  20698536.01505 123410376.94015      1775.62905        39.200  

  22319772.79504 131930036.12014     -3419.68004        38.700  

  22043731.52904 130479428.22214      -916.53104        38.600  

  22262780.51304 131630543.03214      2972.77004        38.300  

  19599648.42845 117635683.32945       274.73845        39.600  

  22400341.70804 132353427.38914     -2611.99604        38.600  

  23992352.53604 140719499.00714      2221.52004        37.900  

 06 10 29 01 48  1.0000000  0  9G10G26G21G22G 6G30G 1G17G16                     
  23408672.23204 137652239.32014      3790.60504        38.000  

  20485214.06505 122289361.60615     -1627.52705        39.400  

  20698198.20105 123408601.68315      1774.91005        39.200  

  22320423.52544 131933455.65154     -3419.73444        38.600  

  22043906.04804 130480345.28714      -917.52004        38.700  

  22262214.89804 131627570.66514      2972.19904        38.400  

  19599596.21345 117635408.95645       274.15245        39.700  

  22400838.81604 132356039.69214     -2612.40204        38.600  

  23991929.87604 140717277.98314      2220.54704        37.900  

 06 10 29 01 48  2.0000000  0  9G10G26G21G22G 6G30G 1G17G16                     
  23407950.89144 137648448.69054      3790.52044        37.900  

  20485523.81645 122290989.25055     -1627.66445        39.100  

  20697860.47645 123406826.92255      1774.72745        39.100  

  22321074.32044 131936875.47144     -3419.93044        38.600  

  22044080.66744 130481263.04954      -917.84444        38.500  

  22261649.29844 131624598.43954      2972.24644        38.600  

  19599544.13645 117635135.23645       273.56645        39.500  

  22401335.98344 132358652.42754     -2612.88344        38.300  

  23991507.32044 140715057.46354      2219.91044        37.900  

 06 10 29 01 48  3.0000000  0  9G10G26G21G22G 6G30G 1G17G16                     
  23407229.57904 137644658.21304      3790.46104        37.900  

  20485833.60305 122292617.24605     -1628.35205        39.100  

  20697522.88105 123405052.70705      1774.04305        39.200  

  22321725.13044 131940295.57544     -3420.34044        38.100  

  22044255.47904 130482181.59304      -918.94904        38.600  

  22261083.78204 131621626.45504      2971.95304        38.600  

  19599492.17945 117634862.18445       272.69145        39.300  

  22401833.27104 132361265.64104     -2613.42204        38.300  

  23991084.88604 140712837.51404      2219.72304        37.900  

 06 10 29 01 48  4.0000000  0  9G10G26G21G22G 6G30G 1G17G16                     
  23406508.28004 137640867.82014      3790.36704        37.800  

  20486143.46305 122294245.53615     -1628.37105        39.100  

  20697185.34305 123403278.99615      1773.63305        39.200  

  22322375.99204 131943715.98204     -3420.44904        38.600  

  22044430.38304 130483100.83814      -919.59804        38.600  

  22260518.26304 131618654.65214      2971.80904        38.500  

  19599440.35805 117634589.77005       272.26205        39.600  

  22402330.60804 132363879.30714     -2614.22304        38.600  

  23990662.54904 140710618.10514      2218.92604        37.800  

 06 10 29 01 48  5.0000000  0  9G10G26G21G22G 6G30G 1G17G16                     
  23405787.03304 137637077.61014      3790.00804        38.000  

  20486453.39205 122295874.22915     -1628.75405        39.100  

  20696847.94005 123401505.86215      1772.95305        39.000  

  22323026.95104 131947136.69114     -3420.75804        38.300  

  22044605.47004 130484020.84914      -920.07804        38.400  

  22259952.76104 131615683.07614      2971.78504        38.700  

  19599388.65205 117634318.06615       271.30105        39.600  

  22402828.03504 132366493.42114     -2614.50804        38.400  

  23990240.30904 140708399.26414      2218.79304        37.800  

 06 10 29 01 48  6.0000000  0  9G10G26G21G22G 6G30G 1G17G16                     
  23405065.80504 137633287.55614      3790.14504        37.900  

  20486763.40405 122297503.30415     -1629.27005        39.000  

  20696510.62545 123399733.29255      1772.32845        39.000  

  22323677.96104 131950557.76014     -3421.45304        38.500  

  22044780.69404 130484941.67214      -921.42204        38.700  

  22259387.34604 131612711.77614      2971.05904        38.500  

  19599337.08405 117634047.05715       270.60905        39.600  

  22403325.57504 132369108.03314     -2614.83604        38.600  

  23989818.17204 140706181.00714      2218.00404        37.900  

 06 10 29 01 48  7.0000000  0  9G10G26G21G22G 6G30G 1G17G16                     
  23404344.63204 137629497.65614      3789.66404        37.800  

  20487073.48205 122299132.73415     -1629.78105        39.200  

  20696173.42905 123397961.27405      1771.83605        39.000  

  22324329.03444 131953979.12254     -3421.47744        38.400  

  22044956.04004 130485863.23014      -921.85904        38.600  

  22258821.97144 131609740.66154      2971.06644        38.300  

  19599285.64605 117633776.72815       270.01205        39.600  

  22403823.22604 132371723.14014     -2615.50404        38.400  

  23989396.16104 140703963.33414      2217.54704        37.900  

 06 10 29 01 48  8.0000000  0  9G10G26G21G22G 6G30G 1G17G16                     
  23403623.45444 137625707.92554      3789.62944        38.200  

  20487383.61545 122300762.56855     -1630.18045        39.200  

  20695836.34845 123396189.83755      1770.87945        39.300  

  22324980.12044 131957400.83844     -3422.13344        38.300  

  22045131.53944 130486785.60054      -922.86344        38.600  

  22258256.60944 131606769.83044      2970.55144        38.600  

  19599234.34145 117633507.11055       269.24645        39.400  

  22404320.95944 132374338.72354     -2615.90644        38.500  

  23988974.27304 140701746.25114      2217.06304        37.700  

 06 10 29 01 48  9.0000000  0  9G10G26G21G22G 6G30G 1G17G16                     
  23402902.34104 137621918.46504      3789.25804        38.100  

  20487693.86705 122302392.87905     -1630.46105        39.300  

  20695499.38205 123394419.06205      1770.53905        39.200  

  22325631.32244 131960822.97244     -3422.09044        38.200  

  22045307.22804 130487708.84104      -923.73804        38.700  

  22257691.33404 131603799.31804      2970.17204        38.300  

  19599183.20405 117633238.31505       268.39105        39.700  

  22404818.78704 132376954.91904     -2616.52304        38.400  

  23988552.51104 140699529.85304      2216.16804        37.900  

 06 10 29 01 48 10.0000000  0  9G10G26G21G22G 6G30G 1G17G16                     
  23402181.25004 137618129.19514      3789.11304        37.800  

  20488004.20005 122304023.61615     -1631.31605        39.100  

  20695162.54905 123392648.90615      1769.67205        39.200  

  22326282.60044 131964245.46944     -3422.47744        38.400  

  22045483.07304 130488632.89414      -924.52704        38.500  

  22257126.10604 131600829.08514      2970.19504        38.500  

  19599132.18845 117632970.25155       267.49645        39.500  

  22405316.75504 132379571.61114     -2616.98404        38.500  

  23988130.86504 140697314.07804      2215.43804        38.000  

 06 10 29 01 48 11.0000000  0  9G10G26G21G22G 6G30G 1G17G16                     
  23401460.21004 137614340.08814      3789.16804        38.100  

  20488314.57205 122305654.70115     -1631.26205        39.300  

  20694825.79645 123390879.27655      1769.55145        39.200  

  22326933.92804 131967668.32404     -3423.08204        38.500  

  22045659.08404 130489557.71414      -925.37104        38.300  

  22256560.93904 131597859.09714      2969.62904        38.600  

  19599081.29345 117632702.86645       267.03145        39.700  

  22405814.79404 132382188.80814     -2617.54704        38.600  

  23987709.33744 140695098.88044      2214.95744        38.100  

 06 10 29 01 48 12.0000000  0  9G10G26G21G22G 6G30G 1G17G16                     
  23400739.13404 137610550.98114      3789.42604        38.300  

  20488624.99005 122307286.03715     -1631.39105        39.000  

  20694489.12545 123389110.07545      1768.94145        39.100  

  22327585.31544 131971091.33154     -3422.98444        38.300  

  22045835.17604 130490483.15114      -925.53504        38.700  

  22255995.76304 131594889.17214      2969.90604        38.400  

  19599030.52705 117632436.03105       266.68805        39.700  

  22406312.88944 132384806.32454     -2617.49644        38.700  

  23987287.89004 140692884.12504      2214.56604        37.800  

 06 10 29 01 48 13.0000000  0  9G10G26G21G22G 6G30G 1G17G16                     
  23400018.02304 137606761.50514      3789.57804        38.100  

  20488935.37805 122308917.20315     -1631.16405        39.000  

  20694152.43945 123387340.91345      1768.80145        39.100  

  22328236.64204 131974514.11504     -3422.89104        38.500  

  22046011.34604 130491408.83614      -926.08604        38.600  

  22255430.54604 131591918.96414      2970.26604        38.500  

  19598979.78305 117632169.35315       266.51605        39.700  

  22406810.98744 132387423.80644     -2617.77344        38.300  

  23986866.43104 140690669.38014      2214.69504        37.900  

 06 10 29 01 48 14.0000000  0  9G10G26G21G22G 6G30G 1G17G16                     
  23399296.92604 137602972.28114      3788.95304        38.000  

  20489245.87605 122310548.80115     -1631.80505        39.000  

  20693815.87645 123385572.36345      1768.26245        39.300  

  22328888.03704 131977937.30614     -3423.31304        38.600  

  22046187.67004 130492335.34814      -926.90604        38.100  

  22254865.40004 131588949.05714      2969.53104        38.500  

  19598929.20405 117631903.45615       265.36705        39.500  

  22407309.19744 132390041.82344     -2618.75044        38.300  

  23986445.10404 140688455.31214      2213.68404        37.700  

 06 10 29 01 48 15.0000000  0  9G10G26G21G22G 6G30G 1G17G16                     
  23398575.93504 137599183.39014      3788.50004        38.100  

  20489556.45405 122312181.00115     -1632.14805        39.000  

  20693479.46545 123383804.57845      1767.45345        39.000  

  22329539.55904 131981361.04514     -3423.99204        38.600  

  22046364.17004 130493262.85314      -927.90204        38.700  

  22254300.34204 131585979.58614      2969.29304        38.500  

  19598878.77105 117631638.43115       264.62505        39.600  

  22407807.48544 132392660.52244     -2618.99244        38.400  

  23986023.91004 140686242.02014      2213.14804        37.700  

 06 10 29 01 48 16.0000000  0  9G10G26G21G22G 6G30G 1G17G16                     
  23397854.96604 137595394.75214      3788.53504        37.900  

  20489867.15005 122313813.66715     -1633.09405        39.100  

  20693143.18945 123382037.46845      1766.62945        39.000  

  22330191.15304 131984785.15414     -3424.15204        38.500  

  22046540.83604 130494191.21014      -928.63704        38.500  

  22253735.32804 131583010.43514      2969.35504        38.400  

  19598828.49205 117631374.22515       263.62505        39.700  

  22408305.91644 132395279.78944     -2619.35944        38.600  

  23985602.89804 140684029.38814      2212.50804        37.700  

 06 10 29 01 48 17.0000000  0  9G10G26G21G22G 6G30G 1G17G16                     
  23397134.08004 137591606.29714      3788.40604        37.900  

  20490177.89205 122315446.71315     -1633.34405        38.900  

  20692807.01505 123380270.93205      1766.17605        39.200  

  22330842.79804 131988209.65414     -3424.68404        38.200  

  22046717.60304 130495120.36514      -929.30904        38.600  

  22253170.34704 131580041.58214      2968.41404        38.400  

  19598778.36445 117631110.72355       263.12145        39.800  

  22408804.45044 132397899.57544     -2619.96544        38.600  

  23985181.95604 140681817.38514      2211.48404        37.800  

 06 10 29 01 48 18.0000000  0  9G10G26G21G22G 6G30G 1G17G16                     
  23396413.19104 137587818.08114      3788.05904        38.000  

  20490488.75505 122317080.24415     -1633.70305        39.100  

  20692470.96405 123378505.04215      1765.57805        39.000  

  22331494.51604 131991634.55114     -3425.12504        38.300  

  22046894.57604 130496050.39714      -930.54304        38.600  

  22252605.42504 131577073.00114      2968.28904        38.200  

  19598728.34205 117630847.98905       262.36305        39.800  

  22409303.08804 132400519.94104     -2620.77004        38.400  

  23984761.14744 140679606.02854      2211.23844        37.900  

 06 10 29 01 48 19.0000000  0  9G10G26G21G22G 6G30G 1G17G16                     
  23395692.36304 137584030.04414      3788.01604        37.900  

  20490799.67505 122318714.12315     -1634.03905        39.200  

  20692135.05505 123376739.72115      1764.78905        39.000  

  22332146.30604 131995059.75814     -3425.31604        38.400  

  22047071.72204 130496981.16614      -931.03104        38.500  

  22252040.59204 131574104.67814      2968.09804        38.300  

  19598678.48545 117630585.95955       261.75045        39.600  

  22409801.81504 132403140.76414     -2620.98804        38.300  

  23984340.46144 140677395.24944      2210.58244        37.900  

 06 10 29 01 48 20.0000000  0  9G10G26G21G22G 6G30G 1G17G16                     
  23394971.56044 137580242.06354      3787.88744        38.100  

  20491110.66145 122320348.29355     -1634.18845        39.400  

  20691799.20045 123374974.84655      1764.78145        38.900  

  22332798.13344 131998485.21754     -3425.78544        38.400  

  22047248.96444 130497912.64454      -931.59844        38.300  

  22251475.77344 131571136.49454      2968.20344        38.600  

  19598628.71045 117630324.54945       260.97345        39.600  

  22410300.60444 132405761.99154     -2621.31644        38.400  

  23983919.88344 140675185.00644      2209.97744        37.900  

 06 10 29 01 48 21.0000000  0  9G10G26G21G22G 6G30G 1G17G16                     
  23394250.77604 137576454.09304      3788.01204        38.100  

  20491421.69505 122321982.71905     -1634.32405        39.100  

  20691463.46105 123373210.40805      1764.29305        39.000  

  22333450.01304 132001910.84404     -3425.63704        38.300  

  22047426.33944 130498844.75544      -932.39844        38.600  

  22250910.96704 131568168.40004      2968.22704        38.300  

  19598579.08305 117630063.67705       260.60905        39.600  

  22410799.46104 132408383.56704     -2621.69504        38.500  

  23983499.35544 140672975.14844      2209.69944        37.900  

 06 10 29 01 48 22.0000000  0  9G10G26G21G22G 6G30G 1G17G16                     
  23393529.96604 137572666.13114      3788.05904        38.200  

  20491732.74805 122323617.34515     -1634.93805        39.100  

  20691127.76505 123371446.38815      1763.69105        39.100  

  22334101.91504 132005336.63814     -3425.90204        38.600  

  22047603.81804 130499777.45904      -933.10204        38.600  

  22250346.16644 131565200.38154      2967.85544        38.600  

  19598529.54845 117629803.33455       260.22745        39.800  

  22411298.38404 132411005.43314     -2621.96904        38.300  

  23983078.93644 140670765.70844      2209.25044        37.800  

 06 10 29 01 48 23.0000000  0  9G10G26G21G22G 6G30G 1G17G16                     
  23392809.12704 137568878.26614      3787.88304        38.000  

  20492043.87405 122325252.28015     -1635.29705        39.200  

  20690792.18305 123369682.84115      1763.36705        39.100  

  22334753.84604 132008762.67914     -3426.25404        38.300  

  22047781.44004 130500710.86714      -933.82404        38.500  

  22249781.42944 131562232.53544      2967.93444        38.400  

  19598480.12405 117629543.63105       259.41805        39.500  

  22411797.41004 132413627.74314     -2622.52704        38.300  

  23982658.59704 140668556.81104      2208.70704        37.700  

 06 10 29 01 48 24.0000000  0  9G10G26G21G22G 6G30G 1G17G16                     
  23392088.34104 137565090.50114      3787.52004        38.000  

  20492355.05105 122326887.52815     -1635.30105        39.300  

  20690456.69405 123367919.82015      1762.79305        39.000  

  22335405.85904 132012189.01814     -3426.50004        38.600  

  22047959.20904 130501645.02214      -934.53504        38.500  

  22249216.70944 131559264.87444      2967.79344        38.500  

  19598430.81245 117629284.57255       258.72745        39.600  

  22412296.51004 132416250.48014     -2622.96104        38.400  

  23982238.34604 140666348.44814      2207.95704        37.700  

 06 10 29 01 48 25.0000000  0  9G10G26G21G22G 6G30G 1G17G16                     
  23391367.58104 137561302.96714      3787.59004        38.100  

  20492666.30605 122328523.23715     -1635.90205        39.200  

  20690121.33805 123366157.42315      1762.35905        39.100  

  22336057.93704 132015615.74014     -3427.07404        38.300  

  22048137.12444 130502579.99154      -935.35244        38.600  

  22248652.01244 131556297.52244      2967.22744        38.200  

  19598381.66545 117629026.28745       257.91045        39.500  

  22412795.70904 132418873.78114     -2623.71904        38.400  

  23981818.18804 140664140.72114      2207.30104        38.000  

 06 10 29 01 48 26.0000000  0  9G10G26G21G22G 6G30G 1G17G16                     
  23390646.85804 137557515.59014      3787.24204        38.100  

  20492977.64045 122330159.29155     -1636.39545        39.000  

  20689786.06804 123364395.56314      1761.76204        38.800  

  22336710.11004 132019042.74514     -3427.16004        38.500  

  22048315.18644 130503515.72344      -936.24644        38.400  

  22248087.37244 131553330.37444      2967.02744        38.300  

  19598332.64945 117628768.65845       257.28545        39.600  

  22413294.97004 132421497.50014     -2624.02004        38.300  

  23981398.18204 140661933.55614      2206.69504        37.600  

 06 10 29 01 48 27.0000000  0  9G10G26G21G22G 6G30G 1G17G16                     
  23389926.18904 137553728.39414      3787.21904        37.900  

  20493289.03745 122331795.77245     -1636.83645        39.100  

  20689450.92005 123362634.33215      1760.82005        39.200  

  22337362.34504 132022470.14914     -3427.74604        38.400  

  22048493.37344 130504452.26044      -936.92244        38.600  

  22247522.79404 131550363.51004      2966.94504        38.200  

  19598283.77105 117628511.78105       256.30505        39.600  

  22413794.34704 132424121.77114     -2624.67604        38.300  

  23980978.27604 140659727.01114      2206.32804        38.000  

 06 10 29 01 48 28.0000000  0  9G10G26G21G22G 6G30G 1G17G16                     
  23389205.52904 137549941.28714      3787.04704        38.100  

  20493600.51345 122333432.53345     -1637.00045        39.100  

  20689115.84905 123360873.57515      1760.37505        39.100  

  22338014.61704 132025897.77414     -3427.77704        38.500  

  22048671.71944 130505389.50444      -937.70744        38.700  

  22246958.26104 131547396.82114      2966.73404        38.500  

  19598235.00405 117628255.49015       256.12905        39.300  

  22414293.82204 132426746.43414     -2624.94504        38.200  

  23980558.47004 140657520.96814      2205.75004        37.700  

 06 10 29 01 48 29.0000000  0  9G10G26G21G22G 6G30G 1G17G16                     
  23388484.92104 137546154.35614      3786.97704        38.000  

  20493912.06045 122335069.69845     -1637.29345        39.000  

  20688780.87745 123359113.39755      1759.65645        39.300  

  22338666.92244 132029325.75754     -3428.29344        38.600  

  22048850.23944 130506327.52044      -938.33244        38.500  

  22246393.76504 131544430.35414      2966.27304        38.400  

  19598186.38005 117627999.95215       255.18405        39.600  

  22414793.37504 132429371.60714     -2625.38704        38.500  

  23980138.80804 140655315.50614      2205.15604        37.700  

 06 10 29 01 48 30.0000000  0  9G10G26G21G22G 6G30G 1G17G16                     
  23387764.35404 137542367.63714      3786.41804        38.000  

  20494223.68045 122336707.27545     -1637.85945        39.300  

  20688446.07705 123357353.81905      1759.12505        39.200  

  22339319.31004 132032754.08604     -3428.59004        38.500  

  22049028.92044 130507266.34744      -939.10944        38.500  

  22245829.33604 131541464.19114      2965.93004        38.300  

  19598137.87445 117627745.11955       254.55545        39.500  

  22415293.04344 132431997.29354     -2625.98444        38.400  

  23979719.23504 140653110.70814      2204.46904        37.600  

 06 10 29 01 48 31.0000000  0  9G10G26G21G22G 6G30G 1G17G16                     
  23387043.82904 137538581.16814      3786.00404        37.900  

  20494535.39205 122338345.31305     -1638.16805        39.000  

  20688111.36405 123355594.87915      1758.44105        39.400  

  22339971.79204 132036182.83114     -3429.05104        38.500  

  22049207.78204 130508206.06604      -939.93404        38.400  

  22245264.94504 131538498.33814      2965.58204        38.700  

  19598089.54505 117627491.07905       253.81605        39.400  

  22415792.81304 132434623.55904     -2626.60504        38.400  

  23979299.79904 140650906.54714      2204.04704        37.800  

 06 10 29 01 48 32.0000000  0  9G10G26G21G22G 6G30G 1G17G16                     
  23386323.27944 137534794.76654      3786.27744        38.200  

  20494847.15645 122339983.65555     -1638.46545        39.000  

  20687776.76045 123353836.44655      1758.18445        39.100  

  22340624.31744 132039611.82954     -3429.17244        38.600  

  22049386.72344 130509146.46354      -940.68044        38.600  

  22244700.57944 131535532.65154      2965.51244        38.600  

  19598041.31945 117627237.66855       253.32845        39.400  

  22416292.65244 132437250.20854     -2626.77344        38.300  

  23978880.43544 140648702.91154      2203.39844        37.700  

 06 10 29 01 48 33.0000000  0  9G10G26G21G22G 6G30G 1G17G16                     
  23385602.74104 137531008.47204      3786.13704        38.000  

  20495158.97805 122341622.32105     -1638.88305        39.300  

  20687442.22905 123352078.50905      1757.54705        39.200  

  22341276.89004 132043041.08504     -3429.41404        38.100  

  22049565.80544 130510087.56244      -941.35944        38.600  

  22244136.25604 131532567.13104      2965.35904        38.500  

  19597993.20745 117626984.88345       252.50445        39.700  

  22416792.57004 132439877.29604     -2627.33604        38.600  

  23978461.19304 140646499.78504      2202.79304        37.900  

 06 10 29 01 48 34.0000000  0  9G10G26G21G22G 6G30G 1G17G16                     
  23384882.27544 137527222.38754      3785.70344        38.000  

  20495470.89805 122343261.37215     -1639.23005        39.000  

  20687107.80705 123350321.17415      1756.78105        39.100  

  22341929.49404 132046470.71314     -3429.86704        38.500  

  22049745.02944 130511029.49644      -942.55144        38.600  

  22243571.95004 131529601.88214      2965.19104        38.300  

  19597945.24105 117626732.85205       251.65605        39.600  

  22417292.56744 132442504.88754     -2627.68044        38.600  

  23978042.06904 140644297.29114      2202.29304        37.900  

 06 10 29 01 48 35.0000000  0  9G10G26G21G22G 6G30G 1G17G16                     
  23384161.83344 137523436.40844      3785.87544        37.900  

  20495782.87205 122344900.78715     -1639.68405        39.300  

  20686773.49645 123348564.35755      1756.54345        39.200  

  22342582.17504 132049900.59114     -3429.96904        38.400  

  22049924.39604 130511972.13304      -943.16804        38.500  

  22243007.73004 131526636.83714      2965.03504        38.300  

  19597897.38845 117626481.42755       251.25445        39.400  

  22417792.66304 132445132.92404     -2628.23004        38.300  

  23977623.00904 140642095.31714      2201.50804        37.800  

 06 10 29 01 48 36.0000000  0  9G10G26G21G22G 6G30G 1G17G16                     
  23383441.45344 137519650.65744      3785.63744        38.100  

  20496094.91405 122346540.61015     -1640.13305        39.100  

  20686439.30745 123346808.17045      1755.66445        39.100  

  22343234.91204 132053330.88414     -3430.58204        38.400  

  22050103.96004 130512915.60014      -943.74204        38.700  

  22242443.52704 131523672.07514      2964.59804        38.600  

  19597849.69505 117626230.78905       250.16405        39.700  

  22418292.86904 132447761.47814     -2628.68004        38.700  

  23977204.14304 140639893.97314      2201.09004        37.800  

 06 10 29 01 48 37.0000000  0  9G10G26G21G22G 6G30G 1G17G16                     
  23382721.10344 137515865.01944      3785.80944        38.100  

  20496407.01705 122348180.79115     -1640.22705        39.100  

  20686105.21145 123345052.51445      1755.45745        39.000  

  22343887.70104 132056761.45614     -3430.71904        38.400  

  22050283.66504 130513859.80914      -944.45704        38.400  

  22241879.39804 131520707.54214      2964.37504        38.300  

  19597802.10805 117625980.82015       249.76205        39.600  

  22418793.14404 132450390.51814     -2629.29704        38.500  

  23976785.34444 140637693.22254      2200.42244        38.000  

 06 10 29 01 48 38.0000000  0  9G10G26G21G22G 6G30G 1G17G16                     
  23382000.70544 137512079.40344      3785.35944        37.900  

  20496719.15645 122349821.16255     -1640.56345        39.000  

  20685771.18245 123343297.25345      1754.95745        38.900  

  22344540.53804 132060192.18214     -3430.82404        38.200  

  22050463.44604 130514804.63314      -945.23004        38.400  

  22241315.27604 131517743.04214      2964.69504        38.600  

  19597754.64305 117625731.35115       249.33205        39.500  

  22419293.51144 132453019.86454     -2629.65244        38.200  

  23976366.62504 140635492.87704      2200.02004        37.800  

 06 10 29 01 48 39.0000000  0  9G10G26G21G22G 6G30G 1G17G16                     
  23381280.32904 137508293.83404      3785.36304        38.000  

  20497031.34545 122351461.82845     -1640.98045        39.100  

  20685437.26245 123341542.41845      1754.67645        39.200  

  22345193.42344 132063623.13054     -3431.18444        38.500  

  22050643.36504 130515750.12114      -945.71504        38.700  

  22240751.17904 131514778.70614      2963.95704        38.400  

  19597707.26905 117625482.48615       248.55905        39.700  

  22419793.94144 132455649.56344     -2629.99644        38.500  

  23975947.98004 140633292.98614      2199.56304        38.000  

 06 10 29 01 48 40.0000000  0  9G10G26G21G22G 6G30G 1G17G16                     
  23380560.00304 137504508.46714      3785.31304        37.900  

  20497343.62305 122353102.88205     -1641.12105        39.000  

  20685103.43345 123339788.23545      1754.00045        39.200  

  22345846.39404 132067054.42104     -3431.17204        38.300  

  22050823.44704 130516696.42914      -946.86704        38.700  

  22240187.10204 131511814.62614      2963.90604        38.600  

  19597660.06205 117625234.37715       247.74205        39.600  

  22420294.45744 132458279.79644     -2630.48044        38.200  

  23975529.48104 140631093.71814      2199.19904        38.000  

 06 10 29 01 48 41.0000000  0  9G10G26G21G22G 6G30G 1G17G16                     
  23379839.70704 137500723.27414      3784.87904        38.100  

  20497655.98705 122354744.34015     -1641.52705        39.200  

  20684769.73005 123338034.60505      1753.48405        39.000  

  22346499.40704 132070486.08114     -3431.89804        38.300  

  22051003.69304 130517643.49714      -947.43804        38.400  

  22239623.08804 131508850.79014      2963.79704        38.600  

  19597612.98505 117624986.96315       246.94505        39.700  

  22420795.06644 132460910.51644     -2630.95744        38.100  

  23975111.12004 140628895.08414      2198.14104        37.800  

 06 10 29 01 48 42.0000000  0  9G10G26G21G22G 6G30G 1G17G16                     
  23379119.41304 137496938.24914      3784.89504        38.200  

  20497968.43505 122356386.19315     -1642.02305        39.100  

  20684436.14505 123336281.55515      1753.00805        39.300  

  22347152.44704 132073918.04714     -3432.01204        38.400  

  22051184.06104 130518591.36714      -948.32004        38.500  

  22239059.17604 131505887.22614      2963.53504        38.300  

  19597566.03905 117624740.23215       246.28105        39.300  

  22421295.77544 132463541.72944     -2631.41444        38.400  

  23974692.82704 140626697.00014      2198.01204        37.800  

 06 10 29 01 48 43.0000000  0  9G10G26G21G22G 6G30G 1G17G16                     
  23378399.13904 137493153.30714      3784.92604        37.900  

  20498280.92405 122358028.32915     -1642.21505        39.400  

  20684102.64605 123334529.00015      1752.59005        39.200  

  22347805.55504 132077350.28914     -3432.59004        38.500  

  22051364.59704 130519539.93714      -949.00804        38.500  

  22238495.23504 131502923.79814      2963.55904        38.500  

  19597519.19905 117624494.13715       245.91805        39.600  

  22421796.54704 132466173.35004     -2631.80104        38.100  

  23974274.63204 140624499.43614      2197.14504        37.800  

 06 10 29 01 48 44.0000000  0  9G10G26G21G22G 6G30G 1G17G16                     
  23377678.93104 137489368.49914      3784.59404        38.000  

  20498593.46445 122359670.80255     -1642.66445        39.200  

  20683769.24845 123332776.98155      1751.58645        39.100  

  22348458.75144 132080782.77854     -3432.47744        38.500  

  22051545.23944 130520489.22454      -949.91044        38.600  

  22237931.35644 131499960.59154      2963.06344        38.700  

  19597472.47945 117624248.69655       245.02345        39.600  

  22422297.39944 132468805.39354     -2632.33244        38.300  

  23973856.56044 140622302.40554      2196.64144        37.800  

 06 10 29 01 48 45.0000000  0  9G10G26G21G22G 6G30G 1G17G16                     
  23376958.75404 137485583.82204      3784.58204        38.000  

  20498906.07305 122361313.65305     -1643.07005        39.200  

  20683435.95905 123331025.48905      1751.00805        39.300  

  22349111.99304 132084215.58804     -3432.96904        38.500  

  22051726.03904 130521439.25604      -950.56304        38.400  

  22237367.51904 131496997.59704      2962.69104        38.600  

  19597425.90505 117624003.95205       244.23005        39.600  

  22422798.34704 132471437.90304     -2632.56604        38.400  

  23973438.57244 140620105.95944      2196.26644        37.800  

 06 10 29 01 48 46.0000000  0  9G10G26G21G22G 6G30G 1G17G16                     
  23376238.56404 137481799.28004      3784.37504        38.000  

  20499218.74905 122362956.78915     -1643.37905        39.300  

  20683102.77005 123329274.50315      1750.66805        39.100  

  22349765.30804 132087648.67714     -3433.35904        38.200  

  22051906.97704 130522390.01714      -951.13304        38.500  

  22236803.70804 131494034.76514      2962.87104        38.400  

  19597379.46605 117623759.82415       243.60505        39.500  

  22423299.39104 132474070.84214     -2632.80904        38.600  

  23973020.72044 140617910.03544      2195.83244        37.800  

 06 10 29 01 48 47.0000000  0  9G10G26G21G22G 6G30G 1G17G16                     
  23375518.46004 137478014.92104      3784.01204        38.100  

  20499531.51505 122364600.34615     -1643.76205        39.000  

  20682769.68605 123327524.12915      1749.84005        38.900  

  22350418.66504 132091082.08714     -3433.25804        38.200  

  22052088.08304 130523341.57814      -952.03904        38.500  

  22236239.96004 131491072.21914      2962.34004        38.200  

  19597333.14405 117623516.42815       242.79705        39.500  

  22423800.51504 132476704.30214     -2633.73804        38.300  

  23972602.95544 140615714.71644      2194.98844        37.800  

 06 10 29 01 48 48.0000000  0  9G10G26G21G22G 6G30G 1G17G16                     
  23374798.35704 137474230.72804      3784.16404        38.100  

  20499844.34805 122366244.30615     -1643.93005        39.100  

  20682436.68105 123325774.32915      1749.63305        39.100  

  22351072.11904 132094515.89514     -3434.07404        38.200  

  22052269.29004 130524293.93214      -952.64504        38.600  

  22235676.26804 131488109.93314      2962.24604        38.700  

  19597286.98405 117623273.75215       242.09405        39.600  

  22424301.74004 132479338.25614     -2634.25004        38.500  

  23972185.32244 140613520.02344      2194.32844        38.000  

 06 10 29 01 48 49.0000000  0  9G10G26G21G22G 6G30G 1G17G16                     
  23374078.23304 137470446.66504      3783.99604        37.900  

  20500157.24605 122367888.58015     -1644.28505        39.100  

  20682103.81005 123324025.04915      1749.23405        39.100  

  22351725.62804 132097949.94514     -3434.19504        38.400  

  22052450.65904 130525247.03214      -953.40204        38.600  

  22235112.58844 131485147.81354      2962.46144        38.400  

  19597240.93245 117623031.72255       241.68845        39.600  

  22424803.05504 132481972.63714     -2634.56604        38.400  

  23971767.78544 140611325.83244      2194.07444        37.900  

 06 10 29 01 48 50.0000000  0  9G10G26G21G22G 6G30G 1G17G16                     
  23373358.19044 137466662.70044      3784.00444        37.900  

  20500470.20445 122369533.18355     -1644.75045        39.300  

  20681771.03545 123322276.28255      1748.41445        39.200  

  22352379.13944 132101384.23654     -3434.30944        38.400  

  22052632.14544 130526200.80354      -954.02044        38.700  

  22234548.95044 131482185.89344      2961.95344        38.600  

  19597194.98145 117622790.30945       241.10945        39.400  

  22425304.41844 132484607.43754     -2634.90244        38.300  

  23971350.33644 140609132.17844      2193.51644        37.800  

 06 10 29 01 48 51.0000000  0  9G10G26G21G22G 6G30G 1G17G16                     
  23372638.16804 137462878.91804      3783.52704        37.900  

  20500783.25045 122371178.16745     -1645.32045        39.300  

  20681438.35905 123320528.05605      1747.95305        39.200  

  22353032.72144 132104818.87444     -3434.93444        38.400  

  22052813.82544 130527155.36944      -954.84444        38.400  

  22233985.36804 131479224.20504      2961.65204        38.800  

  19597149.17405 117622549.59805       240.46105        39.700  

  22425805.89904 132487242.70404     -2635.46504        38.600  

  23970933.03104 140606939.13204      2192.67604        37.800  

 06 10 29 01 48 52.0000000  0  9G10G26G21G22G 6G30G 1G17G16                     
  23371918.15304 137459095.31714      3783.41404        38.000  

  20501096.34245 122372823.54445     -1645.67245        39.200  

  20681105.79105 123318780.45915      1747.32805        39.200  

  22353686.37344 132108253.86944     -3435.15644        38.600  

  22052995.63004 130528110.75104      -955.78504        38.600  

  22233421.81904 131476262.79214      2961.49604        38.600  

  19597103.54405 117622309.64615       239.43005        39.700  

  22426307.48904 132489878.50714     -2636.10504        38.300  

  23970515.84044 140604746.70054      2191.64544        38.000  

 06 10 29 01 48 53.0000000  0  9G10G26G21G22G 6G30G 1G17G16                     
  23371198.18704 137455311.80914      3783.46904        38.100  

  20501409.49745 122374469.23545     -1645.84845        39.100  

  20680773.33405 123317033.36315      1746.85205        39.100  

  22354340.04544 132111689.14844     -3435.53944        38.600  

  22053177.56104 130529066.84214      -956.55904        38.500  

  22232858.30804 131473301.56514      2961.18004        38.600  

  19597057.98305 117622070.30015       239.19505        39.900  

  22426809.14904 132492514.70814     -2636.15204        38.400  

  23970098.72244 140602554.77244      2191.69144        37.800  

 06 10 29 01 48 54.0000000  0  9G10G26G21G22G 6G30G 1G17G16                     
  23370478.23604 137451528.50814      3783.17604        38.100  

  20501722.74945 122376115.31445     -1646.09045        39.300  

  20680440.94505 123315286.83915      1746.34405        39.000  

  22354993.78244 132115124.71244     -3435.93444        38.500  

  22053359.66604 130530023.69214      -957.49604        38.400  

  22232294.81804 131470340.56314      2960.98404        38.500  

  19597012.54905 117621831.66315       238.25005        39.400  

  22427310.90104 132495151.39914     -2636.62904        38.700  

  23969681.74444 140600363.43444      2190.89144        38.000  

 06 10 29 01 48 55.0000000  0  9G10G26G21G22G 6G30G 1G17G16                     
  23369758.29504 137447745.36114      3783.23804        38.000  

  20502036.08505 122377761.78305     -1646.57805        39.300  

  20680108.71305 123313540.89715      1745.38705        39.100  

  22355647.62644 132118560.65444     -3436.62144        38.100  

  22053541.90744 130530981.34854      -957.95344        38.500  

  22231731.40204 131467379.82014      2960.77304        38.400  

  19596967.28105 117621593.74615       237.64505        39.600  

  22427812.73504 132497788.61414     -2637.43804        38.200  

  23969264.89044 140598172.69144      2190.34044        38.100  

 06 10 29 01 48 56.0000000  0  9G10G26G21G22G 6G30G 1G17G16                     
  23369038.39804 137443962.33914      3782.92204        38.300  

  20502349.47305 122379408.57115     -1646.85905        39.200  

  20679776.56505 123311795.45115      1745.39105        38.900  

  22356301.51004 132121996.81404     -3436.27004        38.500  

  22053724.24644 130531939.69644      -958.71144        38.500  

  22231168.02604 131464419.27614      2960.46904        38.400  

  19596922.12005 117621356.47215       236.85505        39.600  

  22428314.64104 132500426.22314     -2637.84804        38.300  

  23968848.11444 140595982.50944      2189.86344        37.700  

 06 10 29 01 48 57.0000000  0  9G10G26G21G22G 6G30G 1G17G16                     
  23368318.50904 137440179.33914      3783.02304        38.100  

  20502662.90305 122381055.64115     -1647.52005        39.100  

  20679444.52305 123310050.46915      1744.76205        39.100  

  22356955.44504 132125433.20514     -3436.43804        38.400  

  22053906.73244 130532898.70644      -959.13344        38.500  

  22230604.67504 131461458.82614      2960.64104        38.700  

  19596877.07105 117621119.75615       236.42205        39.400  

  22428816.63204 132503064.20214     -2638.23804        38.300  

  23968431.40304 140593792.76504      2189.71504        38.000  

 06 10 29 01 48 58.0000000  0  9G10G26G21G22G 6G30G 1G17G16                     
  23367598.64104 137436396.49014      3782.96104        38.100  

  20502976.40005 122382703.01415     -1647.47705        39.200  

  20679112.54805 123308306.00615      1744.40205        39.200  

  22357609.40604 132128869.90014     -3436.84804        38.100  

  22054089.38444 130533858.47444      -960.06644        38.600  

  22230041.36704 131458498.60814      2960.33604        38.400  

  19596832.14005 117620883.71715       235.72305        39.600  

  22429318.68144 132505702.62054     -2638.43844        38.600  

  23968014.81404 140591603.59014      2189.00804        38.000  

 06 10 29 01 48 59.0000000  0  9G10G26G21G22G 6G30G 1G17G16                     
  23366878.83104 137432613.84714      3782.47304        38.200  

  20503289.97305 122384350.79915     -1648.00005        39.200  

  20678780.67605 123306562.14515      1743.75005        39.200  

  22358263.46904 132132306.92214     -3437.21504        38.400  

  22054272.16744 130534819.03944      -961.05944        38.700  

  22229478.09704 131455538.61914      2960.11304        38.600  

  19596787.37405 117620648.37915       235.11705        39.700  

  22429820.84644 132508341.54344     -2639.25444        38.700  

  23967598.36704 140589415.02114      2188.38704        37.700  

 06 10 29 01 49  0.0000000  0  9G10G26G21G22G 6G30G 1G17G16                     
  23366159.06604 137428831.44014      3782.25004        38.200  

  20503603.64505 122385999.08715     -1648.51605        39.200  

  20678448.96945 123304818.96255      1742.83245        39.000  

  22358917.57904 132135744.37614     -3437.29704        38.200  

  22054455.11244 130535780.46944      -961.89844        38.600  

  22228914.91544 131452579.01254      2959.52744        38.400  

  19596742.76245 117620413.87755       234.22745        39.700  

  22430323.12604 132510981.05204     -2639.71504        38.500  

  23967182.04304 140587227.11414      2187.97304        38.000  

 06 10 29 01 49  1.0000000  0  9G10G26G21G22G 6G30G 1G17G16                     
  23365439.34204 137425049.31114      3781.82404        37.900  

  20503917.39705 122387647.80515     -1648.75005        39.100  

  20678117.39545 123303076.43145      1742.02745        39.000  

  22359571.82104 132139182.23414     -3437.92604        38.600  

  22054638.22504 130536742.74804      -962.53104        38.600  

  22228351.75944 131449619.70044      2959.30944        38.400  

  19596698.27705 117620180.13905       233.33205        39.600  

  22430825.53004 132513621.13314     -2640.38704        38.300  

  23966765.83604 140585039.91914      2187.10204        38.000  

 06 10 29 01 49  2.0000000  0  9G10G26G21G22G 6G30G 1G17G16                     
  23364719.62904 137421267.31614      3782.02304        38.000  

  20504231.19705 122389296.89315     -1649.08605        39.000  

  20677785.89805 123301334.43105      1741.75805        39.100  

  22360226.11704 132142620.41714     -3438.19504        38.400  

  22054821.47604 130537705.80014      -963.41404        38.700  

  22227788.67844 131446660.62244      2959.07444        38.500  

  19596653.94205 117619947.08315       232.73805        39.600  

  22431327.97244 132516261.66654     -2640.97744        38.300  

  23966349.69904 140582853.28514      2186.28104        37.800  

 06 10 29 01 49  3.0000000  0  9G10G26G21G22G 6G30G 1G17G16                     
  23363999.94404 137417485.35814      3782.19904        38.000  

  20504545.04505 122390946.23515     -1649.57005        39.000  

  20677454.51245 123299592.88155      1741.18445        38.900  

  22360880.41904 132146058.76514     -3438.14804        38.300  

  22055004.87204 130538669.47414      -963.96904        38.300  

  22227225.59044 131443701.64544      2958.92644        38.300  

  19596609.68005 117619714.58115       232.15605        39.500  

  22431830.51444 132518902.53144     -2641.14544        38.300  

  23965933.64904 140580667.08914      2185.90604        37.600  

 06 10 29 01 49  4.0000000  0  9G10G26G21G22G 6G30G 1G17G16                     
  23363280.32104 137413703.57514      3781.73804        37.800  

  20504858.97105 122392595.93915     -1649.87105        39.300  

  20677123.22345 123297851.90845      1740.50445        39.100  

  22361534.78204 132149497.47014     -3438.97304        38.500  

  22055188.40704 130539633.94214      -964.93404        38.300  

  22226662.55344 131440742.92444      2958.57444        38.400  

  19596565.55705 117619482.79515       231.36305        39.500  

  22432333.14344 132521543.88244     -2641.63744        38.500  

  23965517.73904 140578481.49314      2185.48004        38.100  

 06 10 29 01 49  5.0000000  0  9G10G26G21G22G 6G30G 1G17G16                     
  23362560.70704 137409921.91714      3781.99204        38.000  

  20505172.96645 122394245.99655     -1650.07845        39.200  

  20676792.03045 123296111.44245      1740.21945        39.100  

  22362189.19004 132152936.44814     -3439.34804        38.400  

  22055372.08604 130540599.13614      -965.34004        38.500  

  22226099.57404 131437784.40204      2958.33604        38.500  

  19596521.59805 117619251.64815       230.78505        39.500  

  22432835.86844 132524185.69444     -2642.05944        38.400  

  23965101.92704 140576296.44514      2184.87104        37.900  

 06 10 29 01 49  6.0000000  0  9G10G26G21G22G 6G30G 1G17G16                     
  23361841.07604 137406140.29314      3781.67204        38.000  

  20505487.01305 122395896.27505     -1650.31305        39.200  

  20676460.91245 123294371.41045      1739.87945        39.100  

  22362843.62904 132156375.57414     -3439.17204        38.400  

  22055555.85504 130541564.94414      -966.02704        38.800  

  22225536.61704 131434825.97114      2958.21104        38.600  

  19596477.71005 117619021.07115       230.19105        39.300  

  22433338.64444 132526827.83444     -2642.42644        38.500  

  23964686.19604 140574111.84314      2184.34404        37.900  

 06 10 29 01 49  7.0000000  0  9G10G26G21G22G 6G30G 1G17G16                     
  23361121.48604 137402358.84314      3781.40604        38.300  

  20505801.13005 122397546.98215     -1650.63705        39.300  

  20676129.91405 123292632.00105      1739.17205        38.900  

  22363498.14504 132159815.08114     -3439.64104        38.300  

  22055739.82504 130542531.58414      -967.09004        38.400  

  22224973.72604 131431867.79214      2958.14104        38.400  

  19596433.97705 117618791.20015       229.65605        39.600  

  22433841.52004 132529470.47904     -2643.24604        38.400  

  23964270.60504 140571927.85914      2183.64104        37.900  

 06 10 29 01 49  8.0000000  0  9G10G26G21G22G 6G30G 1G17G16                     
  23360401.93744 137398577.63554      3781.03144        38.100  

  20506115.35145 122399198.07855     -1651.35245        39.000  

  20675799.01245 123290893.17155      1738.51645        39.100  

  22364152.69144 132163254.93554     -3439.87944        38.300  

  22055923.93644 130543499.02254      -967.89844        38.600  

  22224410.85544 131428909.91054      2957.82844        38.500  

  19596390.37545 117618562.08255       228.84445        39.700  

  22434344.48644 132532113.62454     -2643.37944        38.300  

  23963855.13244 140569744.48554      2182.98444        37.800  

 06 10 29 01 49  9.0000000  0  9G10G26G21G22G 6G30G 1G17G16                     
  23359682.38704 137394796.40504      3781.32404        38.000  

  20506429.58105 122400849.40505     -1651.46105        39.200  

  20675468.22305 123289154.75505      1738.38305        39.000  

  22364807.32904 132166694.97404     -3439.96904        38.500  

  22056108.14904 130544467.08004      -968.41004        38.300  

  22223847.97704 131425952.10104      2958.02704        38.600  

  19596346.88045 117618333.50945       228.21145        39.600  

  22434847.52704 132534757.10504     -2643.53504        38.200  

  23963439.76804 140567561.56704      2182.70704        37.400  

 06 10 29 01 49 10.0000000  0  9G10G26G21G22G 6G30G 1G17G16                     
  23358962.84704 137391015.27314      3780.99204        38.000  

  20506743.85405 122402501.01115     -1651.75405        39.200  

  20675137.50105 123287416.82215      1737.45705        39.200  

  22365461.99204 132170135.22914     -3440.29704        38.400  

  22056292.49604 130545435.80114      -968.98804        38.500  

  22223285.17904 131422994.44714      2957.68004        38.300  

  19596303.50245 117618105.52645       227.53545        39.500  

  22435350.67104 132537400.97014     -2644.03904        38.400  

  23963024.48804 140565379.11214      2182.10504        37.800  

 06 10 29 01 49 11.0000000  0  9G10G26G21G22G 6G30G 1G17G16                     
  23358243.34744 137387234.24154      3780.91444        38.100  

  20507058.19405 122404152.95615     -1652.43005        39.400  

  20674806.87205 123285679.41015      1737.21505        38.900  

  22366116.70304 132173575.78114     -3440.88704        38.400  

  22056476.99704 130546405.27214      -970.00404        38.400  

  22222722.39504 131420036.98514      2957.43804        38.500  

  19596260.25545 117617878.18145       226.98845        39.500  

  22435853.88804 132540045.26514     -2644.47704        38.500  

  23962609.30204 140563197.22714      2181.47704        37.900  

 06 10 29 01 49 12.0000000  0  9G10G26G21G22G 6G30G 1G17G16                     
  23357523.88444 137383453.42944      3780.76244        38.000  

  20507372.61805 122405805.31115     -1652.75405        39.100  

  20674476.36605 123283942.59315      1736.50005        39.300  

  22366771.45604 132177016.66714     -3441.09804        38.600  

  22056661.64604 130547375.53514      -970.50004        38.500  

  22222159.67304 131417079.80814      2957.10904        38.300  

  19596217.13545 117617651.58945       226.33245        39.600  

  22436357.17204 132542690.08814     -2645.22704        38.500  

  23962194.21004 140561015.91414      2181.26604        37.900  

 06 10 29 01 49 13.0000000  0  9G10G26G21G22G 6G30G 1G17G16                     
  23356804.45644 137379672.85544      3780.46944        38.000  

  20507687.12745 122407458.10355     -1652.94545        39.200  

  20674146.01705 123282206.45915      1735.69505        39.100  

  22367426.32044 132180457.96454     -3441.39844        38.200  

  22056846.46204 130548346.66214      -971.58604        38.700  

  22221597.00804 131414122.93914      2956.64104        38.400  

  19596174.16145 117617425.79045       225.27045        39.700  

  22436860.54104 132545335.45114     -2645.62104        38.500  

  23961779.24804 140558835.31614      2180.33604        37.800  

 06 10 29 01 49 14.0000000  0  9G10G26G21G22G 6G30G 1G17G16                     
  23356085.06444 137375892.50644      3780.25044        38.100  

  20508001.72345 122409111.32145     -1653.27345        38.900  

  20673815.72005 123280470.90315      1735.25405        39.100  

  22368081.26804 132183899.62204     -3441.97704        38.500  

  22057031.41504 130549318.57814      -972.12504        38.600  

  22221034.36604 131411166.33214      2956.69504        38.600  

  19596131.33705 117617200.69405       224.71505        39.600  

  22437364.03304 132547981.33914     -2646.04704        38.200  

  23961364.40904 140556655.34914      2179.66804        37.900  

 06 10 29 01 49 15.0000000  0  9G10G26G21G22G 6G30G 1G17G16                     
  23355365.69704 137372112.26004      3780.39104        38.300  

  20508316.37445 122410764.87445     -1653.56645        39.200  

  20673485.55005 123278735.87415      1734.74605        39.400  

  22368736.25904 132187341.55214     -3442.00804        38.500  

  22057216.51704 130550291.24914      -972.93004        38.600  

  22220471.79104 131408209.95014      2956.53104        38.500  

  19596088.62905 117616976.26615       224.16005        39.600  

  22437867.58704 132550627.65714     -2646.74204        38.200  

  23960949.69644 140554475.90254      2179.14144        37.800  

 06 10 29 01 49 16.0000000  0  9G10G26G21G22G 6G30G 1G17G16                     
  23354646.34944 137368332.17754      3780.14144        38.000  

  20508631.12545 122412418.76445     -1654.00445        39.300  

  20673155.50905 123277001.36615      1734.29705        39.100  

  22369391.30604 132190783.77314     -3442.30504        38.500  

  22057401.74104 130551264.64514      -973.85904        38.400  

  22219909.22404 131405253.77214      2956.07004        38.500  

  19596046.05905 117616752.49315       223.39505        39.800  

  22438371.24304 132553274.40114     -2646.88704        38.400  

  23960535.05844 140552297.01444      2178.63744        37.800  

 06 10 29 01 49 17.0000000  0  9G10G26G21G22G 6G30G 1G17G16                     
  23353927.05044 137364552.20444      3779.92244        38.100  

  20508945.91445 122414073.03045     -1654.56645        39.000  

  20672825.58805 123275267.41215      1733.69105        38.900  

  22370046.39204 132194226.28314     -3442.74604        38.300  

  22057587.07944 130552238.78054      -974.57044        38.500  

  22219346.70744 131402297.78454      2955.83644        38.600  

  19596003.60545 117616529.38655       222.59445        39.600  

  22438874.97104 132555921.61714     -2647.36704        38.300  

  23960120.53144 140550118.69344      2178.27344        37.700  

 06 10 29 01 49 18.0000000  0  9G10G26G21G22G 6G30G 1G17G16                     
  23353207.77404 137360772.34604      3779.82404        38.100  

  20509260.77345 122415727.56945     -1654.72345        39.300  

  20672495.72105 123273533.98015      1732.86305        39.200  

  22370701.51104 132197669.05114     -3442.79304        38.300  

  22057772.58304 130553213.62904      -975.03904        38.700  

  22218784.24104 131399341.99704      2955.56604        38.500  

  19595961.29605 117616306.91405       222.17605        39.600  

  22439378.80304 132558569.26314     -2648.00804        38.100  

  23959706.09944 140547940.88944      2177.66844        38.100  

 06 10 29 01 49 19.0000000  0  9G10G26G21G22G 6G30G 1G17G16                     
  23352488.51704 137356992.65114      3779.46504        38.100  

  20509575.69305 122417382.47405     -1655.16005        39.200  

  20672165.95705 123271801.08915      1732.55905        39.200  

  22371356.68104 132201112.12514     -3443.06304        38.300  

  22057958.22744 130554189.23954      -976.16444        38.700  

  22218221.81504 131396386.41014      2955.59804        38.500  

  19595919.09305 117616085.12515       221.36305        39.600  

  22439882.70544 132561217.35254     -2648.37544        38.300  

  23959291.83544 140545763.66844      2176.89844        38.000  

 06 10 29 01 49 20.0000000  0  9G10G26G21G22G 6G30G 1G17G16                     
  23351769.26144 137353213.05654      3779.31644        38.000  

  20509890.67245 122419037.70355     -1655.28945        39.200  

  20671836.31945 123270068.71055      1732.16845        39.100  

  22372011.93444 132204555.48454     -3443.48444        38.300  

  22058144.00544 130555165.55744      -976.74244        38.500  

  22217659.40344 131393431.04054      2955.15644        38.600  

  19595877.00045 117615863.98355       220.77745        39.600  

  22440386.68744 132563865.83744     -2648.62944        38.500  

  23958877.58744 140543586.96244      2176.35544        37.700  

 06 10 29 01 49 21.0000000  0  9G10G26G21G22G 6G30G 1G17G16                     
  23351050.03604 137349433.55104      3779.56304        37.900  

  20510205.69605 122420693.25205     -1655.61305        39.100  

  20671506.74905 123268336.83005      1731.56305        39.300  

  22372667.20304 132207999.06604     -3443.60904        38.100  

  22058329.90844 130556142.57144      -977.40644        38.600  

  22217097.03804 131390475.80604      2955.05904        38.500  

  19595835.04105 117615643.44805       220.34005        39.500  

  22440890.74704 132566514.75504     -2649.24204        38.500  

  23958463.45204 140541410.79704      2175.57404        37.900  

 06 10 29 01 49 22.0000000  0  9G10G26G21G22G 6G30G 1G17G16                     
  23350330.88644 137345654.31054      3779.08644        38.000  

  20510520.80805 122422349.24215     -1656.03505        39.300  

  20671177.30505 123266605.59015      1730.85905        39.200  

  22373322.58004 132211443.05114     -3443.97304        38.300  

  22058515.99244 130557120.44744      -978.36344        38.600  

  22216534.74404 131387520.89314      2954.80504        38.600  

  19595793.22105 117615423.69015       219.50405        39.600  

  22441394.92904 132569164.20614     -2649.73404        38.300  

  23958049.48104 140539235.25714      2175.14804        37.900  

 06 10 29 01 49 23.0000000  0  9G10G26G21G22G 6G30G 1G17G16                     
  23349611.77804 137341875.31604      3778.88304        38.000  

  20510836.02605 122424005.68615     -1656.81605        39.400  

  20670847.98505 123264874.98715      1730.20305        39.100  

  22373978.00504 132214887.44814     -3444.51204        38.300  

  22058702.20844 130558099.14244      -978.96144        38.600  

  22215972.53044 131384566.31154      2954.36744        38.600  

  19595751.55505 117615204.70915       218.70305        39.600  

  22441899.17804 132571814.21414     -2650.17204        38.400  

  23957635.63504 140537060.39914      2174.55904        37.900  

 06 10 29 01 49 24.0000000  0  9G10G26G21G22G 6G30G 1G17G16                     
  23348892.69104 137338096.46014      3778.78504        38.200  

  20511151.29905 122425662.47415     -1656.90205        39.100  

  20670518.77705 123263144.96015      1729.60905        39.000  

  22374633.51804 132218332.13714     -3444.69104        38.300  

  22058888.60844 130559078.62544      -979.66844        38.500  

  22215410.33144 131381611.93544      2954.24244        38.500  

  19595710.01605 117614986.40815       217.85205        39.600  

  22442403.55504 132574464.71314     -2650.99604        38.300  

  23957221.86004 140534886.11914      2174.06304        38.100  

 06 10 29 01 49 25.0000000  0  9G10G26G21G22G 6G30G 1G17G16                     
  23348173.63204 137334317.75014      3778.40204        38.100  

  20511466.66645 122427319.64455     -1657.51645        39.000  

  20670189.65105 123261415.48915      1729.15605        39.100  

  22375289.03704 132221777.15514     -3445.27004        38.300  

  22059075.13044 130560058.85344      -980.66844        38.500  

  22214848.17604 131378657.79304      2954.02704        38.200  

  19595668.62005 117614768.79715       217.16805        39.700  

  22442908.00104 132577115.63214     -2651.24204        38.300  

  23956808.22504 140532712.40114      2173.35204        37.800  

 06 10 29 01 49 26.0000000  0  9G10G26G21G22G 6G30G 1G17G16                     
  23347454.58944 137330539.18754      3778.47344        38.000  

  20511782.06505 122428977.11505     -1657.48805        39.100  

  20669860.65845 123259686.50655      1728.57045        38.900  

  22375944.64944 132225222.40354     -3445.27044        38.600  

  22059261.79804 130561039.80704      -981.26604        38.500  

  22214286.07744 131375703.85054      2953.71944        38.500  

  19595627.31405 117614551.81015       216.71905        39.500  

  22443412.54444 132579767.00254     -2651.70344        38.600  

  23956394.73344 140530539.23654      2172.98044        38.000  

 06 10 29 01 49 27.0000000  0  9G10G26G21G22G 6G30G 1G17G16                     
  23346735.57604 137326760.64504      3778.58204        38.200  

  20512097.52945 122430634.85455     -1657.88345        39.200  

  20669531.74205 123257957.98505      1728.23405        39.000  

  22376600.29404 132228667.86104     -3445.39104        38.400  

  22059448.60604 130562021.39914      -982.09004        38.500  

  22213723.96144 131372749.98744      2954.05944        38.500  

  19595586.14405 117614335.40515       216.14805        39.700  

  22443917.14104 132582418.68304     -2651.98404        38.600  

  23955981.25304 140528366.50504      2172.64504        38.000  

 06 10 29 01 49 28.0000000  0  9G10G26G21G22G 6G30G 1G17G16                     
  23346016.52804 137322982.09314      3778.46104        38.100  

  20512413.00705 122432292.78905     -1658.07405        39.300  

  20669202.87505 123256229.86915      1727.81605        39.100  

  22377255.94404 132232113.46814     -3445.51204        38.400  

  22059635.51704 130563003.58814      -982.50404        38.600  

  22213161.86044 131369796.21744      2953.85544        38.400  

  19595545.07405 117614119.52215       215.59805        39.700  

  22444421.78744 132585070.70254     -2652.16444        38.400  

  23955567.89104 140526194.22314      2171.78104        38.000  

 06 10 29 01 49 29.0000000  0  9G10G26G21G22G 6G30G 1G17G16                     
  23345297.53004 137319203.61714      3778.34804        38.200  

  20512728.54505 122433950.97215     -1658.21505        39.300  

  20668874.09905 123254502.19015      1727.10505        39.000  

  22377911.67804 132235559.29314     -3446.12104        38.500  

  22059822.58704 130563986.42014      -983.13304        38.500  

  22212599.80644 131366842.57044      2953.60544        38.400  

  19595504.09805 117613904.21315       214.98405        39.600  

  22444926.49304 132587723.06704     -2652.51604        38.200  

  23955154.61204 140524022.38514      2171.40604        38.200  

 06 10 29 01 49 30.0000000  0  9G10G26G21G22G 6G30G 1G17G16                     
  23344578.54404 137315425.26014      3778.32804        37.900  

  20513044.14605 122435609.49615     -1658.59005        39.300  

  20668545.43745 123252775.02755      1726.99645        39.400  

  22378567.43904 132239005.36814     -3446.14104        38.300  

  22060009.74104 130564970.00914      -983.84804        38.700  

  22212037.77344 131363889.13044      2953.27344        38.600  

  19595463.26905 117613689.56215       214.25405        39.700  

  22445431.30404 132590375.87214     -2653.16404        38.400  

  23954741.45504 140521851.10514      2170.90204        37.700  

 06 10 29 01 49 31.0000000  0  9G10G26G21G22G 6G30G 1G17G16                     
  23343859.56444 137311647.04254      3777.97744        38.100  

  20513359.81945 122437268.37455     -1659.00045        39.200  

  20668216.86305 123251048.41505      1726.44905        39.400  

  22379223.23844 132242451.76754     -3446.77344        38.500  

  22060197.05204 130565954.32014      -984.73004        38.600  

  22211475.80144 131360935.87944      2953.02344        38.500  

  19595422.54805 117613475.57115       213.54705        39.800  

  22445936.19704 132593029.10514     -2653.38304        38.600  

  23954328.33004 140519680.37414      2170.35504        38.100  

 06 10 29 01 49 32.0000000  0  9G10G26G21G22G 6G30G 1G17G16                     
  23343140.64544 137307869.19644      3777.77044        37.800  

  20513675.59545 122438927.83045     -1659.60945        39.200  

  20667888.46445 123249322.59255      1725.43845        39.100  

  22379879.16244 132245898.66144     -3447.03544        38.500  

  22060384.53044 130566939.63254      -985.98844        38.600  

  22210913.90944 131357983.08244      2952.65244        38.500  

  19595381.99645 117613262.47255       212.80145        39.700  

  22446441.22544 132595683.02154     -2654.02744        38.400  

  23953915.40044 140517510.45654      2169.27344        38.100  

 06 10 29 01 49 33.0000000  0  9G10G26G21G22G 6G30G 1G17G16                     
  23342421.79704 137304091.64904      3777.53104        38.100  

  20513991.45705 122440587.77105     -1660.03905        39.200  

  20667560.19005 123247597.46105      1724.96105        38.900  

  22380535.16704 132249346.03304     -3447.87904        38.400  

  22060572.19504 130567925.82104      -986.83604        38.400  

  22210352.08504 131355030.66604      2952.09004        38.400  

  19595341.62745 117613050.22545       211.72745        39.600  

  22446946.38144 132598337.58344     -2655.11344        38.300  

  23953502.59504 140515341.24304      2168.68404        37.900  

 06 10 29 01 49 34.0000000  0  9G10G26G21G22G 6G30G 1G17G16                     
  23341703.03504 137300314.37814      3777.65204        38.100  

  20514307.44405 122442248.21215     -1660.60205        39.100  

  20667232.02405 123245873.01615      1724.02305        39.200  

  22381191.27104 132252793.81314     -3448.15204        38.300  

  22060759.98344 130568912.86654      -987.23044        38.400  

  22209790.32304 131352078.58214      2951.91404        38.700  

  19595301.38845 117612838.76445       211.28145        39.700  

  22447451.63344 132600992.67344     -2655.18844        38.200  

  23953089.94104 140513172.72814      2168.23004        38.100  

 06 10 29 01 49 35.0000000  0  9G10G26G21G22G 6G30G 1G17G16                     
  23340984.28844 137296537.31854      3776.98444        38.000  

  20514623.48905 122443909.05915     -1661.18405        39.300  

  20666903.99805 123244149.14115      1723.78505        38.900  

  22381847.42304 132256241.91414     -3448.11704        38.300  

  22060947.93404 130569900.74104      -988.19904        38.400  

  22209228.61404 131349126.75414      2951.74204        38.500  

  19595261.30645 117612628.02645       210.52045        39.400  

  22447956.97944 132603648.27244     -2655.52744        38.400  

  23952677.40144 140511004.81654      2167.72344        37.800  

 06 10 29 01 49 36.0000000  0  9G10G26G21G22G 6G30G 1G17G16                     
  23340265.58244 137292760.40944      3776.65644        38.000  

  20514939.61105 122445570.25615     -1661.57405        39.000  

  20666576.05105 123242425.84415      1722.93405        39.100  

  22382503.65104 132259690.35614     -3448.59804        38.200  

  22061136.05304 130570889.35214      -988.89804        38.600  

  22208666.93604 131346175.15314      2951.55904        38.500  

  19595221.33545 117612417.97345       209.79345        39.700  

  22448462.40904 132606304.33904     -2656.11704        38.300  

  23952264.96704 140508837.49004      2167.01204        37.800  

 06 10 29 01 49 37.0000000  0  9G10G26G21G22G 6G30G 1G17G16                     
  23339546.88344 137288983.53844      3777.01244        38.300  

  20515255.77505 122447231.71115     -1661.54705        39.200  

  20666248.22105 123240702.99515      1722.45305        39.100  

  22383159.94504 132263139.00214     -3448.87904        38.600  

  22061324.32404 130571878.63614      -989.48004        38.700  

  22208105.30304 131343223.69814      2951.31604        38.700  

  19595181.47145 117612208.48445       209.34445        39.400  

  22448967.91704 132608960.78114     -2656.62504        38.300  

  23951852.62504 140506670.63714      2166.62904        37.900  

 06 10 29 01 49 38.0000000  0  9G10G26G21G22G 6G30G 1G17G16                     
  23338828.15944 137285206.62844      3777.14544        38.000  

  20515571.97445 122448893.33255     -1661.73045        39.200  

  20665920.44645 123238980.49755      1722.42645        39.300  

  22383816.23544 132266587.75354     -3448.89844        38.400  

  22061512.68344 130572868.49754      -990.35244        38.400  

  22207543.69544 131340272.27054      2951.37144        38.500  

  19595141.71145 117611999.50545       208.53545        39.500  

  22449473.45844 132611617.48754     -2656.82844        38.400  

  23951440.36244 140504504.16254      2166.18444        38.000  

 06 10 29 01 49 39.0000000  0  9G10G26G21G22G 6G30G 1G17G16                     
  23338109.44644 137281429.78444      3776.82044        38.200  

  20515888.20645 122450555.22045     -1662.27745        39.400  

  20665592.75005 123237258.46805      1721.64105        39.000  

  22384472.54204 132270036.69504     -3449.18404        38.500  

  22061701.17844 130573858.98244      -991.05944        38.700  

  22206982.09504 131337320.95904      2951.16404        38.400  

  19595102.03405 117611791.08505       207.99205        39.400  

  22449979.07304 132614274.52404     -2657.31604        38.300  

  23951028.18404 140502338.15704      2165.56304        37.900  

 06 10 29 01 49 40.0000000  0  9G10G26G21G22G 6G30G 1G17G16                     
  23337390.77804 137277653.13004      3776.72304        38.000  

  20516204.51405 122452217.49205     -1662.50805        38.900  

  20665265.16505 123235537.02715      1721.01605        39.100  

  22385128.88904 132273485.98914     -3449.36704        38.200  

  22061889.81604 130574850.25804      -991.57004        38.700  

  22206420.51304 131334369.89914      2950.92604        38.400  

  19595062.52245 117611583.40855       206.98045        39.600  

  22450484.76904 132616932.09714     -2657.80104        38.500  

  23950616.14044 140500172.77854      2164.90244        37.700  

 06 10 29 01 49 41.0000000  0  9G10G26G21G22G 6G30G 1G17G16                     
  23336672.14804 137273876.74814      3776.25404        37.800  

  20516520.93405 122453880.22115     -1662.87905        39.200  

  20664937.72205 123233816.22115      1720.37105        39.300  

  22385785.34904 132276935.69914     -3450.09804        38.300  

  22062078.61904 130575842.40114      -992.61304        38.200  

  22205859.01844 131331419.16154      2950.86344        38.500  

  19595023.17005 117611376.45905       206.74605        39.600  

  22450990.59104 132619590.19014     -2658.57004        38.300  

  23950204.23244 140498008.03944      2164.35244        38.100  

 06 10 29 01 49 42.0000000  0  9G10G26G21G22G 6G30G 1G17G16                     
  23335953.53404 137270100.48614      3776.20304        38.300  

  20516837.41005 122455543.27715     -1663.11305        38.900  

  20664610.36845 123232095.94755      1720.17245        39.200  

  22386441.83804 132280385.64514     -3449.94104        38.400  

  22062267.58004 130576835.26914      -993.30504        38.300  

  22205297.53504 131328468.65804      2950.43004        38.500  

  19594983.94445 117611170.20755       205.89845        39.500  

  22451496.48204 132622248.71614     -2658.69904        38.500  

  23949792.39344 140495843.86444      2163.95744        37.900  

 06 10 29 01 49 43.0000000  0  9G10G26G21G22G 6G30G 1G17G16                     
  23335234.95704 137266324.32314      3776.26204        38.200  

  20517153.94705 122457206.68015     -1663.64805        39.100  

  20664283.10045 123230376.20245      1719.65245        38.900  

  22387098.39104 132283835.88414     -3450.59804        38.500  

  22062456.67304 130577828.84214      -993.78904        38.500  

  22204736.10404 131325518.30314      2950.23004        38.300  

  19594944.81505 117610964.57705       205.36705        39.600  

  22452002.45704 132624907.65314     -2659.21504        38.500  

  23949380.66144 140493680.21844      2163.30944        37.800  

 06 10 29 01 49 44.0000000  0  9G10G26G21G22G 6G30G 1G17G16                     
  23334516.41044 137262548.18654      3776.05544        38.100  

  20517470.51545 122458870.28955     -1663.79345        39.200  

  20663955.90545 123228656.88645      1719.16845        39.100  

  22387754.95544 132287286.27954     -3450.22344        38.400  

  22062645.86944 130578823.05554      -994.48444        38.500  

  22204174.70244 131322568.06954      2950.14144        38.700  

  19594905.80445 117610759.50455       204.87945        39.400  

  22452508.50344 132627566.93254     -2659.23844        38.200  

  23948969.04944 140491517.03444      2162.92244        38.000  

 06 10 29 01 49 45.0000000  0  9G10G26G21G22G 6G30G 1G17G16                     
  23333797.85604 137258772.17804      3775.68404        38.200  

  20517787.14905 122460534.17905     -1664.19105        39.100  

  20663628.84845 123226938.06745      1718.70345        39.100  

  22388411.60244 132290736.93944     -3450.93844        38.600  

  22062835.17604 130579817.94704      -995.23404        38.600  

  22203613.32644 131319617.97844      2949.96544        38.500  

  19594866.90305 117610555.05105       203.99605        39.600  

  22453014.61604 132630226.60804     -2659.76204        38.300  

  23948557.49204 140489354.34504      2162.41404        37.700  

 06 10 29 01 49 46.0000000  0  9G10G26G21G22G 6G30G 1G17G16                     
  23333079.33704 137254996.30314      3776.01604        38.100  

  20518103.85005 122462198.49315     -1664.43005        39.000  

  20663301.86345 123225219.80345      1718.05945        39.400  

  22389068.30044 132294187.92844     -3451.07044        38.500  

  22063024.65504 130580813.63114      -995.87504        38.400  

  22203051.99304 131316668.13204      2950.02704        38.500  

  19594828.11105 117610351.29615       203.45305        39.800  

  22453520.83444 132632886.76554     -2660.27044        38.200  

  23948146.06604 140487192.26414      2161.84404        38.000  

 06 10 29 01 49 47.0000000  0  9G10G26G21G22G 6G30G 1G17G16                     
  23332360.85304 137251220.66414      3775.69504        38.100  

  20518420.63605 122463863.19915     -1664.96905        39.000  

  20662974.97805 123223502.18305      1717.21905        39.100  

  22389725.03244 132297639.25144     -3451.51644        38.500  

  22063214.30704 130581810.12414      -996.86304        38.700  

  22202490.69944 131313718.59454      2949.46944        38.300  

  19594789.48905 117610148.28215       202.59805        39.600  

  22454027.12904 132635547.44304     -2661.12504        38.400  

  23947734.76944 140485030.80554      2161.23844        37.700  

 06 10 29 01 49 48.0000000  0  9G10G26G21G22G 6G30G 1G17G16                     
  23331642.42504 137247445.30914      3775.23804        38.200  

  20518737.50905 122465528.39015     -1665.40205        39.100  

  20662648.26505 123221785.19415      1716.81305        39.000  

  22390381.87244 132301091.00544     -3451.70744        38.500  

  22063404.11904 130582807.49514      -997.64804        38.500  

  22201929.49444 131310769.37244      2949.50844        38.600  

  19594750.99305 117609946.05415       202.13705        39.700  

  22454533.52904 132638208.68014     -2661.27704        38.300  

  23947323.59904 140482870.03604      2160.49204        37.900  

 06 10 29 01 49 49.0000000  0  9G10G26G21G22G 6G30G 1G17G16                     
  23330924.02704 137243670.13514      3775.03104        38.100  

  20519054.45105 122467193.97315     -1665.85905        39.000  

  20662321.65505 123220068.82715      1716.10505        39.200  

  22391038.76604 132304543.09704     -3452.31304        38.300  

  22063594.03804 130583805.65514      -998.48004        38.300  

  22201368.34004 131307820.44404      2948.62904        38.500  

  19594712.64605 117609744.54815       201.26605        39.600  

  22455040.04204 132640870.40414     -2661.69104        38.500  

  23946912.57304 140480709.88814      2159.83204        37.800  

 06 10 29 01 49 50.0000000  0  9G10G26G21G22G 6G30G 1G17G16                     
  23330205.63804 137239895.10414      3775.04704        38.100  

  20519371.46245 122468859.92455     -1666.25445        39.000  

  20661995.17605 123218353.01115      1715.47705        39.200  

  22391695.74804 132307995.49614     -3452.52704        38.400  

  22063784.10104 130584804.55114      -999.25004        38.700  

  22200807.21544 131304871.70854      2948.69144        38.100  

  19594674.43605 117609543.73215       200.34805        39.500  

  22455546.63804 132643532.62914     -2662.42204        38.400  

  23946501.60904 140478550.30714      2159.41004        37.900  

 06 10 29 01 49 51.0000000  0  9G10G26G21G22G 6G30G 1G17G16                     
  23329487.32404 137236120.29314      3774.84004        38.000  

  20519688.55145 122470526.24945     -1666.21545        39.200  

  20661668.78105 123216637.78915      1714.95305        39.200  

  22392352.81104 132311448.23214     -3452.50804        38.200  

  22063974.35104 130585804.26414      -999.98804        38.500  

  22200246.15644 131301923.26144      2948.55944        38.600  

  19594636.36505 117609343.64115       199.69505        39.500  

  22456053.35004 132646195.30914     -2662.78904        38.400  

  23946090.76504 140476391.35514      2158.62904        37.800  

 06 10 29 01 49 52.0000000  0  9G10G26G21G22G 6G30G 1G17G16                     
  23328769.00704 137232345.56514      3774.59804        38.000  

  20520005.71545 122472192.88545     -1666.65245        39.300  

  20661342.49105 123214923.04915      1714.44105        39.000  

  22393009.88204 132314901.23214     -3453.14504        38.500  

  22064164.71604 130586804.65714     -1000.63304        38.500  

  22199685.10344 131298974.95144      2948.04744        38.500  

  19594598.39805 117609144.12215       199.17605        39.600  

  22456560.11804 132648858.38814     -2663.35504        38.500  

  23945680.02904 140474232.88014      2158.21104        37.900  

 06 10 29 01 49 53.0000000  0  9G10G26G21G22G 6G30G 1G17G16                     
  23328050.68404 137228570.96914      3774.53104        38.000  

  20520322.92145 122473859.85245     -1667.16845        39.100  

  20661016.27405 123213208.82815      1713.93005        39.300  

  22393667.00104 132318354.47514     -3453.33604        38.400  

  22064355.20804 130587805.77014     -1001.51604        38.300  

  22199124.10444 131296026.84044      2947.93844        38.600  

  19594560.58505 117608945.27415       198.79705        39.600  

  22457066.97504 132651521.89314     -2663.59804        38.400  

  23945269.43804 140472074.98114      2157.50004        38.000  

 06 10 29 01 49 54.0000000  0  9G10G26G21G22G 6G30G 1G17G16                     
  23327332.43004 137224796.48614      3774.36704        38.100  

  20520640.19945 122475527.12545     -1667.35945        39.000  

  20660690.15705 123211495.16615      1713.30905        39.300  

  22394324.14004 132321807.98514     -3453.52304        38.300  

  22064545.87545 130588807.61855     -1002.33645        38.900  

  22198563.12544 131293078.92244      2947.75844        38.400  

  19594522.84205 117608747.07515       197.79705        39.600  

  22457573.90304 132654185.83214     -2664.21904        38.400  

  23944858.91604 140469917.59614      2156.97304        37.800  

 06 10 29 01 49 55.0000000  0  9G10G26G21G22G 6G30G 1G17G16                     
  23326614.20804 137221022.10214      3774.04704        38.100  

  20520957.53205 122477194.71705     -1668.00405        39.400  

  20660364.12405 123209781.95715      1713.00405        39.200  

  22394981.36104 132325261.75014     -3453.86304        38.500  

  22064736.64844 130589810.15744     -1003.14544        38.600  

  22198002.18804 131290131.17604      2947.67204        38.400  

  19594485.23705 117608549.51115       197.07805        39.700  

  22458080.88304 132656850.16814     -2664.82804        38.500  

  23944448.48804 140467760.76014      2156.36304        37.800  

 06 10 29 01 49 56.0000000  0  9G10G26G21G22G 6G30G 1G17G16                     
  23325895.97604 137217247.77614      3774.54704        38.100  

  20521274.91005 122478862.57915     -1668.12905        39.100  

  20660038.21645 123208069.25655      1712.39145        38.900  

  22395638.64744 132328715.73254     -3453.99644        38.500  

  22064927.55144 130590813.34244     -1003.30544        38.600  

  22197441.27344 131287183.59554      2947.17244        38.500  

  19594447.73445 117608352.52955       196.59845        39.400  

  22458587.94944 132659514.85554     -2664.91044        38.400  

  23944038.12704 140465604.37414      2156.36304        37.700  

 06 10 29 01 49 57.0000000  0  9G10G26G21G22G 6G30G 1G17G16                     
  23325177.76444 137213473.61754      3774.27744        38.200  

  20521592.36005 122480530.77015     -1668.63305        39.100  

  20659712.39005 123206357.05105      1711.77705        39.200  

  22396295.97704 132332170.00404     -3454.63704        38.400  

  22065118.60144 130591817.26744     -1004.19144        38.600  

  22196880.39504 131284236.16204      2947.40604        38.400  

  19594410.37505 117608156.19705       195.86705        39.600  

  22459095.09704 132662179.98104     -2665.30904        38.400  

  23943627.90004 140463448.55914      2155.53904        37.900  

 06 10 29 01 49 58.0000000  0  9G10G26G21G22G 6G30G 1G17G16                     
  23324459.61304 137209699.68204      3773.84804        38.100  

  20521909.89405 122482199.39015     -1668.68005        39.000  

  20659386.68605 123204645.49215      1711.29705        39.100  

  22396953.36704 132335624.64214     -3455.01204        38.300  

  22065309.80444 130592822.03244     -1005.11744        38.500  

  22196319.59204 131281289.05914      2946.82404        38.600  

  19594373.16805 117607960.62315       195.09805        39.700  

  22459602.38304 132664845.65914     -2666.17604        38.600  

  23943217.74404 140461293.38314      2155.02004        37.700  

 06 10 29 01 49 59.0000000  0  9G10G26G21G22G 6G30G 1G17G16                     
  23323741.51404 137205925.96414      3773.21504        37.900  

  20522227.48605 122483868.44515     -1669.33205        39.200  

  20659061.12005 123202934.56415      1710.52705        39.000  

  22397610.82444 132339079.63754     -3455.18444        38.300  

  22065501.17344 130593827.60844     -1006.03544        38.600  

  22195758.84704 131278342.22814      2946.90204        38.500  

  19594336.12845 117607765.80155       194.29745        39.300  

  22460109.74444 132667511.84054     -2666.51644        38.500  

  23942807.77204 140459138.85314      2154.31604        37.700  

 06 10 29 01 50  0.0000000  0  9G10G26G21G22G 6G30G 1G17G16                     
  23323023.39404 137202152.36214      3773.47704        38.200  

  20522545.18105 122485537.83115     -1669.44905        39.200  

  20658735.64405 123201224.17015      1710.07405        39.100  

  22398268.33504 132342534.93204     -3455.49204        38.400  

  22065692.65244 130594833.92744     -1006.49244        38.700  

  22195198.13804 131275395.62214      2946.70304        38.300  

  19594299.17705 117607571.62305       193.99605        39.700  

  22460617.19304 132670178.45704     -2667.05504        38.300  

  23942397.89404 140456984.87914      2153.73004        37.800  

 06 10 29 01 50  1.0000000  0  9G10G26G21G22G 6G30G 1G17G16                     
  23322305.33444 137198378.90254      3773.27044        38.000  

  20522862.92105 122487207.55915     -1669.84405        39.100  

  20658410.25405 123199514.29615      1709.60205        39.100  

  22398925.88904 132345990.47714     -3455.54704        38.600  

  22065884.31704 130595840.96704     -1007.32804        38.500  

  22194637.45204 131272449.20914      2946.56604        38.600  

  19594262.34905 117607378.10815       193.19105        39.600  

  22461124.71504 132672845.48814     -2667.34004        38.500  

  23941988.08204 140454831.46614      2153.08604        37.800  

 06 10 29 01 50  2.0000000  0  9G10G26G21G22G 6G30G 1G17G16                     
  23321587.28944 137194605.61644      3773.12544        38.100  

  20523180.73945 122488877.62555     -1670.18045        39.500  

  20658084.99245 123197804.97655      1709.02745        39.200  

  22399583.53944 132349446.35154     -3456.03944        38.300  

  22066076.07344 130596848.77754     -1008.20744        38.300  

  22194076.81844 131269503.03354      2946.15644        38.500  

  19594225.65005 117607185.25615       192.53905        39.600  

  22461632.30744 132675512.97454     -2667.51644        38.300  

  23941578.41844 140452678.63154      2152.40244        37.800  

 06 10 29 01 50  3.0000000  0  9G10G26G21G22G 6G30G 1G17G16                     
  23320869.27104 137190832.46804      3773.50004        38.200  

  20523498.61305 122490548.07505     -1670.53105        39.100  

  20657759.82205 123196096.24905      1708.21105        39.100  

  22400241.25604 132352902.52404     -3456.21504        38.300  

  22066267.97104 130597857.32204     -1008.77704        38.600  

  22193516.21044 131266557.05744      2946.29744        38.300  

  19594189.07905 117606993.11005       191.83205        39.500  

  22462140.02804 132678180.96104     -2668.21104        38.200  

  23941168.82904 140450526.35304      2151.79304        37.900  

 06 10 29 01 50  4.0000000  0  9G10G26G21G22G 6G30G 1G17G16                     
  23320151.30944 137187059.47054      3772.87144        37.800  

  20523816.53045 122492218.83755     -1671.12545        39.400  

  20657434.76605 123194387.97415      1708.05905        39.300  

  22400898.99104 132356358.93714     -3456.52304        38.300  

  22066460.02704 130598866.57714     -1009.61304        38.600  

  22192955.65504 131263611.31704      2945.45704        38.500  

  19594152.61405 117606801.58905       191.19105        39.600  

  22462647.79604 132680849.31714     -2668.49204        38.800  

  23940759.35704 140448374.60514      2151.43804        37.900  

 06 10 29 01 50  5.0000000  0  9G10G26G21G22G 6G30G 1G17G16                     
  23319433.34444 137183286.60244      3772.72344        38.100  

  20524134.53205 122493889.93905     -1671.22705        39.300  

  20657109.82505 123192680.29615      1707.40605        39.000  

  22401556.80104 132359815.67614     -3456.97304        38.500  

  22066652.26004 130599876.60814     -1010.35204        38.600  

  22192395.15204 131260665.75414      2945.40204        38.400  

  19594116.28905 117606610.73305       190.87905        39.600  

  22463155.66344 132683518.14254     -2668.84444        38.300  

  23940349.99604 140446223.45014      2150.78104        38.000  

 06 10 29 01 50  6.0000000  0  9G10G26G21G22G 6G30G 1G17G16                     
  23318715.42144 137179513.90044      3772.88744        38.000  

  20524452.60305 122495561.42515     -1671.71905        39.300  

  20656784.97305 123190973.19615      1706.77005        39.100  

  22402214.65304 132363272.71214     -3457.20304        38.600  

  22066844.60744 130600887.38854     -1011.10944        38.600  

  22191834.65704 131257720.46414      2944.94504        38.600  

  19594080.08705 117606420.59105       189.79305        39.700  

  22463663.61044 132686187.44944     -2669.46944        38.300  

  23939940.76104 140444072.86914      2150.32004        38.100  

 06 10 29 01 50  7.0000000  0  9G10G26G21G22G 6G30G 1G17G16                     
  23317997.50544 137175741.38544      3772.64144        38.200  

  20524770.74905 122497233.28715     -1671.90605        39.200  

  20656460.22405 123189266.64215      1706.13705        39.000  

  22402872.56704 132366730.07914     -3457.41004        38.600  

  22067037.08304 130601898.94004     -1011.79704        38.300  

  22191274.22304 131254775.37714      2945.02704        38.600  

  19594044.01745 117606231.13145       189.20745        39.500  

  22464171.66344 132688857.22844     -2670.19144        38.300  

  23939531.62704 140441922.87314      2150.02304        37.700  

 06 10 29 01 50  8.0000000  0  9G10G26G21G22G 6G30G 1G17G16                     
  23317279.66744 137171969.06544      3772.07844        38.200  

  20525088.98405 122498905.52215     -1672.35905        39.000  

  20656135.57405 123187560.67015      1705.47705        39.000  

  22403530.56104 132370187.75114     -3457.73404        38.300  

  22067229.71604 130602911.28514     -1012.92604        38.600  

  22190713.86704 131251830.54514      2944.80504        38.700  

  19594008.08545 117606042.36645       188.58645        39.600  

  22464679.79144 132691527.44044     -2670.32844        38.100  

  23939122.62304 140439773.49314      2149.23004        37.700  

 06 10 29 01 50  9.0000000  0  9G10G26G21G22G 6G30G 1G17G16                     
  23316561.85904 137168196.82404      3772.36704        38.100  

  20525407.26305 122500578.06015     -1672.49205        39.100  

  20655811.03105 123185855.19315      1705.26205        39.100  

  22404188.58104 132373645.66814     -3457.92604        38.300  

  22067422.48104 130603924.29114     -1013.23404        38.800  

  22190153.52444 131248885.89754      2944.47344        38.700  

  19593972.29645 117605854.22945       188.09445        39.600  

  22465188.00944 132694198.07544     -2670.68844        38.400  

  23938713.73344 140437624.60454      2148.67644        37.900  

 06 10 29 01 50 10.0000000  0  9G10G26G21G22G 6G30G 1G17G16                     
  23315844.03004 137164424.64314      3771.92204        38.100  

  20525725.58305 122502250.84715     -1672.86305        39.100  

  20655486.60205 123184150.20115      1704.69505        39.000  

  22404846.65504 132377103.80614     -3458.35504        38.500  

  22067615.38244 130604937.98454     -1014.11344        38.600  

  22189593.20304 131245941.35404      2944.56304        38.600  

  19593936.60345 117605666.66845       187.30945        39.700  

  22465696.31844 132696869.07344     -2671.14144        38.500  

  23938304.88044 140435476.22744      2148.12944        37.900  

 06 10 29 01 50 11.0000000  0  9G10G26G21G22G 6G30G 1G17G16                     
  23315126.22204 137160652.60714      3772.18404        38.000  

  20526043.96705 122503924.00015     -1673.40205        39.100  

  20655162.24045 123182445.74655      1704.23045        39.100  

  22405504.75204 132380562.22914     -3458.50404        38.400  

  22067808.43104 130605952.36504     -1014.34804        38.600  

  22189032.90604 131242997.04814      2944.28504        38.400  

  19593901.04045 117605479.79845       186.52045        39.600  

  22466204.70404 132699540.49904     -2671.60904        38.300  

  23937896.17344 140433328.39944      2147.32844        37.700  

 06 10 29 01 50 12.0000000  0  9G10G26G21G22G 6G30G 1G17G16                     
  23314408.43904 137156880.70814      3771.99204        38.200  

  20526362.42905 122505597.47315     -1673.53105        39.100  

  20654838.00645 123180741.79345      1703.79745        39.000  

  22406162.90604 132384020.91914     -3459.09404        38.500  

  22068001.61905 130606967.54715     -1015.59405        38.900  

  22188472.65404 131240052.94014      2944.10504        38.400  

  19593865.59305 117605293.55805       186.01605        39.600  

  22466713.14304 132702212.36214     -2672.05104        38.500  

  23937487.56344 140431181.12044      2146.99244        37.800  

 06 10 29 01 50 13.0000000  0  9G10G26G21G22G 6G30G 1G17G16                     
  23313690.70844 137153108.98954      3771.59044        38.000  

  20526680.92505 122507271.32815     -1674.34005        39.300  

  20654513.88545 123179038.43045      1703.13345        39.200  

  22406821.16504 132387479.92714     -3459.25004        38.500  

  22068194.95204 130607983.45514     -1016.24604        38.500  

  22187912.45804 131237109.05514      2943.84804        38.300  

  19593830.29005 117605108.01415       185.14805        39.600  

  22467221.67104 132704884.69514     -2672.60904        38.300  

  23937079.03744 140429034.42544      2146.35244        38.000  

 06 10 29 01 50 14.0000000  0  9G10G26G21G22G 6G30G 1G17G16                     
  23312973.00544 137149337.48744      3771.47344        38.200  

  20526999.53645 122508945.56855     -1674.43045        39.000  

  20654189.85845 123177335.68345      1702.45745        38.900  

  22407479.44504 132390939.28414     -3459.65204        38.200  

  22068388.40944 130609000.15954     -1016.80144        38.500  

  22187352.29944 131234165.46354      2943.54744        38.400  

  19593795.11805 117604923.20315       184.45705        39.600  

  22467730.27604 132707557.50414     -2672.97704        38.400  

  23936670.64744 140426888.35944      2145.87944        37.800  

 06 10 29 01 50 15.0000000  0  9G10G26G21G22G 6G30G 1G17G16                     
  23312255.33404 137145566.21404      3770.97704        38.200  

  20527318.23405 122510620.27905     -1675.07405        39.700  

  20653865.93545 123175633.56645      1701.65245        39.200  

  22408137.79504 132394399.01414     -3459.81304        38.500  

  22068582.03244 130610017.73544     -1018.09044        38.700  

  22186792.21644 131231222.17844      2942.98444        38.400  

  19593760.08205 117604739.14215       183.67605        39.600  

  22468238.99904 132710230.89914     -2673.84004        38.600  

  23936262.36304 140424742.95704      2145.05504        37.700  

 06 10 29 01 50 16.0000000  0  9G10G26G21G22G 6G30G 1G17G16                     
  23311537.71504 137141795.18414      3770.70704        38.100  

  20527637.01405 122512295.39315     -1675.13705        39.100  

  20653542.17045 123173932.09645      1701.09845        39.200  

  22408796.25244 132397859.14254     -3460.19944        38.400  

  22068775.80804 130611036.11204     -1018.80104        38.700  

  22186232.19744 131228279.18244      2942.92644        38.500  

  19593725.21745 117604555.84255       182.82445        39.400  

  22468747.82704 132712904.78514     -2674.10204        38.500  

  23935854.22304 140422598.19114      2144.57404        37.900  

 06 10 29 01 50 17.0000000  0  9G10G26G21G22G 6G30G 1G17G16                     
  23310820.13804 137138024.35014      3770.78104        38.000  

  20527955.85805 122513970.94015     -1675.55105        39.100  

  20653218.52145 123172231.22745      1700.37945        39.000  

  22409454.75844 132401319.60744     -3460.60244        38.500  

  22068969.74204 130612055.31614     -1019.55904        38.600  

  22185672.23444 131225336.49744      2942.59844        38.600  

  19593690.47505 117604373.29205       182.05905        39.500  

  22469256.75604 132715579.19114     -2674.59804        38.400  

  23935446.24104 140420454.08614      2143.89504        37.700  

 06 10 29 01 50 18.0000000  0  9G10G26G21G22G 6G30G 1G17G16                     
  23310102.63544 137134253.76954      3770.54344        38.200  

  20528274.80305 122515646.91115     -1676.16805        39.100  

  20652894.94745 123170530.95445      1700.14545        39.100  

  22410113.34844 132404780.44144     -3461.04344        38.200  

  22069163.84604 130613075.31814     -1020.28904        38.500  

  22185112.30444 131222394.06344      2942.16044        38.600  

  19593655.86605 117604191.45215       181.73405        39.300  

  22469765.76104 132718254.12714     -2675.32804        38.200  

  23935038.34704 140418310.61014      2143.21904        37.700  

 06 10 29 01 50 19.0000000  0  9G10G26G21G22G 6G30G 1G17G16                     
  23309385.13104 137130483.26904      3770.39804        38.100  

  20528593.78105 122517323.16015     -1676.45705        39.100  

  20652571.51805 123168831.20905      1699.66005        39.300  

  22410771.98644 132408241.52244     -3461.13744        38.700  

  22069358.08904 130614096.02514     -1020.95704        38.800  

  22184552.39904 131219451.79904      2942.41404        38.600  

  19593621.39305 117604010.24115       180.99205        39.600  

  22470274.86004 132720929.43114     -2675.52304        38.700  

  23934630.57604 140416167.62814      2142.64804        37.900  

 06 10 29 01 50 20.0000000  0  9G10G26G21G22G 6G30G 1G17G16                     
  23308667.64344 137126712.76954      3770.51244        38.100  

  20528912.80745 122518999.63055     -1676.64545        39.000  

  20652248.15345 123167131.86855      1699.10945        38.900  

  22411430.61444 132411702.74844     -3461.26644        38.400  

  22069552.45845 130615117.33855     -1021.70345        38.900  

  22183992.52744 131216509.63054      2942.20744        38.500  

  19593587.02445 117603829.56655       180.56345        39.700  

  22470784.02944 132723605.05754     -2676.07044        38.300  

  23934222.87044 140414025.09054      2142.11744        37.900  

 06 10 29 01 50 21.0000000  0  9G10G26G21G22G 6G30G 1G17G16                     
  23307950.15604 137122942.32704      3770.47304        38.000  

  20529231.86505 122520676.33105     -1676.35905        39.000  

  20651924.86105 123165432.97305      1698.59805        39.100  

  22412089.28204 132415164.15504     -3461.47304        38.300  

  22069746.91344 130616139.28344     -1022.33244        38.600  

  22183432.67704 131213567.57604      2941.77704        38.600  

  19593552.76805 117603649.45705       179.96505        39.700  

  22471293.21104 132726281.00704     -2676.15204        38.500  

  23933815.21204 140411883.02404      2141.93804        37.700  

 06 10 29 01 50 22.0000000  0  9G10G26G21G22G 6G30G 1G17G16                     
  23307232.70204 137119172.04914      3769.96104        38.200  

  20529551.00505 122522353.41115     -1677.35205        39.300  

  20651601.68305 123163734.60015      1698.04305        39.300  

  22412748.01504 132418625.86514     -3462.02004        38.300  

  22069941.51844 130617161.96444     -1023.15244        38.700  

  22182872.86404 131210625.71714      2941.61704        38.500  

  19593518.60305 117603470.03015       179.04305        39.800  

  22471802.50204 132728957.38214     -2676.48804        38.600  

  23933407.68944 140409741.49954      2141.25044        37.900  

 06 10 29 01 50 23.0000000  0  9G10G26G21G22G 6G30G 1G17G16                     
  23306515.27404 137115401.89314      3770.24204        38.100  

  20529870.20505 122524030.82615     -1677.67205        39.100  

  20651278.60005 123162036.80115      1697.84405        39.300  

  22413406.82404 132422087.85914     -3461.91404        38.500  

  22070136.23644 130618185.40244     -1023.90244        38.700  

  22182313.11044 131207684.08554      2941.54744        38.600  

  19593484.58005 117603291.24315       178.50805        39.500  

  22472311.88804 132731634.23814     -2676.94504        38.400  

  23933000.27804 140407600.55504      2140.36304        37.900  

 06 10 29 01 50 24.0000000  0  9G10G26G21G22G 6G30G 1G17G16                     
  23305797.88904 137111631.93514      3769.86704        37.900  

  20530189.47145 122525708.61055     -1678.16045        39.300  

  20650955.63645 123160339.58255      1696.83245        39.000  

  22414065.66204 132425550.18414     -3462.70704        38.500  

  22070331.13004 130619209.59904     -1024.60204        38.500  

  22181753.37604 131204742.70604      2941.10904        38.500  

  19593450.69605 117603113.16715       177.71105        39.600  

  22472821.34604 132734311.55814     -2677.44504        38.300  

  23932592.97004 140405460.20714      2139.99204        37.700  

 06 10 29 01 50 25.0000000  0  9G10G26G21G22G 6G30G 1G17G16                     
  23305080.52304 137107862.14814      3769.77004        38.400  

  20530508.78845 122527386.77145     -1678.24245        39.200  

  20650632.76905 123158642.94005      1696.47305        39.000  

  22414724.54704 132429012.80014     -3462.62904        38.600  

  22070526.17504 130620234.57014     -1025.32004        38.500  

  22181193.67904 131201801.57014      2941.05904        38.200  

  19593416.92705 117602935.79815       177.10905        39.700  

  22473330.91504 132736989.34314     -2677.94904        38.200  

  23932185.78144 140403320.46754      2139.40644        38.000  

 06 10 29 01 50 26.0000000  0  9G10G26G21G22G 6G30G 1G17G16                     
  23304363.18944 137104092.50454      3769.74244        37.900  

  20530828.19845 122529065.26345     -1678.60245        39.000  

  20650310.00245 123156946.80855      1695.91845        38.900  

  22415383.53844 132432475.70554     -3463.05144        38.300  

  22070721.38444 130621260.27154     -1025.93444        38.500  

  22180634.06944 131198860.64154      2940.50844        38.500  

  19593383.28045 117602759.07955       176.30145        39.600  

  22473840.56944 132739667.55754     -2678.53944        38.500  

  23931778.68244 140401181.24344      2139.20744        38.000  

 06 10 29 01 50 27.0000000  0  9G10G26G21G22G 6G30G 1G17G16                     
  23303645.89004 137100323.00604      3769.38304        38.100  

  20531147.66145 122530744.08445     -1678.87545        39.200  

  20649987.35205 123155251.22605      1695.41805        39.300  

  22416042.58704 132435938.90204     -3463.37104        38.300  

  22070916.70104 130622286.69604     -1026.52304        38.800  

  22180074.45804 131195919.88204      2940.77704        38.700  

  19593349.74305 117602582.99105       175.80905        39.500  

  22474350.30404 132742346.19004     -2678.64804        38.200  

  23931371.75004 140399042.60004      2138.35504        37.700  

 06 10 29 01 50 28.0000000  0  9G10G26G21G22G 6G30G 1G17G16                     
  23302928.61804 137096553.59914      3769.44104        38.000  

  20531467.20205 122532423.22005     -1679.06605        39.100  

  20649664.77805 123153556.16715      1694.82405        39.200  

  22416701.64604 132439402.34714     -3463.59404        38.300  

  22071112.15504 130623313.86914     -1027.63304        38.600  

  22179514.91504 131192979.35414      2940.31604        38.400  

  19593316.33305 117602407.56615       175.16005        39.700  

  22474860.10844 132745025.26154     -2679.45344        38.200  

  23930964.89604 140396904.49514      2137.75804        37.900  

 06 10 29 01 50 29.0000000  0  9G10G26G21G22G 6G30G 1G17G16                     
  23302211.33444 137092784.28454      3769.19144        38.200  

  20531786.78205 122534102.63115     -1679.53105        39.200  

  20649342.32705 123151861.55915      1694.22305        39.100  

  22417360.76004 132442865.99614     -3463.92604        38.500  

  22071307.74604 130624341.66014     -1028.13304        38.400  

  22178955.36804 131190038.91614      2940.46904        38.600  

  19593283.05005 117602232.71115       174.44105        39.400  

  22475369.97844 132747704.66044     -2679.35944        38.600  

  23930558.12204 140394766.87514      2137.41404        37.900  

 06 10 29 01 50 30.0000000  0  9G10G26G21G22G 6G30G 1G17G16                     
  23301494.09544 137089015.10044      3769.09044        38.200  

  20532106.44805 122535782.40315     -1679.93005        39.100  

  20649019.96905 123150167.49715      1693.91005        39.100  

  22418019.92304 132446329.92214     -3464.12104        38.600  

  22071503.47804 130625370.19514     -1028.79704        38.600  

  22178395.86404 131187098.72114      2939.99604        38.400  

  19593249.89605 117602058.52115       173.96505        39.300  

  22475879.90644 132750384.51244     -2680.28944        38.500  

  23930151.44344 140392629.79454      2136.82444        38.000  

 06 10 29 01 50 31.0000000  0  9G10G26G21G22G 6G30G 1G17G16                     
  23300776.87544 137085246.06844      3769.09044        38.000  

  20532426.14005 122537462.51115     -1680.38305        39.300  

  20648697.70005 123148474.01315      1693.15205        39.100  

  22418679.14504 132449794.14614     -3464.19904        38.500  

  22071699.35604 130626399.49614     -1029.58604        38.600  

  22177836.38704 131184158.74414      2939.71504        38.500  

  19593216.86705 117601885.03415       173.12105        39.600  

  22476389.94844 132753064.81444     -2680.55544        38.300  

  23929744.86004 140390493.32604      2136.02704        38.000  

 06 10 29 01 50 32.0000000  0  9G10G26G21G22G 6G30G 1G17G16                     
  23300059.69144 137081477.28844      3768.73844        38.000  

  20532745.94345 122539143.04055     -1680.71545        39.100  

  20648375.56345 123146781.11655      1692.51645        39.400  

  22419338.41844 132453258.75554     -3464.78944        38.400  

  22071895.39844 130627429.61154     -1030.68844        38.500  

  22177276.95244 131181219.05054      2939.60244        38.400  

  19593184.00245 117601712.26455       172.22745        39.700  

  22476900.07744 132755745.60244     -2680.77344        38.300  

  23929338.42744 140388357.47754      2135.66044        37.900  

 06 10 29 01 50 33.0000000  0  9G10G26G21G22G 6G30G 1G17G16                     
  23299342.56344 137077708.79244      3768.27044        38.200  

  20533065.81905 122540824.02505     -1680.94905        39.100  

  20648053.53405 123145088.90105      1692.05505        39.100  

  22419997.79904 132456723.74904     -3465.18404        38.200  

  22072091.60344 130628460.58844     -1031.59444        38.600  

  22176717.61904 131178279.69404      2939.24604        38.500  

  19593151.26605 117601540.26805       171.69505        39.800  

  22477410.32644 132758426.98144     -2681.27744        38.500  

  23928932.13704 140386222.31204      2134.71904        37.900  

 06 10 29 01 50 34.0000000  0  9G10G26G21G22G 6G30G 1G17G16                     
  23298625.50004 137073940.53304      3768.02004        38.000  

  20533385.77505 122542505.48615     -1681.59805        39.000  

  20647731.62505 123143397.36615      1691.21905        39.100  

  22420657.24504 132460189.15714     -3465.58604        38.500  

  22072287.95604 130629492.40804     -1032.25804        38.300  

  22176158.33704 131175340.67414      2938.81604        38.700  

  19593118.68445 117601369.07855       170.85545        39.700  

  22477920.69444 132761108.92944     -2682.17244        38.600  

  23928525.96104 140384087.83214      2134.17604        37.900  

 06 10 29 01 50 35.0000000  0  9G10G26G21G22G 6G30G 1G17G16                     
  23297908.46604 137070172.45714      3767.73004        38.400  

  20533705.79305 122544187.32415     -1682.25405        39.300  

  20647409.81505 123141706.38615      1690.65205        39.300  

  22421316.77304 132463654.87314     -3465.82004        38.300  

  22072484.44704 130630525.00114     -1032.88704        38.600  

  22175599.10104 131172401.88314      2938.66804        38.600  

  19593086.23945 117601198.58845       169.93445        39.700  

  22478431.13504 132763791.31604     -2682.85504        38.300  

  23928119.84104 140381953.95014      2133.38304        38.000  

 06 10 29 01 50 36.0000000  0  9G10G26G21G22G 6G30G 1G17G16                     
  23297191.45004 137066404.53614      3768.01204        38.100  

  20534025.88645 122545869.50155     -1682.01245        39.100  

  20647088.15205 123140015.96815      1690.31605        39.300  

  22421976.33444 132467120.89054     -3466.03944        38.500  

  22072681.07504 130631558.34714     -1033.44904        38.600  

  22175039.91404 131169463.33114      2938.51204        38.600  

  19593053.93045 117601028.76045       169.51245        39.500  

  22478941.66804 132766474.15714     -2682.87104        38.300  

  23927713.85604 140379820.64814      2132.88304        38.000  

 06 10 29 01 50 37.0000000  0  9G10G26G21G22G 6G30G 1G17G16                     
  23296474.45804 137062636.76314      3767.36304        38.100  

  20534346.06245 122547552.03245     -1682.93845        39.200  

  20646766.56905 123138326.09715      1689.61705        39.100  

  22422635.95404 132470587.19204     -3466.61704        38.400  

  22072877.82704 130632592.41814     -1034.35504        38.700  

  22174480.77704 131166524.97414      2938.30504        38.500  

  19593021.72245 117600859.57945       168.87945        39.600  

  22479452.29504 132769157.43014     -2683.61704        38.600  

  23927307.99804 140377687.88414      2132.22304        37.900  

 06 10 29 01 50 38.0000000  0  9G10G26G21G22G 6G30G 1G17G16                     
  23295757.50044 137058869.05254      3767.62544        38.000  

  20534666.26645 122549234.81745     -1683.13345        39.200  

  20646445.08245 123136636.67655      1689.30545        39.300  

  22423295.60544 132474053.69754     -3466.65644        38.400  

  22073074.72144 130633627.16754     -1034.96944        38.600  

  22173921.65444 131163586.75754      2938.13344        38.300  

  19592989.64045 117600691.00145       168.27045        39.600  

  22479962.94544 132771841.05554     -2683.50844        38.500  

  23926902.22844 140375555.62754      2131.87544        37.800  

 06 10 29 01 50 39.0000000  0  9G10G26G21G22G 6G30G 1G17G16                     
  23295040.56704 137055101.46804      3767.44904        38.400  

  20534986.52105 122550917.91405     -1683.35205        39.200  

  20646123.70105 123134947.78005      1688.59805        39.000  

  22423955.29504 132477520.46104     -3467.26604        38.300  

  22073271.76204 130634662.61804     -1035.85504        38.700  

  22173362.56804 131160648.74104      2937.70704        38.400  

  19592957.68845 117600523.05745       167.51245        39.500  

  22480473.69404 132774525.11104     -2684.35904        38.600  

  23926496.60004 140373423.87404      2131.71904        37.700  

 06 10 29 01 50 40.0000000  0  9G10G26G21G22G 6G30G 1G17G16                     
  23294323.66404 137051334.08914      3767.22304        38.200  

  20535306.89005 122552601.42015     -1683.50405        39.000  

  20645802.43305 123133259.50215      1687.94505        39.000  

  22424615.02704 132480987.56514     -3467.35904        38.300  

  22073468.95904 130635698.86914     -1036.54304        38.400  

  22172803.53904 131157710.98714      2937.56604        38.600  

  19592925.86205 117600355.82305       167.13305        39.700  

  22480984.54904 132777209.64114     -2684.66404        38.300  

  23926091.07504 140371292.78614      2130.66004        38.000  

 06 10 29 01 50 41.0000000  0  9G10G26G21G22G 6G30G 1G17G16                     
  23293606.75804 137047566.82514      3767.16404        38.100  

  20535627.31345 122554285.24255     -1683.78945        39.300  

  20645481.26005 123131571.72815      1687.50405        39.100  

  22425274.83304 132484454.92414     -3467.43804        38.300  

  22073666.29704 130636735.83914     -1037.44104        38.800  

  22172244.53304 131154773.40714      2937.52704        38.600  

  19592894.15845 117600189.25555       165.98845        39.400  

  22481495.50304 132779894.59814     -2685.21904        38.600  

  23925685.68104 140369162.23214      2129.93404        37.800  

 06 10 29 01 50 42.0000000  0  9G10G26G21G22G 6G30G 1G17G16                     
  23292889.89404 137043799.65714      3767.26204        38.300  

  20535947.78505 122555969.33305     -1684.13305        39.000  

  20645160.15605 123129884.43615      1687.00005        39.300  

  22425934.69904 132487922.49114     -3467.46504        38.500  

  22073863.77404 130637773.45914     -1037.92204        38.500  

  22171685.52404 131151835.97514      2937.25004        38.600  

  19592862.56145 117600023.26445       165.57445        39.400  

  22482006.50904 132782579.90714     -2685.44904        38.300  

  23925280.31304 140367032.14014      2129.69504        37.900  

 06 10 29 01 50 43.0000000  0  9G10G26G21G22G 6G30G 1G17G16                     
  23292173.05044 137040032.57654      3766.90244        38.100  

  20536268.31005 122557653.72015     -1684.55905        39.000  

  20644839.15005 123128197.61315      1686.72705        39.000  

  22426594.63444 132491390.30754     -3468.03944        38.400  

  22074061.35304 130638811.76714     -1038.73804        38.600  

  22171126.60345 131148898.70555      2937.23845        38.900  

  19592831.09105 117599857.87005       165.09405        39.600  

  22482517.57704 132785265.59514     -2685.90604        38.100  

  23924875.06404 140364902.55814      2129.25404        38.000  

 06 10 29 01 50 44.0000000  0  9G10G26G21G22G 6G30G 1G17G16                     
  23291456.19704 137036265.56104      3767.04304        38.100  

  20536588.91505 122559338.38215     -1684.85205        39.300  

  20644518.24305 123126511.29115      1685.89105        39.200  

  22427254.57204 132494858.30904     -3468.25804        38.500  

  22074259.05704 130639850.74814     -1039.39104        38.500  

  22170567.67144 131145961.57644      2937.05544        38.600  

  19592799.73905 117599693.08915       164.18405        39.700  

  22483028.71904 132787951.65114     -2686.15204        38.600  

  23924469.94604 140362773.49314      2128.48004        37.800  

 06 10 29 01 50 45.0000000  0  9G10G26G21G22G 6G30G 1G17G16                     
  23290739.39104 137032498.72214      3766.85904        38.000  

  20536909.53805 122561023.37615     -1685.15205        39.000  

  20644197.42745 123124825.51155      1685.65245        39.100  

  22427914.56804 132498326.62914     -3468.38704        38.300  

  22074456.88504 130640890.47214     -1040.11704        38.600  

  22170008.78844 131143024.67844      2936.64844        38.400  

  19592768.50905 117599528.97615       163.69505        39.400  

  22483539.94144 132790638.16854     -2686.70344        38.300  

  23924064.92004 140360644.99714      2128.34404        38.000  

 06 10 29 01 50 46.0000000  0  9G10G26G21G22G 6G30G 1G17G16                     
  23290022.60504 137028732.07714      3766.71104        37.900  

  20537230.28805 122562708.80015     -1685.54705        39.300  

  20643876.73905 123123140.34005      1685.05905        39.400  

  22428574.62204 132501795.28314     -3468.48804        38.400  

  22074654.87904 130641930.99014     -1040.73404        38.500  

  22169449.96444 131140088.03744      2936.66444        38.400  

  19592737.40805 117599365.56715       163.30905        39.500  

  22484051.27044 132793325.16244     -2687.21944        38.500  

  23923660.02704 140358517.11914      2127.73004        37.900  

 06 10 29 01 50 47.0000000  0  9G10G26G21G22G 6G30G 1G17G16                     
  23289305.90804 137024965.69514      3766.21104        38.100  

  20537551.07245 122564394.65855     -1686.17245        39.000  

  20643556.17705 123121455.81115      1684.16805        39.200  

  22429234.75144 132505264.32154     -3469.12144        38.600  

  22074853.05804 130642972.36614     -1041.98004        38.600  

  22168891.22344 131137151.71544      2936.02344        38.500  

  19592706.45945 117599202.93255       162.45345        39.600  

  22484562.70504 132796012.67904     -2687.94504        38.500  

  23923255.21804 140356389.90114      2126.99204        37.800  

 06 10 29 01 50 48.0000000  0  9G10G26G21G22G 6G30G 1G17G16                     
  23288589.23304 137021199.52014      3766.27304        38.100  

  20537871.96005 122566080.93305     -1686.77305        38.900  

  20643235.73045 123119771.91555      1683.45345        39.200  

  22429894.99644 132508733.73444     -3469.55144        38.300  

  22075051.36504 130644014.53614     -1042.60204        38.500  

  22168332.53404 131134215.68704      2935.71904        38.600  

  19592675.67305 117599041.05005       161.58205        39.500  

  22485074.23444 132798700.74154     -2688.28944        38.600  

  23922850.54604 140354263.34114      2125.93404        37.800  

 06 10 29 01 50 49.0000000  0  9G10G26G21G22G 6G30G 1G17G16                     
  23287872.59804 137017433.55414      3765.86304        38.000  

  20538192.91105 122567767.57715     -1686.93005        39.300  

  20642915.40945 123118088.58745      1682.98845        39.200  

  22430555.25944 132512203.47544     -3470.14144        38.500  

  22075249.82604 130645057.48014     -1043.39504        38.500  

  22167773.87804 131131279.89314      2935.77704        38.600  

  19592645.01245 117598879.86955       160.69145        39.500  

  22485585.85604 132801389.26704     -2688.85504        38.600  

  23922445.98204 140352137.37314      2125.43804        37.800  

 06 10 29 01 50 50.0000000  0  9G10G26G21G22G 6G30G 1G17G16                     
  23287156.00944 137013667.70254      3765.56344        38.100  

  20538513.92745 122569454.55355     -1687.16845        39.400  

  20642595.22245 123116405.79645      1682.65645        38.900  

  22431215.57444 132515673.46144     -3470.38344        38.300  

  22075448.43844 130646101.14854     -1044.04344        38.600  

  22167215.25244 131128344.32054      2935.57044        38.500  

  19592614.46745 117598719.31945       160.34445        39.500  

  22486097.54144 132804078.19454     -2689.21944        38.500  

  23922041.48244 140350011.95654      2124.96544        37.900  

 06 10 29 01 50 51.0000000  0  9G10G26G21G22G 6G30G 1G17G16                     
  23286439.43204 137009902.03304      3765.73804        38.300  

  20538835.02205 122571141.90505     -1687.24605        39.400  

  20642275.10645 123114723.57045      1682.15245        39.200  

  22431875.93744 132519143.75544     -3470.49244        38.500  

  22075647.18005 130647145.59705     -1044.71905        38.900  

  22166656.67204 131125408.99104      2935.02704        38.600  

  19592584.08105 117598559.48205       159.47705        39.700  

  22486609.31544 132806767.59044     -2689.61744        38.500  

  23921637.13504 140347887.13804      2124.43004        37.900  

 06 10 29 01 50 52.0000000  0  9G10G26G21G22G 6G30G 1G17G16                     
  23285722.86504 137006136.53914      3765.50804        38.000  

  20539156.19405 122572829.61115     -1687.82405        39.400  

  20641955.07245 123113041.91045      1681.59045        39.100  

  22432536.38604 132522614.35304     -3470.76204        38.400  

  22075846.07204 130648190.77114     -1045.48404        38.400  

  22166098.13204 131122473.85614      2935.05904        38.500  

  19592553.79305 117598400.30015       158.76205        39.600  

  22487121.15604 132809457.44404     -2690.11304        38.600  

  23921232.89304 140345762.85914      2123.98004        37.800  

 06 10 29 01 50 53.0000000  0  9G10G26G21G22G 6G30G 1G17G16                     
  23285006.36904 137002371.19714      3765.05904        38.000  

  20539477.41105 122574517.67915     -1688.46505        39.300  

  20641635.17805 123111360.80505      1680.84805        39.100  

  22433196.86804 132526085.24814     -3471.14504        38.300  

  22076045.09804 130649236.71614     -1046.30504        38.400  

  22165539.64804 131119538.96514      2935.01604        38.600  

  19592523.62205 117598241.81415       158.17205        39.500  

  22487633.11644 132812147.73554     -2690.34044        38.500  

  23920828.79904 140343639.21114      2123.34804        37.700  

 06 10 29 01 50 54.0000000  0  9G10G26G21G22G 6G30G 1G17G16                     
  23284289.87804 136998605.98414      3765.28504        38.000  

  20539798.71845 122576206.06255     -1688.56645        39.100  

  20641315.36905 123109680.23615      1680.24605        39.300  

  22433857.40304 132529556.40514     -3471.45304        38.100  

  22076244.28404 130650283.37714     -1046.87904        38.500  

  22164981.20604 131116604.28614      2934.49604        38.400  

  19592493.57405 117598083.96215       157.57405        39.600  

  22488145.14804 132814838.47304     -2691.10204        38.500  

  23920424.77404 140341516.07814      2122.91404        37.800  

 06 10 29 01 50 55.0000000  0  9G10G26G21G22G 6G30G 1G17G16                     
  23283573.42704 136994840.83514      3765.23404        38.000  

  20540120.06444 122577894.70544     -1688.72744        38.800  

  20640995.68305 123108000.12215      1679.97305        39.200  

  22434517.95804 132533027.76414     -3471.51604        38.400  

  22076443.57904 130651330.70214     -1047.74604        38.700  

  22164422.78044 131113669.71654      2934.44144        38.400  

  19592463.64505 117597926.69415       157.05905        39.700  

  22488657.26144 132817529.51654     -2691.05944        38.300  

  23920020.85544 140339393.43354      2122.25844        37.800  

 06 10 29 01 50 56.0000000  0  9G10G26G21G22G 6G30G 1G17G16                     
  23282856.98604 136991075.86214      3764.75404        37.900  

  20540441.48745 122579583.71345     -1689.15245        39.300  

  20640676.08405 123106320.57015      1679.32005        39.200  

  22435178.62604 132536499.41714     -3471.75404        38.300  

  22076643.03544 130652378.76154     -1048.50844        38.700  

  22163864.38944 131110735.38144      2934.13744        38.800  

  19592433.85905 117597770.09715       156.29305        39.600  

  22489169.43844 132820221.02344     -2691.73044        38.200  

  23919617.05444 140337271.39444      2121.50044        37.800  

 06 10 29 01 50 57.0000000  0  9G10G26G21G22G 6G30G 1G17G16                     
  23282140.59544 136987311.08454      3764.51244        38.200  

  20540762.96345 122581273.09145     -1689.48845        39.200  

  20640356.56805 123104641.60915      1678.56605        39.100  

  22435839.34904 132539971.40614     -3472.12504        38.300  

  22076842.58604 130653427.59704     -1049.18404        38.500  

  22163306.05704 131107801.29604      2933.98404        38.700  

  19592404.18305 117597614.20315       155.54705        39.300  

  22489681.71444 132822913.01944     -2692.58644        38.200  

  23919213.37144 140335149.92444      2121.04344        37.900  

 06 10 29 01 50 58.0000000  0  9G10G26G21G22G 6G30G 1G17G16                     
  23281424.22844 136983546.43744      3764.67644        38.000  

  20541084.52245 122582962.83445     -1690.07045        39.000  

  20640037.17305 123102963.20215      1678.34405        39.000  

  22436500.10704 132543443.66814     -3472.27704        38.400  

  22077042.32804 130654477.17614     -1049.88304        38.700  

  22162747.75604 131104867.42214      2933.79704        38.400  

  19592374.63705 117597458.99315       154.80505        39.700  

  22490194.06644 132825605.43244     -2692.66844        38.400  

  23918809.79644 140333029.03644      2120.81344        37.900  

 06 10 29 01 50 59.0000000  0  9G10G26G21G22G 6G30G 1G17G16                     
  23280707.84344 136979781.86044      3764.58644        37.900  

  20541406.13705 122584652.79705     -1690.03905        39.000  

  20639717.87305 123101285.23315      1677.87505        39.000  

  22437160.91004 132546916.11914     -3472.48004        38.500  

  22077242.17004 130655527.40114     -1050.64804        38.400  

  22162189.47604 131101933.65314      2933.96104        38.700  

  19592345.23145 117597304.34355       154.23845        39.300  

  22490706.45604 132828298.17504     -2692.88304        38.300  

  23918406.32244 140330908.62644      2120.04344        37.700  

 06 10 29 01 51  0.0000000  0  9G10G26G21G22G 6G30G 1G17G16                     
  23279991.48204 136976017.35504      3764.54704        38.000  

  20541727.77305 122586343.04115     -1690.22305        39.100  

  20639398.68405 123099607.75115      1677.34005        39.000  

  22437821.72304 132550388.79014     -3472.77704        38.400  

  22077442.13804 130656578.28714     -1051.08204        38.600  

  22161631.23004 131099000.07514      2933.36304        38.300  

  19592315.90245 117597150.28045       153.67245        39.700  

  22491218.93304 132830991.32414     -2693.37104        38.400  

  23918002.91704 140328788.69404      2119.55104        38.000  

 06 10 29 01 51  1.0000000  0  9G10G26G21G22G 6G30G 1G17G16                     
  23279275.11944 136972253.00954      3764.26644        38.400  

  20542049.48105 122588033.62615     -1690.62905        39.300  

  20639079.56605 123097930.80515      1676.60905        39.300  

  22438482.60604 132553861.73314     -3473.07804        38.300  

  22077642.26304 130657629.92214     -1052.05904        38.600  

  22161073.00204 131096066.65714      2933.47704        38.300  

  19592286.71445 117596996.86845       153.01645        39.600  

  22491731.48304 132833684.88614     -2693.78904        38.600  

  23917599.63004 140326669.32014      2119.17204        37.700  

 06 10 29 01 51  2.0000000  0  9G10G26G21G22G 6G30G 1G17G16                     
  23278558.80644 136968488.83644      3763.86744        38.200  

  20542371.26945 122589724.57555     -1690.94545        39.300  

  20638760.56145 123096254.43055      1675.87545        39.000  

  22439143.53744 132557334.99854     -3473.73444        38.600  

  22077842.52044 130658682.30154     -1052.71544        38.300  

  22160514.84644 131093133.52454      2932.91044        38.600  

  19592257.63545 117596844.16145       152.33245        39.600  

  22492244.12044 132836378.90754     -2694.36344        38.700  

  23917196.41544 140324550.56054      2118.48844        37.900  

 06 10 29 01 51  3.0000000  0  9G10G26G21G22G 6G30G 1G17G16                     
  23277842.58204 136964724.97904      3763.52004        38.300  

  20542693.16405 122591416.06805     -1691.80505        39.300  

  20638441.69405 123094578.76305      1675.34005        39.200  

  22439804.56604 132560808.68804     -3474.13304        38.500  

  22078042.94404 130659735.60004     -1053.86304        38.600  

  22159956.74144 131090200.72944      2932.69544        38.500  

  19592228.73045 117596692.26945       151.54745        39.600  

  22492756.88604 132839073.49304     -2694.68804        38.700  

  23916793.36204 140322432.51804      2117.77704        37.800  

 06 10 29 01 51  4.0000000  0  9G10G26G21G22G 6G30G 1G17G16                     
  23277126.39704 136960961.40314      3763.22304        38.000  

  20543015.11605 122593107.98615     -1692.15605        39.100  

  20638122.93605 123092903.77315      1674.66805        39.200  

  22440465.68004 132564282.78314     -3473.95704        38.300  

  22078243.54604 130660789.75514     -1054.77304        38.600  

  22159398.71604 131087268.26104      2932.65204        38.600  

  19592199.96505 117596541.16705       150.77705        39.500  

  22493269.75604 132841768.67014     -2695.49604        38.200  

  23916390.48704 140320315.17414      2116.92604        37.800  

 06 10 29 01 51  5.0000000  0  9G10G26G21G22G 6G30G 1G17G16                     
  23276410.26104 136957198.05214      3763.08204        38.200  

  20543337.14705 122594800.35215     -1692.71505        39.100  

  20637804.34305 123091229.43115      1673.87905        39.200  

  22441126.87604 132567757.28114     -3474.53104        38.400  

  22078444.31104 130661844.73514     -1055.58604        38.500  

  22158840.73944 131084336.15454      2932.19544        38.500  

  19592171.35505 117596390.84215       149.85205        39.700  

  22493782.74944 132844464.38554     -2696.28944        38.400  

  23915987.71644 140318198.48154      2116.48844        37.700  

 06 10 29 01 51  6.0000000  0  9G10G26G21G22G 6G30G 1G17G16                     
  23275694.12804 136953434.85014      3763.34404        38.000  

  20543659.29045 122596493.06755     -1692.92245        38.900  

  20637485.83205 123089555.63115      1673.69505        39.200  

  22441788.10404 132571232.04114     -3474.77004        38.500  

  22078645.20104 130662900.42914     -1055.82804        38.600  

  22158282.81004 131081404.25304      2931.78104        38.500  

  19592142.87405 117596241.16515       149.28105        39.600  

  22494295.78344 132847160.49444     -2696.18044        38.500  

  23915585.05544 140316082.36344      2115.97344        37.600  

 06 10 29 01 51  7.0000000  0  9G10G26G21G22G 6G30G 1G17G16                     
  23274978.03904 136949671.78114      3763.14104        38.100  

  20543981.44405 122598186.07005     -1693.11305        39.200  

  20637167.40605 123087882.33815      1672.89505        39.200  

  22442449.41604 132574707.06314     -3475.09404        38.600  

  22078846.20004 130663956.85514     -1056.79304        38.400  

  22157724.92444 131078472.51454      2931.44944        38.200  

  19592114.49905 117596092.11115       148.82005        39.300  

  22494808.90544 132849857.00544     -2696.44544        38.500  

  23915182.48504 140313966.75604      2115.25004        38.000  

 06 10 29 01 51  8.0000000  0  9G10G26G21G22G 6G30G 1G17G16                     
  23274261.96744 136945908.81254      3763.03944        38.100  

  20544303.67545 122599879.39055     -1693.50845        39.100  

  20636849.04805 123086209.53315      1672.50805        38.900  

  22443110.74904 132578182.29614     -3475.29304        38.600  

  22079047.37644 130665013.96854     -1057.37144        38.500  

  22157167.03944 131075540.91044      2931.53144        38.300  

  19592086.23705 117595943.68115       148.00005        39.800  

  22495322.10744 132852553.91944     -2697.15644        38.500  

  23914779.99344 140311851.68654      2114.68844        37.700  

 06 10 29 01 51  9.0000000  0  9G10G26G21G22G 6G30G 1G17G16                     
  23273545.90004 136942146.00104      3762.73004        38.100  

  20544625.94505 122601573.03905     -1693.66405        39.300  

  20636530.84205 123084537.28215      1672.00005        39.200  

  22443772.13304 132581657.84204     -3475.82404        38.200  

  22079248.68704 130666071.80104     -1058.11704        38.400  

  22156609.23244 131072609.55444      2931.17244        38.300  

  19592058.12205 117595795.90415       147.42605        39.800  

  22495835.38404 132855251.29204     -2698.02704        38.400  

  23914377.59804 140309737.18504      2114.13304        37.800  

 06 10 29 01 51 10.0000000  0  9G10G26G21G22G 6G30G 1G17G16                     
  23272829.91304 136938383.31714      3762.89804        38.000  

  20544948.28405 122603267.01915     -1694.03105        39.400  

  20636212.74305 123082865.56915      1671.57005        39.200  

  22444433.55104 132585133.64804     -3475.91804        38.400  

  22079450.12444 130667130.36854     -1058.60244        38.300  

  22156051.47044 131069678.38944      2931.19144        38.500  

  19592030.11205 117595648.78315       146.89805        39.400  

  22496348.76404 132857949.03814     -2697.97704        38.300  

  23913975.28604 140307623.22814      2113.84004        37.600  

 06 10 29 01 51 11.0000000  0  9G10G26G21G22G 6G30G 1G17G16                     
  23272113.84204 136934620.25814      3763.41004        38.100  

  20545270.61305 122604960.79215     -1693.23005        39.300  

  20635894.63905 123081193.86215      1672.01205        39.100  

  22445094.91604 132588609.18204     -3475.10504        38.200  

  22079651.63404 130668189.14804     -1058.67204        38.600  

  22155493.60144 131066746.91444      2931.81644        38.700  

  19592002.11205 117595501.79515       147.10205        39.700  

  22496862.12204 132860646.68814     -2697.48004        38.500  

  23913573.00804 140305509.27614      2114.23404        38.000  

 06 10 29 01 51 12.0000000  0  9G10G26G21G22G 6G30G 1G17G16                     
  23271397.67604 136930856.78914      3763.64104        38.300  

  20545592.91105 122606654.39515     -1693.73805        39.200  

  20635576.53305 123079522.17215      1671.44905        38.900  

  22445756.27604 132592084.47404     -3475.46104        38.500  

  22079853.15204 130669248.10614     -1059.20304        38.500  

  22154935.68944 131063815.10944      2931.57044        38.400  

  19591974.15005 117595354.91415       146.59805        39.800  

  22497375.44704 132863344.22814     -2697.50004        38.500  

  23913170.77744 140303395.37954      2113.78144        38.000  

 06 10 29 01 51 13.0000000  0  9G10G26G21G22G 6G30G 1G17G16                     
  23270681.53504 136927093.46414      3763.41804        38.000  

  20545915.26905 122608348.30015     -1694.20705        39.300  

  20635258.51905 123077851.00715      1670.76205        39.200  

  22446417.67304 132595560.01104     -3475.77004        38.600  

  22080054.79204 130670307.77814     -1059.86704        38.400  

  22154377.82104 131060883.48704      2931.55504        38.600  

  19591946.31705 117595208.68015       145.89505        39.400  

  22497888.82904 132866042.20114     -2698.27004        38.600  

  23912768.59744 140301282.01644      2113.28144        37.800  

 06 10 29 01 51 14.0000000  0  9G10G26G21G22G 6G30G 1G17G16                     
  23269965.45544 136923330.51954      3762.71544        38.100  

  20546237.71245 122610042.74955     -1694.73845        39.300  

  20634940.65745 123076180.60255      1670.28545        39.200  

  22447079.12544 132599036.04644     -3476.30944        38.500  

  22080256.62344 130671368.42454     -1060.92644        38.600  

  22153820.04304 131057952.29114      2930.80104        38.600  

  19591918.64745 117595063.32155       145.12545        39.600  

  22498402.34144 132868740.79954     -2698.84444        38.300  

  23912366.58744 140299169.46044      2112.27044        37.800  

 06 10 29 01 51 15.0000000  0  9G10G26G21G22G 6G30G 1G17G16                     
  23269249.51004 136919568.11204      3762.16404        38.100  

  20546560.30305 122611737.97205     -1695.55505        39.300  

  20634622.95205 123074511.14205      1668.91405        39.200  

  22447740.75444 132602512.77644     -3476.94544        38.200  

  22080458.66204 130672430.16604     -1061.96504        38.600  

  22153262.40604 131055021.72304      2930.30504        38.500  

  19591891.18205 117594919.02505       144.02005        39.600  

  22498916.03044 132871440.23644     -2699.85244        38.500  

  23911964.77644 140297057.84744      2111.39144        37.900  

 06 10 29 01 51 16.0000000  0  9G10G26G21G22G 6G30G 1G17G16                     
  23268533.64104 136915806.23114      3761.57804        37.900  

  20546883.01405 122613433.87415     -1696.35905        39.000  

  20634305.44805 123072842.57515      1668.09805        39.200  

  22448402.48004 132605990.13104     -3477.53104        38.400  

  22080660.91404 130673493.05314     -1063.50004        38.500  

  22152704.83004 131052091.71404      2929.82004        38.300  

  19591863.91205 117594775.77715       142.65605        39.600  

  22499429.89604 132874140.47704     -2700.83204        38.600  

  23911563.11704 140294947.15304      2110.42204        37.700  

 06 10 29 01 51 17.0000000  0  9G10G26G21G22G 6G30G 1G17G16                     
  23267817.88104 136912044.76214      3761.33604        38.000  

  20547205.83545 122615130.39655     -1696.58245        39.000  

  20633988.09005 123071174.83415      1667.37905        39.000  

  22449064.29204 132609468.03914     -3478.01204        38.200  

  22080863.35804 130674556.92814     -1064.42204        38.700  

  22152147.38704 131049162.19604      2929.42604        38.700  

  19591836.82305 117594633.42615       142.08605        39.600  

  22499943.83904 132876841.39614     -2701.12104        38.600  

  23911161.63804 140292837.33514      2109.14804        37.900  

 06 10 29 01 51 18.0000000  0  9G10G26G21G22G 6G30G 1G17G16                     
  23267102.14704 136908283.55414      3760.95704        38.100  

  20547528.74005 122616827.35305     -1697.05105        39.300  

  20633670.84505 123069507.76515      1666.56305        39.000  

  22449726.16704 132612946.36214     -3478.64804        38.300  

  22081065.94904 130675621.62714     -1065.02304        38.700  

  22151589.99104 131046233.01104      2928.80104        38.700  

  19591809.84105 117594491.87715       141.02005        39.600  

  22500457.91804 132879542.86814     -2701.77304        38.500  

  23910760.25004 140290728.14414      2108.87104        37.800  

 06 10 29 01 51 19.0000000  0  9G10G26G21G22G 6G30G 1G17G16                     
  23266386.46104 136904522.59114      3760.82004        37.900  

  20547851.75105 122618524.76015     -1697.49605        39.400  

  20633353.74505 123067841.34015      1665.98805        39.300  

  22450388.16744 132616425.02954     -3478.68844        38.400  

  22081268.72504 130676687.16714     -1065.70304        38.600  

  22151032.64704 131043304.10204      2928.92204        38.500  

  19591783.05805 117594351.04815       140.69905        39.800  

  22500972.07104 132882244.87714     -2702.18804        38.300  

  23910359.05844 140288619.64754      2108.34844        37.800  

 06 10 29 01 51 20.0000000  0  9G10G26G21G22G 6G30G 1G17G16                     
  23265670.80044 136900761.78254      3760.84844        38.100  

  20548174.83245 122620222.52555     -1698.14845        39.300  

  20633036.76345 123066175.44355      1665.60945        39.100  

  22451050.17944 132619903.99644     -3478.91844        38.300  

  22081471.63744 130677753.46854     -1066.62144        38.400  

  22150475.32544 131040375.44244      2928.67644        38.400  

  19591756.36945 117594210.91555       139.90245        39.600  

  22501486.30744 132884947.28254     -2702.35944        38.200  

  23909957.92344 140286511.71744      2107.48844        37.900  

 06 10 29 01 51 21.0000000  0  9G10G26G21G22G 6G30G 1G17G16                     
  23264955.21804 136897001.22304      3760.30104        38.300  

  20548498.00205 122621920.68805     -1698.22705        39.300  

  20632719.87605 123064510.17205      1665.18405        39.300  

  22451712.28944 132623383.34344     -3479.72344        38.400  

  22081674.72104 130678820.55304     -1067.34004        38.700  

  22149918.09444 131037447.06744      2928.64144        38.600  

  19591729.85605 117594071.52605       138.98805        39.700  

  22502000.65804 132887650.25204     -2703.22304        38.600  

  23909556.89204 140284404.41704      2107.03904        38.000  

 06 10 29 01 51 22.0000000  0  9G10G26G21G22G 6G30G 1G17G16                     
  23264239.63704 136893240.79914      3760.30104        37.900  

  20548821.23205 122623619.21415     -1698.68405        39.300  

  20632403.11005 123062845.48315      1664.51605        39.100  

  22452374.45444 132626862.95144     -3479.73844        38.400  

  22081877.92104 130679888.41414     -1068.12904        38.600  

  22149360.88044 131034518.92344      2927.97744        38.600  

  19591703.45305 117593932.79915       138.51205        39.800  

  22502515.08704 132890353.62514     -2703.52304        38.200  

  23909155.96344 140282297.69354      2106.64544        37.900  

 06 10 29 01 51 23.0000000  0  9G10G26G21G22G 6G30G 1G17G16                     
  23263524.09504 136889480.50814      3760.22704        38.100  

  20549144.50005 122625318.03215     -1698.92605        39.000  

  20632086.43805 123061181.30015      1663.77305        39.200  

  22453036.64104 132630342.80504     -3480.05504        38.300  

  22082081.24104 130680956.95414     -1068.89104        38.500  

  22148803.71804 131031590.93404      2928.22304        38.700  

  19591677.18305 117593794.69515       137.76605        39.600  

  22503029.59904 132893057.40214     -2704.05104        38.200  

  23908755.15044 140280191.51144      2105.91044        37.700  

 06 10 29 01 51 24.0000000  0  9G10G26G21G22G 6G30G 1G17G16                     
  23262808.57204 136885720.31614      3760.32004        38.000  

  20549467.83605 122627017.15915     -1699.45705        39.100  

  20631769.83505 123059517.59215      1663.38305        39.000  

  22453698.88604 132633822.89514     -3480.33604        38.700  

  22082284.69744 130682026.17954     -1069.58244        38.400  

  22148246.57804 131028663.13914      2927.50004        38.600  

  19591651.03805 117593657.19215       137.34405        39.700  

  22503544.15204 132895761.54614     -2704.33604        38.500  

  23908354.43544 140278085.82244      2105.45344        37.900  

 06 10 29 01 51 25.0000000  0  9G10G26G21G22G 6G30G 1G17G16                     
  23262093.06304 136881960.19514      3759.96104        38.000  

  20549791.22105 122628716.52215     -1699.46505        39.000  

  20631453.32205 123057854.36915      1662.95305        39.200  

  22454361.15904 132637303.16614     -3480.22704        38.300  

  22082488.30744 130683096.06544     -1070.25844        38.600  

  22147689.46004 131025735.44014      2927.74604        38.400  

  19591624.99005 117593520.29015       136.75405        39.700  

  22504058.80104 132898466.05414     -2704.89504        38.400  

  23907953.83044 140275980.65344      2104.88744        38.000  

 06 10 29 01 51 26.0000000  0  9G10G26G21G22G 6G30G 1G17G16                     
  23261377.55844 136878200.22554      3759.94144        38.300  

  20550114.65945 122630416.21955     -1699.70745        39.100  

  20631136.92145 123056191.68255      1662.25845        39.400  

  22455023.50144 132640783.74254     -3480.87944        38.500  

  22082692.02744 130684166.67544     -1070.83644        38.600  

  22147132.39744 131022807.96854      2927.45744        38.600  

  19591599.06245 117593384.03255       135.99245        39.600  

  22504573.54744 132901170.97754     -2705.13744        38.400  

  23907553.33444 140273876.03044      2104.09444        38.000  

 06 10 29 01 51 27.0000000  0  9G10G26G21G22G 6G30G 1G17G16                     
  23260662.05904 136874440.31804      3759.86304        38.000  

  20550438.16505 122632116.21405     -1700.28105        39.000  

  20630820.61645 123054529.44445      1661.86745        39.300  

  22455685.89304 132644264.49204     -3480.86704        38.200  

  22082895.88344 130685237.93444     -1071.56344        38.800  

  22146575.31204 131019880.62304      2927.19904        38.700  

  19591573.26505 117593248.36905       135.24205        39.600  

  22505088.34904 132903876.24604     -2705.48404        38.200  

  23907152.94944 140271771.86644      2104.31644        37.900  

 06 10 29 01 51 28.0000000  0  9G10G26G21G22G 6G30G 1G17G16                     
  23259946.56704 136870680.50014      3759.73004        38.200  

  20550761.70905 122633816.44215     -1700.34005        39.100  

  20630504.39645 123052867.70445      1661.33645        39.100  

  22456348.27904 132647745.44914     -3481.07404        38.300  

  22083099.86504 130686309.86804     -1072.46904        38.600  

  22146018.26904 131016953.41914      2927.06604        38.700  

  19591547.54605 117593113.27415       134.75405        39.700  

  22505603.22404 132906581.86914     -2705.90604        38.300  

  23906752.62604 140269668.23604      2103.41004        37.900  

 06 10 29 01 51 29.0000000  0  9G10G26G21G22G 6G30G 1G17G16                     
  23259231.11744 136866920.80754      3759.63744        37.900  

  20551085.31505 122635517.03215     -1700.96505        39.000  

  20630188.29704 123051206.49204      1660.89804        38.700  

  22457010.72004 132651226.70514     -3481.49604        38.500  

  22083303.97604 130687382.53414     -1073.01204        38.700  

  22145461.30344 131014026.45154      2926.87144        38.600  

  19591521.97305 117592978.85715       134.04305        39.700  

  22506118.17344 132909287.92754     -2706.15244        38.500  

  23906352.41304 140267565.17214      2102.75004        37.800  

 06 10 29 01 51 30.0000000  0  9G10G26G21G22G 6G30G 1G17G16                     
  23258515.73344 136863161.38444      3759.34844        38.200  

  20551409.02305 122637218.04115     -1701.58605        39.000  

  20629872.30905 123049545.94615      1660.12905        38.900  

  22457673.23044 132654708.32554     -3481.97744        38.400  

  22083508.24805 130688456.00315     -1073.81605        38.900  

  22144904.38704 131011099.74904      2926.55504        38.700  

  19591496.55405 117592845.17715       133.23405        39.700  

  22506633.21744 132911994.48844     -2706.93444        38.400  

  23905952.34404 140265462.74614      2101.77704        38.100  

 06 10 29 01 51 31.0000000  0  9G10G26G21G22G 6G30G 1G17G16                     
  23257800.37744 136859402.19444      3759.15244        38.100  

  20551732.78505 122638919.45215     -1701.59405        39.100  

  20629556.42605 123047886.00015      1659.57805        39.200  

  22458335.82904 132658190.28304     -3482.06604        38.400  

  22083712.67004 130689530.30614     -1074.82404        38.400  

  22144347.52704 131008173.37814      2926.28904        38.700  

  19591471.26305 117592712.24315       132.57005        39.600  

  22507148.37544 132914701.58744     -2707.22744        38.300  

  23905552.37404 140263360.94314      2101.68404        37.800  

