     2.10           OBSERVATION DATA    G (GPS)             RINEX VERSION / TYPE
Convert                                 12-Aug-2008 16:38   PGM / RUN BY / DATE 
Signal Strength values S1,S2 are in dBHz                    COMMENT             
                                                            MARKER NAME         
                                                            MARKER NUMBER       
                                                            OBSERVER / AGENCY   
SVA05050095         NOV RT2             2.210               REC # / TYPE / VERS 
                                                            ANT # / TYPE        
  3991034.0958   562999.0071  4926986.1051                  APPROX POSITION XYZ 
        0.0000        0.0000        0.0000                  ANTENNA: DELTA H/E/N
     1     1                                                WAVELENGTH FACT L1/2
     1     1     7   G01   G06   G10   G16   G17   G21   G22WAVELENGTH FACT L1/2
     1     1     2   G26   G30                              WAVELENGTH FACT L1/2
                                                            COMMENT             
                                                            COMMENT             
                                                            COMMENT             
                                                            COMMENT             
                                                            COMMENT             
     8    C1    L1    D1    S1    P2    L2    D2    S2      # / TYPES OF OBSERV 
     1.000                                                  INTERVAL            
  2006    10    29    01    44    21.0000000    GPS         TIME OF FIRST OBS   
  2006    10    29    01    54    25.0000000    GPS         TIME OF LAST OBS    
    14                                                      LEAP SECONDS        
                                                            END OF HEADER       
 06 10 29 01 44 21.0000000  0  9G22G 6G21G10G30G26G17G16G 1                     
  22178698.16804 130926763.74914     -3350.86304        38.400  

  22008984.32704 130034908.41714      -750.92604        38.500  

  20774972.92005 109173214.02315      1891.88705        39.000  

  23567962.36404 138227391.20014      3817.62904        37.700  

  22387619.04344 132024647.19344      3018.50844        38.500  

  20418735.65545 121678093.17245     -1548.74645        38.900  

  22293639.66744 131530782.18344     -2507.62544        38.300  

  24087442.63204 140957277.50614      2341.51604        37.900  

  19614192.13005 117450188.30215       423.10505        39.400  

 06 10 29 01 44 22.0000000  0  9G22G 6G21G10G30G26G17G16G 1                     
  22179335.89104 130930114.60014     -3351.09804        38.500  

  22009127.28204 130035659.90614      -751.68004        38.600  

  20774612.90105 109171322.36715      1891.35505        39.000  

  23567235.84004 138223573.41014      3818.03104        38.100  

  22387044.72644 132021628.90544      3018.35944        38.600  

  20419030.41305 121679642.03805     -1548.82005        38.900  

  22294116.88744 131533290.09244     -2508.21944        38.400  

  24086997.12904 140954936.27614      2340.91404        37.900  

  19614111.70605 117449765.69015       422.25805        39.400  

 06 10 29 01 44 23.0000000  0  9G22G 6G21G10G30G26G17G16G 1                     
  22179973.59304 130933465.57514     -3351.06604        38.500  

  22009270.38804 130036411.99314      -752.40604        38.600  

  20774252.99705 109169431.01715      1891.36705        39.000  

  23566509.33604 138219755.55814      3818.05904        38.000  

  22386470.37844 132018610.64244      3018.02344        38.500  

  20419325.25305 121681191.13315     -1549.21905        39.200  

  22294594.20644 131535798.28744     -2508.41044        38.400  

  24086551.70304 140952595.38214      2340.77704        38.000  

  19614031.38305 117449343.57015       421.94905        39.600  

 06 10 29 01 44 24.0000000  0  9G22G 6G21G10G30G26G17G16G 1                     
  22180611.28544 130936816.81554     -3351.42644        38.600  

  22009413.60704 130037164.71914      -753.02304        38.500  

  20773893.18045 109167540.14355      1890.61745        38.900  

  23565782.86204 138215937.72914      3817.78504        38.100  

  22385896.09344 132015592.47844      3017.91444        38.400  

  20419620.04105 121682740.47215     -1549.85905        39.300  

  22295071.55744 131538306.90444     -2509.09844        38.400  

  24086106.36304 140950254.96914      2340.24204        37.600  

  19613951.15205 117448922.03815       421.08605        39.300  

 06 10 29 01 44 25.0000000  0  9G22G 6G21G10G30G26G17G16G 1                     
  22181249.08644 130940168.33844     -3351.78144        38.300  

  22009556.97104 130037918.22014      -754.06604        38.500  

  20773533.47105 109165649.77005      1889.84805        39.100  

  23565056.36504 138212120.00514      3817.58204        38.300  

  22385321.75744 132012574.53344      3017.76644        38.500  

  20419914.87705 121684290.14315     -1549.76205        39.300  

  22295549.03844 131540815.97044     -2509.26244        38.600  

  24085661.10404 140947915.08014      2339.28904        37.800  

  19613871.06405 117448501.18015       420.54305        39.600  

 06 10 29 01 44 26.0000000  0  9G22G 6G21G10G30G26G17G16G 1                     
  22181886.95844 130943520.27744     -3352.14144        38.600  

  22009700.52644 130038672.55054      -754.91044        38.600  

  20773173.90845 109163759.99555      1889.52345        39.100  

  23564329.90744 138208302.45654      3817.79344        38.000  

  22384747.47944 132009556.85744      3017.63344        38.300  

  20420209.87245 121685840.27755     -1550.48845        39.300  

  22296026.58944 131543325.64944     -2510.11744        38.600  

  24085215.90944 140945575.78954      2339.08244        37.800  

  19613791.10845 117448081.09055       419.66045        39.700  

 06 10 29 01 44 27.0000000  0  9G22G 6G21G10G30G26G17G16G 1                     
  22182524.84944 130946872.56644     -3352.73844        38.400  

  22009844.23004 130039427.64604      -755.53104        38.700  

  20772814.42305 109161870.74105      1889.18805        38.900  

  23563603.47304 138204485.06104      3817.34004        37.800  

  22384173.24004 132006539.39004      3017.35904        38.500  

  20420504.92005 121687390.77705     -1550.55505        39.000  

  22296504.26504 131545835.79404     -2510.39504        38.400  

  24084770.85504 140943237.07204      2338.37104        38.100  

  19613711.29105 117447661.67005       419.02005        39.600  

 06 10 29 01 44 28.0000000  0  9G22G 6G21G10G30G26G17G16G 1                     
  22183162.83144 130950225.24844     -3352.93444        38.500  

  22009988.10204 130040183.62114      -756.61304        38.700  

  20772455.05605 109159982.14115      1888.43405        39.100  

  23562877.08804 138200667.85614      3817.09804        37.900  

  22383599.09104 132003522.25714      3017.02704        38.400  

  20420800.05405 121688941.75615     -1551.40605        39.200  

  22296982.04204 131548346.54814     -2510.99204        38.400  

  24084325.90244 140940899.01354      2337.60544        37.900  

  19613631.63305 117447243.04415       418.26205        39.600  

 06 10 29 01 44 29.0000000  0  9G22G 6G21G10G30G26G17G16G 1                     
  22183800.90744 130953578.30544     -3353.46144        38.300  

  22010132.11504 130040940.36614      -757.22304        38.700  

  20772095.77805 109158094.08115      1887.89805        39.100  

  23562150.73104 138196850.79914      3816.99604        38.100  

  22383024.95104 132000505.33614      3016.93804        38.300  

  20421095.29405 121690493.11015     -1551.74205        39.300  

  22297459.94404 131550857.83614     -2511.74204        38.300  

  24083881.12904 140938561.46804      2337.35904        37.800  

  19613552.10105 117446825.13015       417.43005        39.700  

 06 10 29 01 44 30.0000000  0  9G22G 6G21G10G30G26G17G16G 1                     
  22184439.01344 130956931.70244     -3353.40644        38.500  

  22010276.29304 130041697.93314      -757.94904        38.600  

  20771736.55805 109156206.58715      1887.39805        39.100  

  23561424.41644 138193033.92454      3816.53944        38.200  

  22382450.89804 131997488.71214      3016.39504        38.600  

  20421390.55505 121692044.88815     -1551.92605        39.300  

  22297937.91904 131553369.63214     -2511.94104        38.500  

  24083436.38644 140936224.55854      2336.87544        37.900  

  19613472.70045 117446407.93255       416.94545        39.500  

 06 10 29 01 44 31.0000000  0  9G22G 6G21G10G30G26G17G16G 1                     
  22185077.26004 130960285.48904     -3353.66804        38.400  

  22010420.63244 130042456.31254      -758.88744        38.700  

  20771377.47605 109154319.67715      1886.79305        39.200  

  23560698.14504 138189217.17104      3816.89504        38.100  

  22381876.86504 131994472.30814      3016.21904        38.200  

  20421685.93105 121693597.06015     -1552.31605        39.100  

  22298416.02304 131555881.99614     -2512.68004        38.600  

  24082991.81704 140933888.23804      2336.05904        37.800  

  19613393.44445 117445991.47245       416.10545        39.500  

 06 10 29 01 44 32.0000000  0  9G22G 6G21G10G30G26G17G16G 1                     
  22185715.52304 130963639.60714     -3354.34404        38.500  

  22010565.03444 130043215.41144      -759.32444        38.600  

  20771018.47205 109152433.28515      1886.25005        38.900  

  23559971.83544 138185400.53654      3816.43444        37.800  

  22381302.92104 131991456.09514      3016.12104        38.500  

  20421981.36205 121695149.58715     -1552.63705        39.300  

  22298894.17004 131558394.80614     -2512.95704        38.300  

  24082547.31844 140931552.41054      2335.62544        37.900  

  19613314.35745 117445575.67145       415.39545        39.800  

 06 10 29 01 44 33.0000000  0  9G22G 6G21G10G30G26G17G16G 1                     
  22186353.85004 130966993.98314     -3354.46104        38.400  

  22010709.63944 130043975.24944      -760.14144        38.600  

  20770659.58705 109150547.37615      1885.63305        39.000  

  23559245.59244 138181583.95244      3816.62944        38.000  

  22380728.97704 131988440.03404      3016.39104        38.300  

  20422276.87805 121696702.44115     -1553.07805        39.100  

  22299372.40804 131560908.09014     -2513.55104        38.400  

  24082102.91644 140929217.11644      2335.13344        38.100  

  19613235.34945 117445160.52145       414.64145        39.600  

 06 10 29 01 44 34.0000000  0  9G22G 6G21G10G30G26G17G16G 1                     
  22186992.17644 130970348.66454     -3354.72344        38.500  

  22010854.35944 130044735.83844      -761.04744        38.400  

  20770300.79405 109148661.97015      1885.10505        39.200  

  23558519.34644 138177767.50744      3816.46144        38.100  

  22380155.09504 131985424.22504      3015.50004        38.700  

  20422572.41905 121698255.63215     -1553.43805        39.200  

  22299850.77044 131563421.84054     -2514.14144        38.600  

  24081658.63804 140926882.33804      2334.80504        37.700  

  19613156.46845 117444746.02845       414.03945        39.700  

 06 10 29 01 44 35.0000000  0  9G22G 6G21G10G30G26G17G16G 1                     
  22187630.57504 130973703.76504     -3355.20704        38.600  

  22010999.27904 130045497.25904      -761.96104        38.600  

  20769942.07445 109146777.16255      1884.43045        39.100  

  23557793.15344 138173951.22244      3816.18044        38.100  

  22379581.24304 131982408.64204      3015.36304        38.400  

  20422868.05205 121699809.28715     -1554.19105        39.300  

  22300329.20904 131565936.15404     -2514.64104        38.400  

  24081214.51144 140924548.18054      2334.12544        37.600  

  19613077.72705 117444332.30105       413.21105        39.400  

 06 10 29 01 44 36.0000000  0  9G22G 6G21G10G30G26G17G16G 1                     
  22188269.11504 130977059.16414     -3355.51204        38.500  

  22011144.34504 130046259.44514      -762.55104        38.600  

  20769583.49905 109144892.88505      1883.90605        39.100  

  23557066.95904 138170135.04904      3816.33604        38.000  

  22379007.44104 131979393.28104      3015.38304        38.500  

  20423163.78105 121701363.28115     -1554.07805        39.200  

  22300807.79644 131568450.95454     -2514.93844        38.500  

  24080770.49044 140922214.58144      2333.27344        37.900  

  19612999.12805 117443919.22415       412.77705        39.500  

 06 10 29 01 44 37.0000000  0  9G22G 6G21G10G30G26G17G16G 1                     
  22188907.70604 130980414.82714     -3355.74204        38.400  

  22011289.52504 130047022.31314      -763.18004        38.500  

  20769225.03105 109143009.06915      1883.75405        39.100  

  23556340.78804 138166318.94414      3816.18004        38.000  

  22378433.70304 131976378.08804      3015.08604        38.500  

  20423459.57205 121702917.56415     -1554.26205        39.200  

  22301286.39244 131570966.18844     -2515.28144        38.500  

  24080326.52144 140919881.42244      2332.96144        37.700  

  19612920.64205 117443506.77915       412.13305        39.600  

 06 10 29 01 44 38.0000000  0  9G22G 6G21G10G30G26G17G16G 1                     
  22189546.34904 130983770.73514     -3356.08204        38.400  

  22011434.81504 130047785.84514      -763.88304        38.500  

  20768866.62845 109141125.67255      1883.13745        39.200  

  23555614.59204 138162502.84614      3816.03904        38.000  

  22377859.94204 131973362.96804      3014.94104        38.200  

  20423755.38505 121704472.12515     -1554.56305        38.900  

  22301765.12644 131573481.80744     -2515.91444        38.700  

  24079882.61844 140917548.74144      2332.43844        37.900  

  19612842.26905 117443094.92815       411.46105        39.700  

 06 10 29 01 44 39.0000000  0  9G22G 6G21G10G30G26G17G16G 1                     
  22190185.01004 130987126.88814     -3356.35204        38.400  

  22011580.24004 130048550.09514      -764.53904        38.700  

  20768508.30145 109139242.74845      1882.64845        39.100  

  23554888.42304 138158686.82514      3815.98404        38.000  

  22377286.16904 131970348.01814      3014.87104        38.300  

  20424051.25605 121706026.99115     -1554.97705        39.300  

  22302243.93944 131575997.86644     -2516.16044        38.500  

  24079438.79604 140915216.52304      2332.07804        37.800  

  19612763.99305 117442683.67915       411.26605        39.800  

 06 10 29 01 44 40.0000000  0  9G22G 6G21G10G30G26G17G16G 1                     
  22190823.71904 130990483.32714     -3356.54704        38.500  

  22011725.83204 130049315.06914      -765.45704        38.600  

  20768150.05445 109137360.33145      1881.95745        39.100  

  23554162.26544 138154870.85554      3816.09844        38.000  

  22376712.49604 131967333.22314      3014.68804        38.700  

  20424347.22205 121707582.18915     -1555.56605        39.200  

  22302722.81544 131578514.37544     -2516.93844        38.300  

  24078995.07304 140912884.83314      2331.36304        38.000  

  19612685.87245 117442273.10255       410.14545        39.600  

 06 10 29 01 44 41.0000000  0  9G22G 6G21G10G30G26G17G16G 1                     
  22191462.48904 130993840.11414     -3356.83604        38.600  

  22011871.53804 130050080.80614      -766.16804        38.500  

  20767791.89045 109135478.42945      1881.68045        39.000  

  23553436.09004 138151055.01904      3815.53504        37.900  

  22376138.84804 131964318.66614      3014.60904        38.400  

  20424643.24605 121709137.76315     -1555.77705        39.300  

  22303201.76644 131581031.37044     -2517.05944        38.500  

  24078551.40904 140910553.67514      2331.03104        37.800  

  19612607.87705 117441863.20205       409.41805        39.500  

 06 10 29 01 44 42.0000000  0  9G22G 6G21G10G30G26G17G16G 1                     
  22192101.29004 130997197.20914     -3357.32004        38.600  

  22012017.39504 130050847.30514      -767.11304        38.700  

  20767433.88145 109133597.04745      1881.11345        39.200  

  23552709.98104 138147239.29214      3815.59004        37.900  

  22375565.23004 131961304.31014      3014.18004        38.400  

  20424939.32805 121710693.65315     -1555.93405        39.300  

  22303680.80104 131583548.87804     -2517.93404        38.400  

  24078107.86604 140908223.06814      2330.33604        37.900  

  19612529.99905 117441453.95615       409.09805        39.600  

 06 10 29 01 44 43.0000000  0  9G22G 6G21G10G30G26G17G16G 1                     
  22192740.25804 131000554.77914     -3357.85904        38.600  

  22012163.46504 130051614.71214      -768.10904        38.600  

  20767076.00905 109131716.35005      1880.28105        39.100  

  23551983.91604 138143423.81614      3815.44504        38.100  

  22374991.70704 131958290.31214      3013.83604        38.300  

  20425235.51305 121712250.12215     -1556.94105        39.000  

  22304159.97904 131586067.01814     -2518.52704        38.300  

  24077664.44404 140905893.15414      2329.53104        37.800  

  19612452.28605 117441045.55915       408.11305        39.400  

 06 10 29 01 44 44.0000000  0  9G22G 6G21G10G30G26G17G16G 1                     
  22193379.22804 131003912.88314     -3358.32404        38.600  

  22012309.66404 130052383.06014      -768.49604        38.600  

  20766718.27505 109129836.37915      1879.94105        39.100  

  23551257.94204 138139608.68414      3814.96104        38.100  

  22374418.19904 131955276.72114      3013.56304        38.400  

  20425531.79905 121713807.10715     -1556.98805        39.300  

  22304639.31844 131588585.83654     -2519.12944        38.300  

  24077221.24904 140903563.98714      2328.90604        37.700  

  19612374.73945 117440638.04355       407.35245        39.600  

 06 10 29 01 44 45.0000000  0  9G22G 6G21G10G30G26G17G16G 1                     
  22194018.35904 131007271.33514     -3358.57404        38.500  

  22012456.03004 130053152.24314      -769.59004        38.700  

  20766360.64205 109127956.97815      1879.05505        39.100  

  23550531.98904 138135793.67414      3815.12504        37.900  

  22373844.76804 131952263.37814      3013.15604        38.300  

  20425828.15005 121715364.50715     -1557.55105        39.300  

  22305118.71344 131591105.18844     -2519.54344        38.500  

  24076778.13304 140901235.38214      2328.15604        37.900  

  19612297.32105 117440231.27005       406.19105        39.500  

 06 10 29 01 44 46.0000000  0  9G22G 6G21G10G30G26G17G16G 1                     
  22194657.51904 131010629.99214     -3358.76204        38.400  

  22012602.52504 130053922.04214      -770.10904        38.600  

  20766003.10305 109126077.98815      1878.92205        39.300  

  23549806.02304 138131978.69514      3815.01204        38.000  

  22373271.37404 131949250.11614      3013.16804        38.300  

  20426124.55205 121716922.15815     -1557.75005        39.200  

  22305598.18844 131593624.90244     -2519.76244        38.600  

  24076335.13704 140898907.22314      2328.10904        37.900  

  19612219.99305 117439825.02415       406.17205        39.600  

 06 10 29 01 44 47.0000000  0  9G22G 6G21G10G30G26G17G16G 1                     
  22195296.62604 131013988.80914     -3358.93404        38.600  

  22012749.10504 130054692.44014      -770.60204        38.700  

  20765645.60405 109124199.34615      1878.40205        39.300  

  23549080.08004 138128163.64414      3815.07404        38.000  

  22372697.99804 131946236.90814      3013.13304        38.400  

  20426421.00605 121718479.99015     -1557.97305        39.300  

  22306077.72844 131596144.95044     -2520.27744        38.500  

  24075892.15204 140896579.42814      2327.84404        37.800  

  19612142.79245 117439419.31155       405.43045        39.600  

 06 10 29 01 44 48.0000000  0  9G22G 6G21G10G30G26G17G16G 1                     
  22195935.88604 131017347.85414     -3359.22704        38.600  

  22012895.86004 130055463.52314      -771.54304        38.700  

  20765288.17005 109122321.13915      1877.86305        39.000  

  23548354.13204 138124348.61914      3814.70304        37.900  

  22372124.60304 131943223.80714      3012.73804        38.400  

  20426717.51105 121720038.09715     -1558.32005        39.300  

  22306557.40344 131598665.38444     -2520.83244        38.600  

  24075449.28844 140894252.08754      2327.05944        38.000  

  19612065.69845 117439014.17945       404.58245        39.700  

 06 10 29 01 44 49.0000000  0  9G22G 6G21G10G30G26G17G16G 1                     
  22196575.16104 131020707.23714     -3359.59004        38.700  

  22013042.71104 130056235.39114      -772.53504        38.700  

  20764930.89504 109120443.49614      1877.41804        38.800  

  23547628.17444 138120533.72954      3814.81344        37.900  

  22371551.29904 131940210.94114      3012.61704        38.400  

  20427014.04805 121721596.58815     -1558.81605        39.200  

  22307037.13104 131601186.33804     -2521.16804        38.500  

  24075006.48504 140891925.31804      2326.45304        37.800  

  19611988.71845 117438609.72545       404.25845        39.600  

 06 10 29 01 44 50.0000000  0  9G22G 6G21G10G30G26G17G16G 1                     
  22197214.50844 131024066.97054     -3359.76244        38.500  

  22013189.73444 130057008.01854      -773.04344        38.600  

  20764573.69845 109118566.36955      1876.84845        39.200  

  23546902.27944 138116718.99144      3814.60944        37.900  

  22370978.00544 131937198.31254      3012.49644        38.700  

  20427310.65945 121723155.46155     -1558.72745        39.200  

  22307516.93944 131603707.82354     -2521.85244        38.500  

  24074563.81644 140889599.10054      2325.98844        37.700  

  19611911.89245 117438206.01945       403.34845        39.600  

 06 10 29 01 44 51.0000000  0  9G22G 6G21G10G30G26G17G16G 1                     
  22197853.92704 131027427.09004     -3360.31304        38.400  

  22013336.92504 130057781.49104      -773.84404        38.500  

  20764216.60205 109116689.86905      1876.47705        39.400  

  23546176.40504 138112904.44204      3814.43004        38.000  

  22370404.75604 131934185.91804      3012.59004        38.500  

  20427607.40905 121724714.78405     -1559.48005        39.300  

  22307996.84404 131606229.82504     -2522.18404        38.300  

  24074121.26404 140887273.51104      2325.24204        37.900  

  19611835.21905 117437803.04305       402.66405        39.600  

 06 10 29 01 44 52.0000000  0  9G22G 6G21G10G30G26G17G16G 1                     
  22198493.39344 131030787.49154     -3360.72344        38.400  

  22013484.24704 130058555.65214      -774.23804        38.800  

  20763859.61705 109114813.85115      1875.93405        39.100  

  23545450.51004 138109089.92314      3814.66004        38.100  

  22369831.56044 131931173.74254      3012.21544        38.200  

  20427904.24705 121726274.41215     -1559.70305        39.100  

  22308476.88204 131608752.28514     -2522.59804        38.300  

  24073678.82904 140884948.40014      2324.89504        38.100  

  19611758.65105 117437400.68615       402.26605        39.600  

 06 10 29 01 44 53.0000000  0  9G22G 6G21G10G30G26G17G16G 1                     
  22199132.94444 131034148.14244     -3360.66844        38.400  

  22013631.69304 130059330.54314      -775.10204        38.600  

  20763502.71105 109112938.29215      1875.19905        39.100  

  23544724.65204 138105275.49314      3814.50004        37.900  

  22369258.41944 131928161.68944      3011.92644        38.500  

  20428201.08805 121727834.33015     -1559.83205        39.300  

  22308956.97344 131611275.17054     -2522.97344        38.600  

  24073236.50604 140882623.78614      2324.19504        37.800  

  19611682.21545 117436998.98155       400.97745        39.600  

 06 10 29 01 44 54.0000000  0  9G22G 6G21G10G30G26G17G16G 1                     
  22199772.50444 131037509.20144     -3361.27744        38.300  

  22013779.33004 130060106.25314      -776.12904        38.500  

  20763145.91005 109111063.31815      1874.77005        39.300  

  23543998.82104 138101461.24514      3814.08204        37.800  

  22368685.31844 131925149.91144      3011.75444        38.400  

  20428498.01805 121729394.69315     -1560.59405        39.200  

  22309437.17544 131613798.62844     -2523.73444        38.500  

  24072794.25804 140880299.78314      2323.84404        37.800  

  19611605.90345 117436597.98745       400.78145        39.600  

 06 10 29 01 44 55.0000000  0  9G22G 6G21G10G30G26G17G16G 1                     
  22200412.15444 131040870.61044     -3361.57444        38.400  

  22013927.09144 130060882.76854      -776.93044        38.600  

  20762789.21805 109109188.92915      1873.91805        39.100  

  23543273.00704 138097647.14514      3813.93404        37.900  

  22368112.24644 131922138.40944      3011.20744        38.500  

  20428795.01405 121730955.46215     -1561.09405        39.100  

  22309917.47204 131616322.61504     -2524.35904        38.300  

  24072352.11404 140877976.37914      2323.07804        37.800  

  19611529.74445 117436197.73945       400.03945        39.600  

 06 10 29 01 44 56.0000000  0  9G22G 6G21G10G30G26G17G16G 1                     
  22201051.87044 131044232.32744     -3361.71944        38.600  

  22014075.01444 130061660.03344      -777.73844        38.800  

  20762432.63444 109107315.05054      1873.54344        38.800  

  23542547.24344 138093833.15654      3813.88344        38.000  

  22367539.22344 131919127.08244      3011.15644        38.600  

  20429092.11945 121732516.57955     -1561.47345        39.100  

  22310397.85844 131618847.05554     -2524.50844        38.500  

  24071910.11844 140875653.50354      2322.73844        37.700  

  19611453.70045 117435798.15145       399.47345        39.700  

 06 10 29 01 44 57.0000000  0  9G22G 6G21G10G30G26G17G16G 1                     
  22201691.70544 131047594.34544     -3362.06644        38.600  

  22014223.09044 130062438.00744      -778.32044        38.600  

  20762076.17105 109105441.66005      1873.17205        39.200  

  23541821.50904 138090019.23704      3813.61704        37.900  

  22366966.20544 131916115.90544      3011.30544        38.400  

  20429389.23145 121734078.00145     -1561.53145        39.200  

  22310878.32004 131621371.97004     -2525.32804        38.800  

  24071468.20244 140873331.11344      2322.16844        37.900  

  19611377.79445 117435399.20045       398.77745        39.500  

 06 10 29 01 44 58.0000000  0  9G22G 6G21G10G30G26G17G16G 1                     
  22202331.48744 131050956.62644     -3362.19944        38.500  

  22014371.29444 130063216.70744      -779.18444        38.600  

  20761719.81105 109103568.76215      1872.50405        39.300  

  23541095.77304 138086205.39114      3813.96104        38.000  

  22366393.21104 131913104.90704      3011.14504        38.500  

  20429686.39345 121735639.76245     -1561.91445        39.300  

  22311358.86004 131623897.30214     -2525.63704        38.500  

  24071026.34404 140871009.23904      2321.76204        37.900  

  19611302.00245 117435000.90245       398.09845        39.500  

 06 10 29 01 44 59.0000000  0  9G22G 6G21G10G30G26G17G16G 1                     
  22202971.35304 131054319.22904     -3362.60904        38.500  

  22014519.63704 130063996.14904      -779.69904        38.500  

  20761363.51805 109101696.36515      1871.97705        39.000  

  23540370.06244 138082391.65154      3814.16044        38.200  

  22365820.27804 131910094.14114      3010.82404        38.500  

  20429983.63145 121737201.86245     -1562.12545        39.300  

  22311839.51904 131626423.13214     -2526.00004        38.300  

  24070584.59244 140868687.90654      2321.13744        38.100  

  19611226.33805 117434603.26305       397.31605        39.400  

 06 10 29 01 45  0.0000000  0  9G22G 6G21G10G30G26G17G16G 1                     
  22203611.33404 131057682.17914     -3363.45304        38.700  

  22014668.12404 130064776.40614      -780.84404        38.700  

  20761007.30904 109099824.51414      1871.63304        38.800  

  23539644.36944 138078578.06844      3813.45744        38.200  

  22365247.39204 131907083.59614      3010.03104        38.500  

  20430280.96845 121738764.34345     -1562.59445        39.200  

  22312320.27444 131628949.44854     -2526.44144        38.400  

  24070142.96044 140866367.12544      2320.49644        38.000  

  19611150.80005 117434206.32015       396.76205        39.500  

 06 10 29 01 45  1.0000000  0  9G22G 6G21G10G30G26G17G16G 1                     
  22204251.27844 131061045.42054     -3363.76244        38.500  

  22014816.72904 130065557.37814      -781.57404        38.800  

  20760651.21205 109097953.19015      1870.87505        39.100  

  23538918.67544 138074764.58744      3813.24244        38.000  

  22364674.52004 131904073.19914      3010.32404        38.300  

  20430578.36745 121740327.20245     -1563.12945        39.300  

  22312801.11844 131631476.26644     -2527.10244        38.300  

  24069701.44644 140864046.87844      2320.21144        38.000  

  19611075.39905 117433810.06715       395.84405        39.500  

 06 10 29 01 45  2.0000000  0  9G22G 6G21G10G30G26G17G16G 1                     
  22204891.36444 131064409.00944     -3363.80944        38.400  

  22014965.48144 130066339.13754      -782.10544        38.300  

  20760295.16445 109096082.41855      1870.36345        38.900  

  23538193.01044 138070951.23144      3813.16044        38.000  

  22364101.70044 131901063.07154      3010.13744        38.300  

  20430875.84145 121741890.41745     -1563.36345        39.200  

  22313282.02544 131634003.58644     -2527.72344        38.600  

  24069260.05644 140861727.20644      2319.48844        38.000  

  19611000.13545 117433414.50555       395.21545        39.700  

 06 10 29 01 45  3.0000000  0  9G22G 6G21G10G30G26G17G16G 1                     
  22205531.52004 131067772.93104     -3364.27304        38.600  

  22015114.42204 130067121.65504      -782.77004        38.600  

  20759939.24105 109094212.17505      1870.05905        39.000  

  23537467.34744 138067138.00344      3813.35544        37.900  

  22363528.91404 131898053.16304      3009.65604        38.600  

  20431173.36205 121743453.98705     -1563.74205        39.300  

  22313763.04704 131636531.38904     -2528.07804        38.500  

  24068818.77044 140859408.06644      2318.84044        37.700  

  19610924.99345 117433019.61545       394.61745        39.500  

 06 10 29 01 45  4.0000000  0  9G22G 6G21G10G30G26G17G16G 1                     
  22206171.71004 131071137.13214     -3364.33204        38.500  

  22015263.46404 130067904.92114      -783.54704        38.600  

  20759583.42405 109092342.44015      1869.46105        39.100  

  23536741.73804 138063324.87704      3812.93804        38.100  

  22362956.17504 131895043.41614      3009.68804        38.100  

  20431470.98205 121745017.93215     -1564.10205        39.300  

  22314244.15104 131639059.66014     -2528.44104        38.300  

  24068377.56504 140857089.47304      2318.52704        37.600  

  19610849.97305 117432625.38505       394.00805        39.400  

 06 10 29 01 45  5.0000000  0  9G22G 6G21G10G30G26G17G16G 1                     
  22206811.96804 131074501.61514     -3364.77304        38.500  

  22015412.66804 130068688.87314      -784.28104        38.600  

  20759227.72905 109090473.15515      1869.03105        39.200  

  23536016.13404 138059511.78414      3812.93804        38.100  

  22362383.47704 131892033.82814      3009.37104        38.400  

  20431768.66805 121746582.15815     -1564.44505        39.400  

  22314725.37604 131641588.34314     -2528.90604        38.600  

  24067936.43204 140854771.34114      2317.85904        37.800  

  19610775.08505 117432231.78215       393.19105        39.600  

 06 10 29 01 45  6.0000000  0  9G22G 6G21G10G30G26G17G16G 1                     
  22207452.22904 131077866.41614     -3364.95304        38.500  

  22015562.00404 130069473.61214      -785.05504        38.700  

  20758872.11105 109088604.42015      1868.63705        39.000  

  23535290.55004 138055698.84014      3812.93404        38.000  

  22361810.83204 131889024.46214      3009.25404        38.200  

  20432066.41505 121748146.76815     -1564.99605        39.200  

  22315206.68504 131644117.53814     -2529.33204        38.600  

  24067495.41004 140852453.77214      2317.40204        37.900  

  19610700.29905 117431838.86215       392.53905        39.700  

 06 10 29 01 45  7.0000000  0  9G22G 6G21G10G30G26G17G16G 1                     
  22208092.63104 131081231.61514     -3365.31304        38.600  

  22015711.49104 130070259.19014      -785.91404        38.600  

  20758516.61605 109086736.30815      1867.75005        39.000  

  23534565.04004 138051886.08814      3812.53504        38.000  

  22361238.24304 131886015.39114      3008.94104        38.300  

  20432364.22205 121749711.81115     -1565.19905        39.100  

  22315688.09804 131646647.31314     -2530.01204        38.600  

  24067054.53344 140850136.84254      2316.82444        37.600  

  19610625.67845 117431446.71555       391.66045        39.600  

 06 10 29 01 45  8.0000000  0  9G22G 6G21G10G30G26G17G16G 1                     
  22208733.14644 131084597.19954     -3365.78944        38.700  

  22015861.12244 130071045.57754      -786.91844        38.500  

  20758161.20705 109084868.75915      1867.38305        39.300  

  23533839.56244 138048073.52154      3812.15244        38.000  

  22360665.66244 131883006.56654      3008.70344        38.300  

  20432662.11945 121751277.25855     -1565.87945        39.200  

  22316169.60944 131649177.61754     -2530.68044        38.600  

  24066613.73744 140847820.50244      2315.87944        37.900  

  19610551.21145 117431055.27945       390.94945        39.800  

 06 10 29 01 45  9.0000000  0  9G22G 6G21G10G30G26G17G16G 1                     
  22209373.63904 131087963.14704     -3366.27004        38.600  

  22016010.91504 130071832.75104      -787.49204        38.600  

  20757805.92105 109083001.78105      1866.84805        39.000  

  23533114.10204 138044261.06004      3812.66804        37.800  

  22360093.20104 131879997.99704      3008.52704        38.500  

  20432960.10805 121752843.12505     -1566.28505        39.200  

  22316651.20244 131651708.44944     -2531.06344        38.300  

  24066173.09904 140845504.74204      2315.53104        37.800  

  19610476.86105 117430664.59005       390.55905        39.300  

 06 10 29 01 45 10.0000000  0  9G22G 6G21G10G30G26G17G16G 1                     
  22210014.18204 131091329.27114     -3366.20304        38.600  

  22016160.84004 130072620.58314      -788.08204        38.600  

  20757450.70805 109081135.20305      1866.51205        38.900  

  23532388.65604 138040448.62514      3812.48804        38.000  

  22359520.68504 131876989.51714      3008.32004        38.600  

  20433258.14305 121754409.22315     -1566.52705        39.300  

  22317132.86644 131654239.61744     -2531.32844        38.600  

  24065732.48204 140843189.39514      2315.19104        37.900  

  19610402.61105 117430274.41415       389.92205        39.700  

 06 10 29 01 45 11.0000000  0  9G22G 6G21G10G30G26G17G16G 1                     
  22210654.79904 131094695.67414     -3366.47304        38.700  

  22016310.92404 130073409.12614      -788.89104        38.700  

  20757095.59305 109079269.13205      1865.75005        39.200  

  23531663.20504 138036636.27114      3812.63304        38.000  

  22358948.18344 131873981.19654      3008.00444        38.700  

  20433556.20905 121755975.62715     -1566.52705        39.400  

  22317614.60944 131656771.25044     -2531.74644        38.600  

  24065291.99304 140840874.55914      2314.53104        37.900  

  19610328.49405 117429884.91515       389.29705        39.600  

 06 10 29 01 45 12.0000000  0  9G22G 6G21G10G30G26G17G16G 1                     
  22211295.46144 131098062.46254     -3367.02344        38.600  

  22016461.13404 130074198.46814      -789.87904        38.800  

  20756740.58605 109077403.60305      1865.25805        39.200  

  23530937.78504 138032824.09014      3812.09404        38.200  

  22358375.78644 131870973.10844      3008.23044        38.500  

  20433854.36505 121757542.45115     -1567.26205        39.300  

  22318096.47044 131659303.41744     -2532.37944        38.600  

  24064851.61944 140838560.31654      2313.68444        37.800  

  19610254.52605 117429496.13715       388.31605        39.400  

 06 10 29 01 45 13.0000000  0  9G22G 6G21G10G30G26G17G16G 1                     
  22211936.27244 131101429.58344     -3367.22744        38.600  

  22016611.47504 130074988.58714      -790.42204        38.700  

  20756385.69605 109075538.64005      1864.77305        38.900  

  23530212.36904 138029012.02114      3812.16804        38.000  

  22357803.46004 131867965.30204      3007.73004        38.600  

  20434152.62105 121759109.65415     -1567.30905        39.200  

  22318578.43004 131661836.08104     -2533.00404        38.400  

  24064411.33844 140836246.62644      2313.45344        37.700  

  19610180.67805 117429108.03315       387.82805        39.500  

 06 10 29 01 45 14.0000000  0  9G22G 6G21G10G30G26G17G16G 1                     
  22212577.07144 131104796.95744     -3367.43044        38.400  

  22016761.96644 130075779.41254      -791.18844        38.600  

  20756030.89445 109073674.16745      1864.05145        38.900  

  23529486.96444 138025200.02854      3812.09844        37.800  

  22357231.09644 131864957.61154      3007.51644        38.500  

  20434450.89045 121760677.16555     -1567.82845        39.200  

  22319060.48244 131664369.18954     -2533.53544        38.600  

  24063971.14744 140833933.42444      2313.11344        38.100  

  19610106.96945 117428720.57255       387.17645        39.600  

 06 10 29 01 45 15.0000000  0  9G22G 6G21G10G30G26G17G16G 1                     
  22213217.93604 131108164.69604     -3367.89104        38.500  

  22016912.57004 130076571.01904      -791.83604        38.600  

  20755676.21605 109071810.21805      1863.91805        39.100  

  23528761.60604 138021388.18604      3811.82404        38.200  

  22356658.80804 131861950.16404      3007.46104        38.400  

  20434749.23205 121762245.05205     -1568.00405        39.400  

  22319542.60804 131666902.79104     -2533.73004        38.600  

  24063531.06004 140831620.81804      2312.23404        37.900  

  19610033.37545 117428333.81645       386.59045        39.600  

 06 10 29 01 45 16.0000000  0  9G22G 6G21G10G30G26G17G16G 1                     
  22213858.88904 131111532.70314     -3368.12904        38.700  

  22017063.33804 130077363.36414      -792.60504        38.600  

  20755321.62745 109069946.78655      1863.32445        39.200  

  23528036.24004 138017576.43614      3811.72304        38.100  

  22356086.55004 131858942.90614      3007.09404        38.500  

  20435047.64805 121763813.29115     -1568.36705        39.500  

  22320024.83004 131669436.86514     -2534.49204        38.400  

  24063091.10604 140829308.73114      2311.72304        37.900  

  19609959.90005 117427947.72005       385.71905        39.400  

 06 10 29 01 45 17.0000000  0  9G22G 6G21G10G30G26G17G16G 1                     
  22214499.84744 131114901.04254     -3368.32844        38.500  

  22017214.26404 130078156.47014      -793.52704        38.600  

  20754967.11845 109068083.87945      1862.63345        39.000  

  23527310.90604 138013764.77914      3811.91804        38.100  

  22355514.35104 131855935.83614      3007.01604        38.300  

  20435346.14305 121765381.88015     -1568.86305        39.500  

  22320507.12904 131671971.38614     -2534.66004        38.600  

  24062651.26004 140826997.15914      2311.30904        37.800  

  19609886.54605 117427562.27615       385.15205        39.700  

 06 10 29 01 45 18.0000000  0  9G22G 6G21G10G30G26G17G16G 1                     
  22215140.91944 131118269.72844     -3368.73044        38.800  

  22017365.35004 130078950.34814      -794.20304        38.700  

  20754612.74145 109066221.53745      1861.85945        39.000  

  23526585.63404 138009953.29614      3811.20704        38.000  

  22354942.15804 131852929.03514      3006.38704        38.400  

  20435644.70605 121766950.84615     -1569.03905        39.500  

  22320989.53504 131674506.45414     -2535.34004        38.400  

  24062211.49104 140824686.17714      2310.79304        37.800  

  19609813.34305 117427177.55915       384.31305        39.800  

 06 10 29 01 45 19.0000000  0  9G22G 6G21G10G30G26G17G16G 1                     
  22215782.02044 131121638.83844     -3369.19544        38.600  

  22017516.57104 130079745.11714      -795.37904        38.600  

  20754258.45745 109064359.82045      1861.36345        39.300  

  23525860.37804 138006142.03214      3811.07804        38.200  

  22354370.03904 131849922.51114      3006.32404        38.300  

  20435943.34205 121768520.29015     -1569.68405        39.200  

  22321472.07404 131677042.09314     -2535.63704        38.400  

  24061771.85604 140822375.84014      2310.42204        38.000  

  19609740.29205 117426793.62615       383.57405        39.300  

 06 10 29 01 45 20.0000000  0  9G22G 6G21G10G30G26G17G16G 1                     
  22216423.19644 131125008.17644     -3369.31344        38.200  

  22017667.91244 130080540.53654      -795.73044        38.400  

  20753904.31845 109062498.55845      1860.89545        38.900  

  23525135.12444 138002330.80354      3811.17244        38.000  

  22353797.94744 131846916.14554      3006.31344        38.500  

  20436242.06145 121770090.02155     -1570.07045        39.100  

  22321954.67044 131679578.16654     -2536.38344        38.500  

  24061332.29944 140820065.97954      2309.64544        38.000  

  19609667.33445 117426410.26955       383.21945        39.400  

 06 10 29 01 45 21.0000000  0  9G22G 6G21G10G30G26G17G16G 1                     
  22217064.38944 131128377.84244     -3369.60544        38.600  

  22017819.41304 130081336.71804      -796.60504        38.500  

  20753550.21045 109060637.78245      1860.40645        39.200  

  23524409.92104 137998519.66804      3811.00404        37.900  

  22353225.89204 131843909.94604      3006.21904        38.800  

  20436540.84205 121771660.09705     -1570.29705        39.100  

  22322437.35504 131682114.70604     -2536.94904        38.400  

  24060892.86404 140817756.64804      2309.21104        37.900  

  19609594.54505 117426027.61205       382.42205        39.500  

 06 10 29 01 45 22.0000000  0  9G22G 6G21G10G30G26G17G16G 1                     
  22217705.66444 131131747.80244     -3369.98844        38.600  

  22017971.08404 130082133.64314      -797.53104        38.500  

  20753196.16745 109058777.56145      1859.89145        39.300  

  23523684.72904 137994708.64014      3810.72304        38.000  

  22352653.84704 131840903.97514      3005.71904        38.400  

  20436839.68505 121773230.51415     -1570.65605        39.300  

  22322920.14004 131684651.68314     -2537.20304        38.600  

  24060453.52804 140815447.84114      2308.55904        37.700  

  19609521.85945 117425645.60855       381.68445        39.600  

 06 10 29 01 45 23.0000000  0  9G22G 6G21G10G30G26G17G16G 1                     
  22218346.98604 131135118.01704     -3369.76604        38.300  

  22018122.84944 130082931.24854      -797.49644        38.500  

  20752842.26305 109056917.77705      1859.83205        39.100  

  23522959.51804 137990897.68214      3811.25404        38.000  

  22352081.84704 131837898.11014      3006.54704        38.500  

  20437138.57805 121774801.21715     -1570.36705        39.100  

  22323403.00304 131687189.10514     -2537.27304        38.400  

  24060014.28604 140813139.52214      2308.37104        37.700  

  19609449.27745 117425264.22545       381.39545        39.600  

 06 10 29 01 45 24.0000000  0  9G22G 6G21G10G30G26G17G16G 1                     
  22218988.37904 131138488.36314     -3370.75404        38.300  

  22018274.73244 130083729.44344      -798.74244        38.300  

  20752488.40645 109055058.33055      1858.94145        39.000  

  23522234.27704 137987086.65114      3810.73404        38.100  

  22351509.83204 131834892.28814      3005.63704        38.600  

  20437437.50605 121776372.10015     -1571.16405        38.900  

  22323885.89404 131689726.82814     -2538.22304        38.400  

  24059575.11244 140810831.56654      2307.39544        37.700  

  19609376.78605 117424883.32005       380.21505        39.400  

 06 10 29 01 45 25.0000000  0  9G22G 6G21G10G30G26G17G16G 1                     
  22219629.82204 131141859.32114     -3371.17204        38.500  

  22018426.83444 130084528.68044      -799.67244        38.500  

  20752134.73305 109053199.75005      1858.16005        39.200  

  23521509.13404 137983276.02414      3810.52304        37.900  

  22350937.96144 131831886.98754      3005.18044        38.300  

  20437736.56905 121777943.66015     -1572.13305        39.100  

  22324368.93904 131692265.30914     -2538.79304        38.400  

  24059136.10644 140808524.42244      2306.94144        38.000  

  19609304.47505 117424503.37815       379.55105        39.500  

 06 10 29 01 45 26.0000000  0  9G22G 6G21G10G30G26G17G16G 1                     
  22220271.35804 131145230.69414     -3371.62104        38.500  

  22018579.08844 130085328.78444      -800.47744        38.400  

  20751781.17904 109051341.74814      1857.69104        38.800  

  23520784.03304 137979465.63414      3810.35904        38.000  

  22350366.13044 131828881.98344      3004.89844        38.400  

  20438035.74805 121779515.65015     -1572.19105        39.200  

  22324852.12404 131694804.36414     -2539.02004        38.400  

  24058697.23144 140806217.95544      2306.21144        37.800  

  19609232.32605 117424124.24215       378.73805        39.500  

 06 10 29 01 45 27.0000000  0  9G22G 6G21G10G30G26G17G16G 1                     
  22220913.00604 131148602.46314     -3371.93404        38.400  

  22018731.51504 130086129.72704      -801.53904        38.600  

  20751427.69805 109049484.38715      1856.93805        39.300  

  23520058.95204 137975655.42114      3810.03904        37.900  

  22349794.37644 131825877.27144      3004.29344        38.600  

  20438334.97405 121781088.12115     -1572.91005        39.200  

  22325335.39604 131697344.03014     -2540.10904        38.600  

  24058258.41444 140803912.12044      2305.50844        37.600  

  19609160.33205 117423745.84815       378.01205        39.400  

 06 10 29 01 45 28.0000000  0  9G22G 6G21G10G30G26G17G16G 1                     
  22221554.71944 131151974.61854     -3372.46144        38.600  

  22018884.09844 130086931.47654      -802.18844        38.400  

  20751074.36405 109047627.58515      1856.66005        39.000  

  23519333.95104 137971845.37914      3809.92204        37.900  

  22349222.59444 131822872.81044      3004.24244        38.600  

  20438634.28245 121782660.97355     -1573.12545        39.400  

  22325818.74304 131699884.19414     -2540.55904        38.700  

  24057819.73244 140801606.86844      2304.74244        37.900  

  19609088.49005 117423368.19115       377.18005        39.700  

 06 10 29 01 45 29.0000000  0  9G22G 6G21G10G30G26G17G16G 1                     
  22222196.48844 131155347.06644     -3372.57844        38.600  

  22019036.80904 130087733.97904      -803.16804        38.800  

  20750721.12005 109045771.30915      1855.97305        39.300  

  23518608.94544 137968035.45054      3809.95344        37.900  

  22348650.89144 131819868.52644      3004.06644        38.400  

  20438933.65245 121784234.17245     -1573.45745        39.300  

  22326302.20044 131702424.83154     -2540.81344        38.700  

  24057381.15404 140799302.13804      2304.56604        37.800  

  19609016.75605 117422991.18915       376.69905        39.600  

 06 10 29 01 45 30.0000000  0  9G22G 6G21G10G30G26G17G16G 1                     
  22222838.27304 131158719.75204     -3372.48404        38.600  

  22019189.66704 130088537.16914      -803.64104        38.600  

  20750367.96705 109043915.51215      1855.60505        39.000  

  23517883.97304 137964225.59604      3809.99604        37.900  

  22348079.21104 131816864.40704      3004.22704        38.400  

  20439233.06645 121785807.67145     -1573.52045        39.300  

  22326785.76704 131704965.90704     -2541.31304        38.200  

  24056942.64004 140796997.89914      2304.06304        37.800  

  19608945.13905 117422614.82615       375.99205        39.600  

 06 10 29 01 45 31.0000000  0  9G22G 6G21G10G30G26G17G16G 1                     
  22223480.13704 131162092.75314     -3373.10504        38.500  

  22019342.61804 130089341.06014      -804.06604        38.500  

  20750014.90105 109042060.19615      1855.02705        39.200  

  23517158.97804 137960415.79714      3809.62904        38.100  

  22347507.57104 131813860.46514      3003.63304        38.400  

  20439532.57745 121787381.48145     -1573.91845        39.200  

  22327269.39304 131707507.40114     -2541.73804        38.500  

  24056504.25804 140794694.17814      2303.34404        37.900  

  19608873.62605 117422239.08515       375.34005        39.500  

 06 10 29 01 45 32.0000000  0  9G22G 6G21G10G30G26G17G16G 1                     
  22224122.00944 131165465.97254     -3373.57844        38.300  

  22019495.71644 130090145.62954      -804.74644        38.700  

  20749661.91345 109040205.30855      1854.67645        39.200  

  23516433.99644 137956606.03554      3809.79344        38.200  

  22346935.96944 131810856.62354      3003.73844        38.400  

  20439832.11545 121788955.57345     -1574.22345        39.300  

  22327753.11444 131710049.29154     -2541.96144        38.600  

  24056065.96744 140792390.89754      2303.03544        37.900  

  19608802.23345 117421863.93055       374.57845        39.600  

 06 10 29 01 45 33.0000000  0  9G22G 6G21G10G30G26G17G16G 1                     
  22224763.99504 131168839.47704     -3373.48004        38.300  

  22019648.97104 130090950.98704      -805.87904        38.600  

  20749309.04205 109038350.96105      1853.84005        39.100  

  23515709.01504 137952796.39204      3809.68804        38.200  

  22346364.41504 131807853.02204      3003.27704        38.600  

  20440131.74345 121790530.02445     -1574.45745        39.400  

  22328236.90704 131712591.68504     -2542.71104        38.600  

  24055627.77604 140790088.17904      2302.54304        38.000  

  19608730.95605 117421489.45605       374.10205        39.700  

 06 10 29 01 45 34.0000000  0  9G22G 6G21G10G30G26G17G16G 1                     
  22225406.01544 131172213.34954     -3373.99244        38.600  

  22019802.36904 130091757.08014      -806.34804        38.700  

  20748956.26205 109036497.15715      1853.69105        39.100  

  23514984.08744 137948986.90354      3809.33244        37.900  

  22345792.87144 131804849.62854      3003.22744        38.600  

  20440431.42005 121792104.85205     -1574.88705        39.300  

  22328720.80604 131715134.57014     -2543.22304        38.600  

  24055189.69704 140787786.00614      2302.00804        37.700  

  19608659.83605 117421115.66915       373.55905        39.400  

 06 10 29 01 45 35.0000000  0  9G22G 6G21G10G30G26G17G16G 1                     
  22226048.09144 131175587.44344     -3374.04344        38.600  

  22019955.91944 130092563.87254      -807.12544        38.600  

  20748603.59445 109034643.80955      1853.19945        39.200  

  23514259.16404 137945177.44804      3809.18804        38.100  

  22345221.35004 131801846.35004      3003.29704        38.400  

  20440731.13605 121793679.96815     -1575.29305        39.000  

  22329204.80004 131717677.85714     -2543.80104        38.300  

  24054751.68644 140785484.30054      2301.42244        37.800  

  19608588.81105 117420742.49615       372.94905        39.600  

 06 10 29 01 45 36.0000000  0  9G22G 6G21G10G30G26G17G16G 1                     
  22226690.20904 131178961.83204     -3374.79704        38.600  

  22020109.55504 130093371.37404      -807.92604        38.600  

  20748250.99105 109032790.93205      1852.77005        39.100  

  23513534.22004 137941368.02414      3809.66804        38.100  

  22344649.86344 131798843.27054      3002.84844        38.400  

  20441030.93405 121795255.40715     -1575.91405        39.100  

  22329688.84844 131720221.56554     -2544.02744        38.500  

  24054313.77604 140783183.14204      2300.84804        37.800  

  19608517.94745 117420369.95355       372.15245        39.700  

 06 10 29 01 45 37.0000000  0  9G22G 6G21G10G30G26G17G16G 1                     
  22227332.41704 131182336.64014     -3375.09404        38.600  

  22020263.37904 130094179.76114      -808.77304        38.500  

  20747898.53305 109030938.71615      1851.87105        39.000  

  23512809.37004 137937558.90614      3809.16404        38.000  

  22344078.46104 131795840.49604      3002.41004        38.400  

  20441330.84245 121796831.30955     -1576.39545        39.200  

  22330173.03044 131722765.87844     -2544.39844        38.600  

  24053875.98204 140780882.59914      2300.21104        37.800  

  19608447.22245 117419998.21545       371.30945        39.700  

 06 10 29 01 45 38.0000000  0  9G22G 6G21G10G30G26G17G16G 1                     
  22227974.70844 131185711.80054     -3375.29344        38.300  

  22020417.35544 130094988.93554      -809.64544        38.500  

  20747546.15545 109029087.05455      1851.34045        39.200  

  23512084.54444 137933749.91754      3808.85544        37.600  

  22343507.10844 131792837.95854      3002.27744        38.600  

  20441630.77045 121798407.58145     -1576.34845        39.300  

  22330657.29244 131725310.70744     -2545.14844        38.500  

  24053438.30044 140778582.63754      2299.87544        37.700  

  19608376.61645 117419627.16845       370.60945        39.700  

 06 10 29 01 45 39.0000000  0  9G22G 6G21G10G30G26G17G16G 1                     
  22228617.03204 131189087.29904     -3375.62504        38.500  

  22020571.48204 130095798.89604      -810.59004        38.600  

  20747193.90005 109027235.96505      1850.74605        39.200  

  23511359.75804 137929941.07404      3808.75804        38.000  

  22342935.78704 131789835.66504      3002.16404        38.500  

  20441930.78505 121799984.28805     -1576.95705        39.400  

  22331141.63844 131727856.06844     -2545.55544        38.500  

  24053000.74004 140776283.27804      2298.85504        37.800  

  19608306.11845 117419256.84245       369.92245        39.700  

 06 10 29 01 45 40.0000000  0  9G22G 6G21G10G30G26G17G16G 1                     
  22229259.46104 131192463.10914     -3375.97304        38.500  

  22020725.75604 130096609.58714      -810.95304        38.300  

  20746841.74405 109025385.37615      1850.43005        39.100  

  23510634.96504 137926132.32514      3808.41404        38.100  

  22342364.50304 131786833.59214      3001.75804        38.400  

  20442230.87705 121801561.32315     -1577.54705        39.400  

  22331626.08944 131730401.89644     -2546.20344        38.400  

  24052563.27444 140773984.43554      2298.70744        37.900  

  19608235.75845 117418887.17245       369.62945        39.700  

 06 10 29 01 45 41.0000000  0  9G22G 6G21G10G30G26G17G16G 1                     
  22229901.86904 131195839.15114     -3376.05904        38.500  

  22020880.15404 130097420.96214      -811.67604        38.300  

  20746489.66905 109023535.22515      1850.03905        39.100  

  23509910.22004 137922323.63214      3808.64804        37.900  

  22341793.24704 131783831.60114      3001.86304        38.500  

  20442531.03505 121803138.61915     -1577.44905        39.500  

  22332110.63204 131732948.10704     -2546.66804        38.500  

  24052125.90744 140771686.06244      2297.82844        37.800  

  19608165.50845 117418518.10545       368.83245        39.500  

 06 10 29 01 45 42.0000000  0  9G22G 6G21G10G30G26G17G16G 1                     
  22230544.33804 131199215.47014     -3376.67604        38.600  

  22021034.67604 130098233.05414      -812.59804        38.600  

  20746137.69105 109021685.57615      1849.44505        39.000  

  23509185.46444 137918515.00854      3808.51244        37.800  

  22341222.02104 131780829.77814      3001.78104        38.500  

  20442831.24505 121804716.23715     -1577.74605        39.300  

  22332595.22804 131735494.72214     -2546.82804        38.300  

  24051688.62244 140769388.18644      2297.53144        37.800  

  19608095.40245 117418149.68445       367.98045        39.600  

 06 10 29 01 45 43.0000000  0  9G22G 6G21G10G30G26G17G16G 1                     
  22231186.86604 131202592.14914     -3376.86704        38.600  

  22021189.36604 130099045.94714      -813.29304        38.500  

  20745785.81345 109019836.50755      1848.80945        39.000  

  23508460.73104 137914706.52804      3808.50004        38.200  

  22340650.84704 131777828.24414      3001.23804        38.300  

  20443131.52205 121806294.25315     -1578.20705        39.200  

  22333079.94544 131738041.91654     -2547.49644        38.400  

  24051251.47304 140767090.90604      2297.19104        37.800  

  19608025.42005 117417781.96305       367.31305        39.700  

 06 10 29 01 45 44.0000000  0  9G22G 6G21G10G30G26G17G16G 1                     
  22231829.52944 131205969.19054     -3377.00044        38.500  

  22021344.21704 130099859.65614      -814.02704        38.700  

  20745434.07645 109017988.01845      1848.03145        39.000  

  23507736.03804 137910898.26214      3808.31304        38.000  

  22340079.73204 131774826.96814      3001.10204        38.400  

  20443431.89145 121807872.69755     -1578.46145        39.400  

  22333564.76704 131740589.62004     -2547.91004        38.500  

  24050814.44104 140764794.22714      2296.28104        37.600  

  19607955.59845 117417415.00255       366.55545        39.600  

 06 10 29 01 45 45.0000000  0  9G22G 6G21G10G30G26G17G16G 1                     
  22232472.24304 131209346.53704     -3377.53104        38.200  

  22021499.19704 130100674.08014      -814.64104        38.600  

  20745082.44745 109016140.02745      1847.81345        39.100  

  23507011.36004 137907090.07714      3808.29304        38.100  

  22339508.62044 131771825.83254      3001.15644        38.500  

  20443732.33305 121809451.48505     -1578.87505        39.300  

  22334049.65244 131743137.78554     -2548.57444        38.300  

  24050377.49904 140762498.07014      2296.03904        37.700  

  19607885.87305 117417048.65105       366.21505        39.500  

 06 10 29 01 45 46.0000000  0  9G22G 6G21G10G30G26G17G16G 1                     
  22233114.94244 131212724.13754     -3377.90644        38.400  

  22021654.33804 130101489.23914      -815.77704        38.600  

  20744730.86245 109014292.53545      1847.19545        39.100  

  23506286.68104 137903281.97014      3807.60204        38.100  

  22338937.55644 131768824.90344      3000.87544        38.600  

  20444032.83105 121811030.54615     -1579.12905        39.000  

  22334534.62704 131745686.37004     -2548.71104        38.700  

  24049940.64404 140760202.39614      2295.13304        37.800  

  19607816.29005 117416682.96815       365.35905        39.600  

 06 10 29 01 45 47.0000000  0  9G22G 6G21G10G30G26G17G16G 1                     
  22233757.76944 131216102.10044     -3378.06344        38.400  

  22021809.60944 130102305.17354      -816.09444        38.700  

  20744379.41645 109012445.61045      1846.52345        39.100  

  23505562.05304 137899473.98814      3808.10504        37.900  

  22338366.53104 131765824.24104      3000.20704        38.400  

  20444333.39605 121812610.05715     -1579.68005        39.300  

  22335019.70904 131748235.49314     -2549.20304        38.500  

  24049503.91104 140757907.33714      2294.75404        37.700  

  19607746.83905 117416317.99015       364.59805        39.400  

 06 10 29 01 45 48.0000000  0  9G22G 6G21G10G30G26G17G16G 1                     
  22234400.59844 131219480.36044     -3378.50044        38.700  

  22021965.01904 130103121.84804      -816.98004        38.700  

  20744028.03645 109010599.15245      1846.21945        38.900  

  23504837.41604 137895666.15814      3807.60504        38.000  

  22337795.53204 131762823.70614      3000.45704        38.400  

  20444634.02605 121814189.86515     -1579.84405        39.300  

  22335504.84704 131750785.06814     -2549.79304        38.600  

  24049067.26804 140755612.78614      2294.10204        37.800  

  19607677.51805 117415953.66915       363.79305        39.400  

 06 10 29 01 45 49.0000000  0  9G22G 6G21G10G30G26G17G16G 1                     
  22235043.50544 131222858.96644     -3378.64544        38.300  

  22022120.57204 130103939.33214      -817.73804        38.700  

  20743676.78005 109008753.32305      1845.45705        39.000  

  23504112.84604 137891858.44814      3807.63304        38.000  

  22337224.59444 131759823.46054      2999.95744        38.400  

  20444934.76105 121815770.09315     -1580.36705        39.000  

  22335990.10004 131753335.17514     -2550.39504        38.400  

  24048630.75704 140753318.84114      2293.70704        37.900  

  19607608.33805 117415590.06415       363.27705        39.500  

 06 10 29 01 45 50.0000000  0  9G22G 6G21G10G30G26G17G16G 1                     
  22235686.52344 131226237.93844     -3379.37544        38.700  

  22022276.27304 130104757.58514      -818.64504        38.600  

  20743325.58245 109006907.97155      1845.53945        39.200  

  23503388.31304 137888050.88514      3807.50004        38.200  

  22336653.71844 131756823.42144      2999.98044        38.400  

  20445235.51605 121817350.70515     -1580.86705        39.300  

  22336475.46804 131755885.76914     -2551.08204        38.300  

  24048194.33704 140751025.43614      2292.98004        38.000  

  19607539.27605 117415227.15815       362.49205        39.600  

 06 10 29 01 45 51.0000000  0  9G22G 6G21G10G30G26G17G16G 1                     
  22236329.58404 131229617.19204     -3379.60204        38.500  

  22022432.12204 130105576.60114      -819.47704        38.500  

  20742974.53245 109005063.23145      1844.58245        39.000  

  23502663.77304 137884243.46314      3807.24204        37.900  

  22336082.88144 131753823.59944      2999.90244        38.400  

  20445536.37405 121818931.67115     -1581.29305        39.200  

  22336960.92144 131758436.84554     -2551.44144        38.300  

  24047758.04604 140748732.59614      2292.53104        37.700  

  19607470.33105 117414864.93115       361.84805        39.700  

 06 10 29 01 45 52.0000000  0  9G22G 6G21G10G30G26G17G16G 1                     
  22236972.68504 131232996.63714     -3379.43404        38.600  

  22022588.10704 130106396.23414      -819.83604        38.700  

  20742623.56905 109003218.84905      1844.45305        39.200  

  23501939.22804 137880436.03114      3807.35204        37.900  

  22335512.03144 131750823.87344      2999.69544        38.700  

  20445837.27005 121820512.86515     -1581.26605        39.500  

  22337446.42844 131760988.27444     -2551.60244        38.500  

  24047321.81704 140746440.16814      2292.29304        37.900  

  19607401.50945 117414503.25355       361.50045        39.600  

 06 10 29 01 45 53.0000000  0  9G22G 6G21G10G30G26G17G16G 1                     
  22237615.81704 131236376.31614     -3379.86304        38.600  

  22022744.20804 130107216.54914      -820.93004        38.500  

  20742272.70005 109001374.92915      1843.44505        39.000  

  23501214.71304 137876628.60614      3807.57004        38.000  

  22334941.20744 131747824.25344      2999.38744        38.600  

  20446138.18605 121822094.30115     -1581.35205        39.400  

  22337932.02004 131763540.07604     -2551.90204        38.500  

  24046885.62804 140744148.21114      2291.79304        37.800  

  19607332.79005 117414142.16605       360.62905        39.600  

 06 10 29 01 45 54.0000000  0  9G22G 6G21G10G30G26G17G16G 1                     
  22238259.00004 131239756.30114     -3380.17204        38.500  

  22022900.42804 130108037.60014      -821.44504        38.600  

  20741921.91105 108999531.51315      1843.26605        39.100  

  23500490.19804 137872821.35214      3806.83604        37.900  

  22334370.45944 131744824.83544      2999.05544        38.400  

  20446439.20105 121823676.12115     -1582.03105        39.400  

  22338417.69704 131766092.37114     -2552.48804        38.500  

  24046449.57304 140741856.78314      2291.11304        37.600  

  19607264.19645 117413781.74055       359.84445        39.700  

 06 10 29 01 45 55.0000000  0  9G22G 6G21G10G30G26G17G16G 1                     
  22238902.26004 131243136.64214     -3380.58604        38.600  

  22023056.84604 130108859.45114      -822.39804        38.500  

  20741571.23005 108997688.67015      1842.44905        39.300  

  23499765.67104 137869014.19314      3807.02304        37.900  

  22333799.72944 131741825.66244      2998.95744        38.400  

  20446740.26805 121825258.32315     -1582.38305        39.300  

  22338903.47904 131768645.18214     -2553.34404        38.300  

  24046013.63704 140739565.92514      2290.72304        37.900  

  19607195.73305 117413422.03605       359.14105        39.400  

 06 10 29 01 45 56.0000000  0  9G22G 6G21G10G30G26G17G16G 1                     
  22239545.60344 131246517.32654     -3380.85944        38.600  

  22023213.39544 130109682.07054      -822.88744        38.800  

  20741220.63045 108995846.38955      1841.91845        38.900  

  23499041.23144 137865207.22154      3806.91444        37.900  

  22333229.06444 131738826.73344      2998.71544        38.200  

  20447041.44845 121826840.93055     -1583.11745        39.100  

  22339389.35944 131771198.48454     -2553.41844        38.600  

  24045577.82344 140737275.66954      2290.04744        37.900  

  19607127.41045 117413063.02655       358.53145        39.700  

 06 10 29 01 45 57.0000000  0  9G22G 6G21G10G30G26G17G16G 1                     
  22240188.99604 131249898.40904     -3381.24204        38.400  

  22023370.07144 130110505.56844      -823.76644        38.400  

  20740870.16705 108994004.72505      1841.57405        39.000  

  23498316.81504 137861400.46404      3806.57004        38.000  

  22332658.42404 131735828.10604      2998.48804        38.500  

  20447342.69405 121828423.97705     -1583.52705        39.300  

  22339875.35504 131773752.38204     -2554.38704        38.500  

  24045142.11804 140734986.05004      2289.19104        37.900  

  19607059.24505 117412704.78805       357.99205        39.700  

 06 10 29 01 45 58.0000000  0  9G22G 6G21G10G30G26G17G16G 1                     
  22240832.48504 131253279.89514     -3381.72704        38.600  

  22023526.92704 130111329.87304      -824.68804        38.300  

  20740519.82505 108992163.67215      1840.65605        39.100  

  23497592.46704 137857593.87914      3806.43404        38.300  

  22332087.87404 131732829.75814      2998.23404        38.500  

  20447644.02105 121830007.44515     -1583.74205        39.100  

  22340361.43904 131776306.80114     -2554.53904        38.400  

  24044706.54304 140732697.02514      2288.97304        37.800  

  19606991.22905 117412347.32415       357.02705        39.700  

 06 10 29 01 45 59.0000000  0  9G22G 6G21G10G30G26G17G16G 1                     
  22241475.99304 131256661.72214     -3382.04704        38.500  

  22023683.92704 130112154.99614      -825.59804        38.400  

  20740169.56945 108990323.18655      1840.25445        38.900  

  23496868.12804 137853787.47114      3806.23804        38.100  

  22331517.34404 131729831.67414      2997.76204        38.600  

  20447945.43105 121831591.33015     -1584.34005        39.100  

  22340847.64604 131778861.76514     -2555.09004        38.600  

  24044271.06744 140730408.64454      2288.12544        37.900  

  19606923.35305 117411990.54915       356.33205        39.700  

 06 10 29 01 46  0.0000000  0  9G22G 6G21G10G30G26G17G16G 1                     
  22242119.61744 131260043.92554     -3382.30944        38.500  

  22023841.06744 130112980.92654      -826.27044        38.600  

  20739819.46045 108988483.30045      1839.69545        39.200  

  23496143.82504 137849981.23714      3806.16404        38.200  

  22330946.92344 131726833.82854      2997.63744        38.400  

  20448246.89605 121833175.63115     -1584.27005        39.200  

  22341333.93804 131781417.25814     -2555.43804        38.500  

  24043835.69344 140728120.81944      2287.74244        37.600  

  19606855.61605 117411634.53715       355.48005        39.700  

 06 10 29 01 46  1.0000000  0  9G22G 6G21G10G30G26G17G16G 1                     
  22242763.27404 131263426.48704     -3382.93804        38.500  

  22023998.41344 130113807.64544      -827.20344        38.400  

  20739469.45205 108986643.96105      1838.73405        39.000  

  23495419.55804 137846175.16714      3805.78104        38.000  

  22330376.47704 131723836.23204      2997.57804        38.300  

  20448548.45205 121834760.29215     -1584.59005        39.100  

  22341820.33044 131783973.24854     -2556.22744        38.600  

  24043400.46144 140725833.58944      2286.98044        37.700  

  19606787.96905 117411279.19715       354.95305        39.600  

 06 10 29 01 46  2.0000000  0  9G22G 6G21G10G30G26G17G16G 1                     
  22243406.94644 131266809.20754     -3382.82844        38.500  

  22024155.86244 130114634.96744      -827.55544        38.700  

  20739119.50345 108984805.02255      1838.73845        39.300  

  23494695.28444 137842369.07454      3806.15244        38.000  

  22329806.08244 131720838.72654      2997.33244        38.500  

  20448850.05345 121836345.20955     -1584.79345        39.300  

  22342306.79944 131786529.58144     -2556.24644        38.200  

  24042965.29644 140723546.75544      2286.72744        37.800  

  19606720.45245 117410924.41455       354.68845        39.700  

 06 10 29 01 46  3.0000000  0  9G22G 6G21G10G30G26G17G16G 1                     
  22244050.66604 131270192.18204     -3383.25004        38.500  

  22024313.41644 130115462.98144      -828.36344        38.700  

  20738769.63605 108982966.52805      1838.09405        39.000  

  23493971.02504 137838563.02504      3806.07004        37.800  

  22329235.67044 131717841.31544      2997.70744        38.600  

  20449151.71105 121837930.38505     -1585.44505        39.200  

  22342793.35244 131789086.32444     -2556.69944        38.600  

  24042530.22804 140721260.40504      2286.09804        38.000  

  19606653.05645 117410570.23745       354.03545        39.700  

 06 10 29 01 46  4.0000000  0  9G22G 6G21G10G30G26G17G16G 1                     
  22244694.46144 131273575.39954     -3383.04744        38.400  

  22024471.14344 130116291.70644      -828.88744        38.500  

  20738419.89245 108981128.52455      1837.76245        39.000  

  23493246.78304 137834757.07014      3805.98404        38.100  

  22328665.31304 131714844.10404      2997.16404        38.100  

  20449453.42005 121839515.89715     -1585.57405        39.200  

  22343279.96744 131791643.52144     -2557.51644        38.600  

  24042095.27404 140718974.57014      2285.76204        37.700  

  19606585.77645 117410216.69445       353.51245        39.600  

 06 10 29 01 46  5.0000000  0  9G22G 6G21G10G30G26G17G16G 1                     
  22245338.32344 131276958.96244     -3383.81344        38.400  

  22024628.99944 130117121.20544      -830.11344        38.600  

  20738070.24205 108979291.06005      1837.12905        39.000  

  23492522.50704 137830951.20714      3806.05504        38.300  

  22328094.97404 131711847.10214      2996.76204        38.600  

  20449755.17405 121841101.75915     -1586.04705        39.300  

  22343766.68604 131794201.16304     -2557.90604        38.700  

  24041660.37604 140716689.28114      2284.96904        37.900  

  19606518.58745 117409863.82845       352.63745        39.500  

 06 10 29 01 46  6.0000000  0  9G22G 6G21G10G30G26G17G16G 1                     
  22245982.25104 131280342.90404     -3384.17204        38.300  

  22024786.99304 130117951.51304      -830.80904        38.700  

  20737720.69445 108977454.20955      1836.62145        39.000  

  23491798.31404 137827145.57814      3805.49604        38.000  

  22327524.73804 131708850.36214      2996.96504        38.400  

  20450057.01205 121842688.05115     -1586.48405        39.300  

  22344253.49404 131796759.37414     -2558.56304        38.500  

  24041225.61904 140714404.60114      2284.23004        37.600  

  19606451.60845 117409511.71445       351.92245        39.700  

 06 10 29 01 46  7.0000000  0  9G22G 6G21G10G30G26G17G16G 1                     
  22246626.23004 131283727.14914     -3384.12904        38.400  

  22024945.13944 130118782.56054      -831.29744        38.300  

  20737371.25145 108975617.87945      1835.75845        39.200  

  23491074.16104 137823340.06414      3805.52004        38.200  

  22326954.53544 131705853.85354      2996.51244        38.400  

  20450358.90645 121844274.69155     -1586.66045        39.000  

  22344740.40104 131799318.04414     -2558.84004        38.400  

  24040790.97004 140712120.48014      2283.76604        37.800  

  19606384.73505 117409160.27705       351.00005        39.600  

 06 10 29 01 46  8.0000000  0  9G22G 6G21G10G30G26G17G16G 1                     
  22247270.30704 131287111.77014     -3384.98804        38.500  

  22025103.43204 130119614.44404      -832.46504        38.700  

  20737021.94645 108973782.09445      1835.30945        39.000  

  23490350.01744 137819534.68154      3805.23044        38.000  

  22326384.34404 131702857.57904      2996.12904        38.500  

  20450660.89305 121845861.74305     -1587.20705        39.200  

  22345227.42004 131801877.25514     -2559.62104        38.500  

  24040356.45004 140709836.93214      2283.21504        37.800  

  19606317.99205 117408809.56415       350.21905        39.600  

 06 10 29 01 46  9.0000000  0  9G22G 6G21G10G30G26G17G16G 1                     
  22247914.42904 131290496.68314     -3384.97304        38.400  

  22025261.87804 130120447.07114      -833.10904        38.500  

  20736672.72945 108971946.88245      1834.87545        39.000  

  23489625.91444 137815729.45644      3805.29744        38.100  

  22325814.18604 131699861.54314      2995.90204        38.400  

  20450962.98805 121847449.15615     -1587.58205        39.300  

  22345714.53004 131804436.94114     -2559.86704        38.400  

  24039922.01604 140707553.95614      2282.60204        38.000  

  19606251.37605 117408459.51315       349.66405        39.600  

 06 10 29 01 46 10.0000000  0  9G22G 6G21G10G30G26G17G16G 1                     
  22248558.61904 131293881.93014     -3385.32404        38.300  

  22025420.46204 130121280.44514      -833.44504        38.600  

  20736323.59245 108970112.18945      1834.35545        38.900  

  23488901.82244 137811924.36844      3804.85244        38.000  

  22325244.07704 131696865.70114      2995.74204        38.800  

  20451265.13605 121849036.93215     -1588.01605        39.300  

  22346201.72544 131806997.10654     -2560.44544        38.200  

  24039487.67604 140705271.52414      2282.22704        38.000  

  19606184.89605 117408110.15415       348.92605        39.600  

 06 10 29 01 46 11.0000000  0  9G22G 6G21G10G30G26G17G16G 1                     
  22249202.85944 131297267.42854     -3385.49644        38.600  

  22025579.16104 130122114.52414      -834.21104        38.800  

  20735974.52845 108968277.97045      1833.99645        39.000  

  23488177.74044 137808119.30544      3805.14544        37.900  

  22324674.03504 131693869.99714      2995.73004        38.300  

  20451567.32605 121850625.00615     -1588.34805        39.400  

  22346688.99404 131809557.66604     -2560.50804        38.300  

  24039053.43504 140702989.60514      2281.65204        37.900  

  19606118.53705 117407761.40215       348.53905        39.400  

 06 10 29 01 46 12.0000000  0  9G22G 6G21G10G30G26G17G16G 1                     
  22249847.12444 131300653.05244     -3385.87544        38.400  

  22025737.96404 130122949.17814      -834.99604        38.800  

  20735625.56005 108966444.09105      1833.53905        39.100  

  23487453.67004 137804314.19904      3805.10504        37.900  

  22324103.99604 131690874.32314      2995.46904        38.500  

  20451869.54505 121852213.25615     -1588.51605        39.300  

  22347176.29704 131812118.54714     -2561.09404        38.300  

  24038619.24504 140700708.00014      2281.19104        37.900  

  19606052.26505 117407413.15215       347.77305        39.600  

 06 10 29 01 46 13.0000000  0  9G22G 6G21G10G30G26G17G16G 1                     
  22250491.43644 131304038.96244     -3386.14144        38.600  

  22025896.91904 130123784.56114      -836.20304        38.700  

  20735276.65545 108964610.72055      1832.85245        39.300  

  23486729.59004 137800509.19914      3804.52004        38.200  

  22323534.00604 131687878.83814      2995.19904        38.600  

  20452171.85545 121853801.81155     -1588.93445        39.500  

  22347663.72504 131814679.87614     -2561.98804        38.500  

  24038185.18504 140698426.92814      2280.80104        37.900  

  19605986.11345 117407065.54155       347.14145        39.700  

 06 10 29 01 46 14.0000000  0  9G22G 6G21G10G30G26G17G16G 1                     
  22251135.79144 131307425.23144     -3386.62944        38.500  

  22026056.04044 130124620.72454      -836.53144        38.700  

  20734927.88245 108962777.91445      1832.63345        39.200  

  23486005.53244 137796704.33154      3804.75444        38.100  

  22322964.01644 131684883.59554      2995.25844        38.600  

  20452474.25845 121855390.78445     -1589.14545        39.200  

  22348151.23744 131817241.68554     -2561.77744        38.700  

  24037751.26544 140696146.47454      2280.35944        37.900  

  19605920.11145 117406718.65745       346.61745        39.600  

 06 10 29 01 46 15.0000000  0  9G22G 6G21G10G30G26G17G16G 1                     
  22251780.27644 131310811.78044     -3386.87944        38.700  

  22026215.28944 130125457.64444      -837.26244        38.700  

  20734579.21405 108960945.64405      1831.83205        39.200  

  23485281.51904 137792899.59304      3804.98004        38.200  

  22322394.07904 131681888.57004      2994.91804        38.500  

  20452776.66445 121856980.08245     -1589.41445        39.300  

  22348638.81004 131819803.99904     -2562.75804        38.400  

  24037317.43104 140693866.53904      2279.76204        37.900  

  19605854.23005 117406372.42705       345.97705        39.600  

 06 10 29 01 46 16.0000000  0  9G22G 6G21G10G30G26G17G16G 1                     
  22252424.77244 131314198.73544     -3387.15244        38.600  

  22026374.72304 130126295.37704      -838.18804        38.600  

  20734230.63805 108959113.94915      1831.59805        38.900  

  23484557.54504 137789095.05914      3804.43804        38.100  

  22321824.18104 131678893.79814      2994.69504        38.500  

  20453079.15445 121858569.83845     -1590.11345        39.300  

  22349126.52404 131822366.81314     -2562.92204        38.500  

  24036883.69444 140691587.22054      2279.08244        37.700  

  19605788.50905 117406026.95915       345.01605        39.600  

 06 10 29 01 46 17.0000000  0  9G22G 6G21G10G30G26G17G16G 1                     
  22253069.35044 131317586.11044     -3387.61344        38.600  

  22026534.29604 130127133.99714      -838.90204        38.600  

  20733882.20805 108957282.93615      1830.60505        39.300  

  23483833.60304 137785290.75814      3804.23004        38.200  

  22321254.39804 131675899.35914      2994.40204        38.500  

  20453381.79345 121860160.03945     -1590.52745        39.000  

  22349614.33204 131824930.26314     -2563.66804        38.300  

  24036450.08804 140689308.56804      2278.27004        37.700  

  19605722.91005 117405682.27115       344.34405        39.600  

 06 10 29 01 46 18.0000000  0  9G22G 6G21G10G30G26G17G16G 1                     
  22253714.01844 131320973.79944     -3387.76244        38.400  

  22026694.03704 130127973.36314      -839.64104        38.700  

  20733533.86205 108955452.41615      1830.38705        39.100  

  23483109.69304 137781486.58114      3804.17604        38.000  

  22320684.60304 131672905.14114      2994.10904        38.200  

  20453684.45205 121861750.62405     -1590.72705        39.300  

  22350102.23404 131827494.19314     -2564.14804        38.500  

  24036016.60404 140687030.47314      2277.95704        37.800  

  19605657.46805 117405338.26615       343.59405        39.600  

 06 10 29 01 46 19.0000000  0  9G22G 6G21G10G30G26G17G16G 1                     
  22254358.75204 131324361.85804     -3388.18804        38.600  

  22026853.91704 130128813.55714      -840.78904        38.600  

  20733185.63505 108953622.51515      1829.68005        39.000  

  23482385.80844 137777682.57354      3803.93844        38.000  

  22320114.87504 131669911.18614      2993.76604        38.500  

  20453987.19145 121863341.61555     -1591.34445        39.300  

  22350590.23144 131830058.61754     -2564.68444        38.500  

  24035583.24104 140684752.96914      2277.21104        37.900  

  19605592.13805 117404994.98315       342.96505        39.600  

 06 10 29 01 46 20.0000000  0  9G22G 6G21G10G30G26G17G16G 1                     
  22255003.50604 131327750.11514     -3388.53904        38.700  

  22027013.89844 130129654.38554      -841.26644        38.500  

  20732837.48445 108951793.03355      1829.26245        39.000  

  23481661.93944 137773878.60844      3803.88344        38.000  

  22319545.22244 131666917.32454      2993.75844        38.500  

  20454290.00445 121864932.85145     -1591.34045        39.400  

  22351078.30644 131832623.44344     -2564.93844        38.600  

  24035149.94444 140682475.92354      2276.94144        37.900  

  19605526.92445 117404652.28255       342.41045        39.700  

 06 10 29 01 46 21.0000000  0  9G22G 6G21G10G30G26G17G16G 1                     
  22255648.31944 131331138.66544     -3388.57044        38.400  

  22027174.03504 130130495.93804      -841.68404        38.800  

  20732489.44945 108949964.06245      1828.69545        38.900  

  23480938.05944 137770074.71944      3803.93844        38.200  

  22318975.53904 131663923.65104      2993.57804        38.600  

  20454592.85405 121866524.42805     -1591.74205        39.100  

  22351566.46304 131835188.69304     -2565.34004        38.500  

  24034716.72344 140680199.39944      2276.49644        37.900  

  19605461.83005 117404310.23005       341.82805        39.600  

 06 10 29 01 46 22.0000000  0  9G22G 6G21G10G30G26G17G16G 1                     
  22256293.21804 131334527.52504     -3388.90204        38.400  

  22027334.32904 130131338.26014      -842.69104        38.400  

  20732141.51445 108948135.60045      1828.25045        39.100  

  23480214.21704 137766270.96304      3803.67204        38.000  

  22318405.92104 131660930.18814      2993.22704        38.500  

  20454895.81605 121868116.34315     -1592.04705        39.200  

  22352054.71504 131837754.42114     -2565.77704        38.500  

  24034283.58904 140677923.40504      2275.74604        37.900  

  19605396.87045 117403968.84655       340.95745        39.700  

 06 10 29 01 46 23.0000000  0  9G22G 6G21G10G30G26G17G16G 1                     
  22256938.11904 131337916.68814     -3389.47304        38.500  

  22027494.77204 130132181.30314      -843.43004        38.600  

  20731793.65745 108946307.65745      1827.73045        39.100  

  23479490.39804 137762467.27714      3804.01604        37.700  

  22317836.33704 131657936.91514      2993.16004        38.500  

  20455198.79605 121869708.60015     -1592.53105        39.200  

  22352543.03804 131840320.60514     -2566.34404        38.700  

  24033850.54504 140675647.94214      2275.29304        37.900  

  19605332.03405 117403628.11705       340.43805        39.600  

 06 10 29 01 46 24.0000000  0  9G22G 6G21G10G30G26G17G16G 1                     
  22257583.11204 131341306.19814     -3389.56304        38.500  

  22027655.34604 130133025.16014      -844.07804        38.600  

  20731445.94145 108944480.32145      1826.77345        39.000  

  23478766.66804 137758663.83214      3803.30904        38.100  

  22317266.76404 131654943.89614      2992.98804        38.600  

  20455501.87505 121871301.29315     -1592.80905        39.400  

  22353031.49244 131842887.35754     -2567.12944        38.400  

  24033417.65404 140673373.11014      2274.55904        37.700  

  19605267.34605 117403288.13415       339.60205        39.600  

 06 10 29 01 46 25.0000000  0  9G22G 6G21G10G30G26G17G16G 1                     
  22258228.22804 131344696.17514     -3390.39104        38.600  

  22027816.08604 130133869.91014      -845.27004        38.800  

  20731098.34705 108942653.63605      1826.32805        39.100  

  23478042.90304 137754860.59614      3803.35904        38.100  

  22316697.28804 131651951.22314      2992.56304        38.600  

  20455805.03805 121872894.43015     -1593.10905        39.300  

  22353520.03644 131845454.66444     -2567.60544        38.200  

  24032984.92444 140671098.94654      2273.98044        37.900  

  19605202.79305 117402948.93015       338.92605        39.500  

 06 10 29 01 46 26.0000000  0  9G22G 6G21G10G30G26G17G16G 1                     
  22258873.36544 131348086.44954     -3390.30544        38.600  

  22027977.00644 130134715.40354      -845.70344        38.700  

  20730750.84745 108940827.47755      1825.94945        39.100  

  23477319.19244 137751057.51554      3803.04344        37.900  

  22316127.86344 131648958.76254      2992.65244        38.500  

  20456108.25945 121874487.98055     -1593.74645        39.100  

  22354008.69344 131848022.47644     -2568.19544        38.400  

  24032552.27744 140668825.33444      2273.44544        37.800  

  19605138.38045 117402610.43255       338.39845        39.700  

 06 10 29 01 46 27.0000000  0  9G22G 6G21G10G30G26G17G16G 1                     
  22259518.52604 131351476.93004     -3390.43004        38.300  

  22028138.03804 130135561.56604      -846.69104        38.600  

  20730403.42845 108939001.75745      1825.15645        39.100  

  23476595.49304 137747254.44204      3802.98004        38.200  

  22315558.48204 131645966.41404      2992.43004        38.600  

  20456411.52205 121876081.73005     -1593.64805        39.300  

  22354497.39144 131850590.62244     -2568.25444        38.300  

  24032119.71044 140666552.15444      2273.18844        37.800  

  19605074.05245 117402272.51145       337.35245        39.700  

 06 10 29 01 46 28.0000000  0  9G22G 6G21G10G30G26G17G16G 1                     
  22260163.77044 131354867.70854     -3391.01644        38.600  

  22028299.20204 130136408.46914      -847.39504        38.700  

  20730056.09405 108937176.55005      1824.85205        39.400  

  23475871.77604 137743451.48614      3802.59804        38.300  

  22314989.07204 131642974.27214      2992.11704        38.400  

  20456714.88745 121877675.85855     -1594.28545        39.300  

  22354986.19344 131853159.27644     -2568.77044        38.400  

  24031687.27144 140664279.56044      2271.97344        37.900  

  19605009.88545 117401935.23345       336.98845        39.500  

 06 10 29 01 46 29.0000000  0  9G22G 6G21G10G30G26G17G16G 1                     
  22260809.05904 131358258.83404     -3391.03504        38.400  

  22028460.49204 130137256.12814      -848.09804        38.600  

  20729708.88445 108935351.88455      1824.40645        39.100  

  23475148.09704 137739648.65414      3802.85204        38.100  

  22314419.71104 131639982.33414      2992.12504        38.300  

  20457018.32645 121879270.36145     -1594.46145        39.300  

  22355475.09004 131855728.40704     -2569.34404        38.400  

  24031254.92504 140662007.49604      2271.50004        37.900  

  19604945.83245 117401598.66145       336.19945        39.600  

 06 10 29 01 46 30.0000000  0  9G22G 6G21G10G30G26G17G16G 1                     
  22261454.40804 131361650.22914     -3391.43404        38.600  

  22028621.93404 130138104.52714      -848.71104        38.700  

  20729361.76204 108933527.72904      1824.02304        38.700  

  23474424.45004 137735845.95114      3802.51204        38.000  

  22313850.42704 131636990.58614      2991.78504        38.500  

  20457321.77805 121880865.18705     -1595.01605        39.500  

  22355964.07504 131858297.98414     -2569.78104        38.500  

  24030822.64704 140659735.92614      2271.03504        37.800  

  19604881.91445 117401262.72745       335.51245        39.700  

 06 10 29 01 46 31.0000000  0  9G22G 6G21G10G30G26G17G16G 1                     
  22262099.84004 131365041.97214     -3392.09804        38.400  

  22028783.54644 130138953.71154      -849.45744        38.500  

  20729014.72705 108931704.15515      1823.37505        39.200  

  23473700.84704 137732043.39314      3802.34404        37.800  

  22313281.16204 131633999.09514      2991.24204        38.300  

  20457625.35705 121882460.38915     -1595.04305        39.000  

  22356453.16104 131860868.05514     -2570.34004        38.600  

  24030390.49304 140657464.96914      2270.76604        38.000  

  19604818.12105 117400927.50405       334.94905        39.600  

 06 10 29 01 46 32.0000000  0  9G22G 6G21G10G30G26G17G16G 1                     
  22262745.33904 131368434.02714     -3392.39504        38.500  

  22028945.27204 130139803.63004      -850.20704        38.600  

  20728667.80945 108929881.10055      1822.68045        39.300  

  23472977.24944 137728240.95154      3802.11744        38.100  

  22312711.90604 131631007.79114      2991.06604        38.500  

  20457928.99205 121884055.96415     -1595.75405        39.300  

  22356942.31004 131863438.59114     -2570.71904        38.400  

  24029958.45504 140655194.54814      2270.17604        37.600  

  19604754.44105 117400592.94615       334.31605        39.500  

 06 10 29 01 46 33.0000000  0  9G22G 6G21G10G30G26G17G16G 1                     
  22263390.86104 131371826.40114     -3392.72704        38.700  

  22029107.16804 130140654.35714      -851.37504        38.500  

  20728320.98745 108928058.58345      1822.34045        38.900  

  23472253.72244 137724438.64744      3801.88744        38.000  

  22312142.69504 131628016.71014      2990.93004        38.200  

  20458232.69005 121885651.91015     -1596.25005        39.300  

  22357431.55404 131866009.63214     -2571.27304        38.600  

  24029526.52304 140652924.70214      2269.48404        37.700  

  19604690.93305 117400259.10115       333.45305        39.600  

 06 10 29 01 46 34.0000000  0  9G22G 6G21G10G30G26G17G16G 1                     
  22264036.50004 131375219.12814     -3392.76604        38.700  

  22029269.24104 130141505.85714      -851.94104        38.700  

  20727974.29345 108926236.64945      1821.62145        39.000  

  23471530.21744 137720636.52044      3801.99244        38.100  

  22311573.55304 131625025.90314      2990.77304        38.400  

  20458536.45905 121887248.24815     -1596.60505        39.100  

  22357920.90644 131868581.20154     -2571.80144        38.300  

  24029094.71504 140650655.45614      2268.96904        37.900  

  19604627.54805 117399925.97515       332.84005        39.600  

 06 10 29 01 46 35.0000000  0  9G22G 6G21G10G30G26G17G16G 1                     
  22264682.18304 131378612.16214     -3393.29304        38.300  

  22029431.40344 130142358.07954      -852.67644        38.700  

  20727627.70345 108924415.22945      1821.35245        39.100  

  23470806.70944 137716834.47744      3802.09844        38.200  

  22311004.45604 131622035.26214      2990.49604        38.500  

  20458840.29545 121888844.91455     -1596.64545        39.400  

  22358410.34304 131871153.19704     -2572.00404        38.500  

  24028662.99604 140648386.72014      2268.51204        37.700  

  19604564.29605 117399593.47915       332.22305        39.400  

 06 10 29 01 46 36.0000000  0  9G22G 6G21G10G30G26G17G16G 1                     
  22265327.89604 131382005.36014     -3393.37904        38.700  

  22029593.69844 130143210.95644      -853.17644        38.400  

  20727281.17945 108922594.22845      1820.67245        39.200  

  23470083.21044 137713032.48044      3801.94144        38.100  

  22310435.34604 131619044.73214      2990.38704        38.600  

  20459144.17905 121890441.83105     -1596.88305        38.900  

  22358899.84904 131873725.55614     -2572.55904        38.500  

  24028231.35804 140646118.43114      2268.06604        38.000  

  19604501.12705 117399261.56815       331.42605        39.700  

 06 10 29 01 46 37.0000000  0  9G22G 6G21G10G30G26G17G16G 1                     
  22265973.69704 131385398.93114     -3393.78504        38.500  

  22029756.17144 130144064.61544      -854.16844        38.700  

  20726934.76205 108920773.77505      1820.29305        38.900  

  23469359.75104 137709230.60204      3801.64104        38.200  

  22309866.31004 131616054.42114      2990.36304        38.500  

  20459448.16605 121892039.14315     -1597.48005        39.300  

  22359389.44804 131876298.44014     -2573.43404        38.500  

  24027799.84104 140643850.70614      2267.60904        37.700  

  19604438.08605 117398930.33615       330.88305        39.500  

 06 10 29 01 46 38.0000000  0  9G22G 6G21G10G30G26G17G16G 1                     
  22266619.51944 131388792.72054     -3393.91844        38.500  

  22029918.74744 130144918.95944      -854.62144        38.500  

  20726588.46705 108918953.82315      1819.64105        39.100  

  23468636.28044 137705428.79254      3801.92644        38.100  

  22309297.29144 131613064.29354      2989.80544        38.400  

  20459752.17345 121893636.73955     -1597.69545        39.200  

  22359879.12944 131878871.69854     -2573.39544        38.600  

  24027368.39144 140641583.47754      2267.12544        37.800  

  19604375.18845 117398599.73655       330.14545        39.600  

 06 10 29 01 46 39.0000000  0  9G22G 6G21G10G30G26G17G16G 1                     
  22267265.41104 131392186.76704     -3394.11704        38.400  

  22030081.43344 130145773.98844      -855.27744        38.600  

  20726242.20405 108917134.29905      1819.04305        39.200  

  23467912.83904 137701627.05404      3801.73804        37.900  

  22308728.31604 131610074.28304      2989.65204        38.600  

  20460056.25005 121895234.61905     -1598.09405        39.300  

  22360368.89904 131881445.38904     -2574.14804        38.300  

  24026937.03504 140639316.74204      2266.34404        38.000  

  19604312.39405 117398269.73005       329.61305        39.400  

 06 10 29 01 46 40.0000000  0  9G22G 6G21G10G30G26G17G16G 1                     
  22267911.34204 131395581.18114     -3394.70704        38.500  

  22030244.29844 130146629.83344      -856.27044        38.600  

  20725896.08405 108915315.36805      1818.58205        39.200  

  23467189.41204 137697825.48914      3801.43404        38.200  

  22308159.31104 131607084.51114      2989.89804        38.300  

  20460360.41905 121896832.91515     -1598.50405        39.300  

  22360858.77804 131884019.59414     -2574.47304        38.500  

  24026505.81004 140637050.60014      2266.11304        37.900  

  19604249.74345 117397940.47055       328.81345        39.700  

 06 10 29 01 46 41.0000000  0  9G22G 6G21G10G30G26G17G16G 1                     
  22268557.38204 131398976.04114     -3395.11704        38.600  

  22030407.32704 130147486.56104      -856.98004        38.700  

  20725550.08405 108913497.11605      1817.81305        39.000  

  23466466.02604 137694024.19314      3801.03904        38.200  

  22307590.40104 131604095.10914      2989.22704        38.500  

  20460664.64905 121898431.69515     -1599.14505        39.000  

  22361348.76604 131886594.38314     -2574.80104        38.100  

  24026074.71504 140634785.14314      2265.14804        38.000  

  19604187.24505 117397611.99505       328.08605        39.600  

 06 10 29 01 46 42.0000000  0  9G22G 6G21G10G30G26G17G16G 1                     
  22269203.49104 131402371.32614     -3395.68404        38.500  

  22030570.52704 130148344.18514      -858.08204        38.500  

  20725204.20205 108911679.51505      1817.37505        39.100  

  23465742.70804 137690223.14314      3801.00804        38.000  

  22307021.64304 131601106.06014      2988.87104        38.400  

  20460968.98505 121900030.95715     -1599.50805        39.300  

  22361838.84804 131889169.81214     -2575.66004        38.300  

  24025643.73244 140632520.35854      2264.60244        37.700  

  19604124.90605 117397284.33915       327.45705        39.700  

 06 10 29 01 46 43.0000000  0  9G22G 6G21G10G30G26G17G16G 1                     
  22269849.62904 131405766.90514     -3395.70704        38.600  

  22030733.88604 130149202.52114      -858.72304        38.800  

  20724858.41705 108909862.43505      1816.93005        39.000  

  23465019.41604 137686422.20114      3801.00804        38.100  

  22306452.87904 131598117.16814      2988.89104        38.500  

  20461273.39405 121901630.56615     -1599.78105        39.200  

  22362328.99844 131891745.65454     -2575.55944        38.500  

  24025212.86304 140630256.12804      2263.85904        37.800  

  19604062.68005 117396957.34615       326.74205        39.400  

 06 10 29 01 46 44.0000000  0  9G22G 6G21G10G30G26G17G16G 1                     
  22270495.83444 131409162.74854     -3395.96144        38.600  

  22030897.35644 130150061.56354      -859.33244        38.600  

  20724512.69945 108908045.83845      1816.50445        39.100  

  23464296.10644 137682621.32454      3801.16044        38.100  

  22305884.21144 131595128.45154      2988.78544        38.500  

  20461577.84245 121903230.47155     -1600.10945        39.300  

  22362819.25844 131894321.96244     -2576.62944        38.400  

  24024782.08544 140627992.37354      2263.32844        37.900  

  19604000.56845 117396630.95755       326.16445        39.500  

 06 10 29 01 46 45.0000000  0  9G22G 6G21G10G30G26G17G16G 1                     
  22271142.09244 131412558.86244     -3396.44144        38.400  

  22031060.98004 130150921.33604      -860.19504        38.700  

  20724167.10304 108906229.72404      1816.02304        38.800  

  23463572.85104 137678820.55204      3800.66404        38.000  

  22305315.50604 131592139.90304      2988.48404        38.700  

  20461882.37205 121904830.70105     -1600.52005        39.200  

  22363309.59004 131896898.66204     -2576.65204        38.700  

  24024351.41204 140625729.12804      2263.05504        37.900  

  19603938.57045 117396305.22745       325.27345        39.700  

 06 10 29 01 46 46.0000000  0  9G22G 6G21G10G30G26G17G16G 1                     
  22271788.36404 131415955.20404     -3396.34404        38.600  

  22031224.69504 130151781.77314      -860.82804        38.700  

  20723821.61305 108904414.09215      1815.14105        39.200  

  23462849.59704 137675019.81814      3800.75804        38.100  

  22304746.84744 131589151.49954      2988.13744        38.600  

  20462186.94945 121906431.20255     -1600.66045        39.300  

  22363800.00844 131899475.77754     -2577.28944        38.300  

  24023920.81004 140623466.37914      2262.59404        37.600  

  19603876.69905 117395980.07605       324.85505        39.700  

 06 10 29 01 46 47.0000000  0  9G22G 6G21G10G30G26G17G16G 1                     
  22272434.72204 131419351.85414     -3396.81604        38.500  

  22031388.54604 130152642.96714      -861.65204        38.400  

  20723476.21905 108902598.95815      1814.86305        39.200  

  23462126.38904 137671219.19914      3800.62104        37.900  

  22304178.19204 131586163.28604      2988.02304        38.500  

  20462491.57145 121908032.04945     -1600.94545        39.200  

  22364290.49504 131902053.35304     -2577.41004        38.600  

  24023490.30404 140621204.14814      2262.08604        37.900  

  19603814.97205 117395655.61515       324.13305        39.700  

 06 10 29 01 46 48.0000000  0  9G22G 6G21G10G30G26G17G16G 1                     
  22273081.15404 131422748.85014     -3397.38704        38.600  

  22031552.56844 130153504.91454      -862.29744        38.600  

  20723130.93505 108900784.38215      1814.23005        39.200  

  23461403.18404 137667418.74814      3800.38704        38.100  

  22303609.63704 131583175.31614      2987.63704        38.300  

  20462796.29245 121909633.27545     -1601.41045        39.300  

  22364781.10844 131904631.43854     -2578.35244        38.400  

  24023059.91604 140618942.51414      2261.28104        38.000  

  19603753.36505 117395331.83615       323.30905        39.700  

 06 10 29 01 46 49.0000000  0  9G22G 6G21G10G30G26G17G16G 1                     
  22273727.66804 131426146.18714     -3397.80104        38.400  

  22031716.74644 130154367.69344      -863.11744        38.400  

  20722785.71405 108898970.40915      1813.76205        39.100  

  23460680.02704 137663618.46114      3800.37104        38.200  

  22303041.09204 131580187.58314      2987.66404        38.500  

  20463101.07945 121911234.93845     -1601.74245        39.200  

  22365271.79244 131907210.01944     -2578.78544        38.500  

  24022629.67744 140616681.48654      2260.59044        37.900  

  19603691.89145 117395008.77455       322.82445        39.400  

 06 10 29 01 46 50.0000000  0  9G22G 6G21G10G30G26G17G16G 1                     
  22274374.25904 131429543.97814     -3398.15204        38.600  

  22031881.10304 130155231.34604      -863.87904        38.500  

  20722440.65405 108897157.09915      1812.97305        39.300  

  23459956.91204 137659818.46014      3799.90204        38.000  

  22302472.60504 131577200.22914      2987.33204        38.600  

  20463405.95745 121912837.06145     -1602.09445        39.100  

  22365762.60944 131909789.23844     -2579.57044        38.200  

  24022199.54544 140614421.11444      2259.93844        37.900  

  19603630.56945 117394686.55345       321.77745        39.500  

 06 10 29 01 46 51.0000000  0  9G22G 6G21G10G30G26G17G16G 1                     
  22275020.91904 131432942.19614     -3398.07804        38.500  

  22032045.62144 130156095.89954      -864.76644        38.600  

  20722095.71905 108895344.44915      1812.50805        39.200  

  23459233.82304 137656018.70314      3799.49604        37.900  

  22301904.15704 131574213.19814      2987.05104        38.500  

  20463710.92005 121914439.68705     -1602.68805        39.000  

  22366253.50144 131912369.04444     -2580.03944        38.400  

  24021769.54944 140612161.46744      2259.30544        37.800  

  19603569.42345 117394365.12245       321.04745        39.600  

 06 10 29 01 46 52.0000000  0  9G22G 6G21G10G30G26G17G16G 1                     
  22275667.62544 131436340.68454     -3398.60944        38.600  

  22032210.26304 130156961.13304      -865.47704        38.600  

  20721750.87505 108893532.29315      1811.91405        39.000  

  23458510.74004 137652218.99314      3799.89104        38.100  

  22301335.76444 131571226.32754      2986.72744        38.600  

  20464015.93505 121916042.59515     -1603.18005        39.100  

  22366744.50144 131914949.23744     -2580.20344        38.500  

  24021339.64644 140609902.27744      2259.06644        37.900  

  19603508.37545 117394044.29645       320.70745        39.600  

 06 10 29 01 46 53.0000000  0  9G22G 6G21G10G30G26G17G16G 1                     
  22276314.37144 131439739.39944     -3398.80544        38.600  

  22032375.04704 130157827.08414      -866.42604        38.700  

  20721406.11145 108891720.57455      1811.43445        39.100  

  23457787.68104 137648419.36014      3799.84804        37.900  

  22300767.36704 131568239.60404      2986.35904        38.100  

  20464321.01705 121917645.82115     -1603.46905        39.200  

  22367235.60744 131917529.87244     -2580.70344        38.500  

  24020909.83844 140607643.59144      2258.29344        37.500  

  19603447.43845 117393724.10345       319.82445        39.400  

 06 10 29 01 46 54.0000000  0  9G22G 6G21G10G30G26G17G16G 1                     
  22276961.18544 131443138.36644     -3399.04344        38.400  

  22032539.95604 130158693.65814      -866.48004        38.400  

  20721061.44505 108889909.34005      1810.98805        39.300  

  23457064.66204 137644619.81014      3799.50404        38.000  

  22300199.00344 131565252.99654      2986.54744        38.400  

  20464626.13105 121919249.30015     -1603.50805        39.300  

  22367726.75104 131920110.88504     -2581.22304        38.500  

  24020480.13904 140605385.38304      2258.07404        37.800  

  19603386.62705 117393404.51105       319.19105        39.300  

 06 10 29 01 46 55.0000000  0  9G22G 6G21G10G30G26G17G16G 1                     
  22277608.02244 131446537.52044     -3399.17244        38.500  

  22032705.01404 130159560.94014      -867.71104        38.400  

  20720716.86445 108888098.51855      1810.35945        39.100  

  23456341.62604 137640820.24314      3799.68804        38.100  

  22299630.68444 131562266.52144      2986.36744        38.500  

  20464931.33705 121920853.03615     -1603.85905        39.400  

  22368218.00104 131922692.28914     -2581.74604        38.600  

  24020050.49504 140603127.60114      2257.57804        38.000  

  19603325.91605 117393085.46515       318.73005        39.500  

 06 10 29 01 46 56.0000000  0  9G22G 6G21G10G30G26G17G16G 1                     
  22278254.88704 131449936.90504     -3399.32004        38.500  

  22032870.15704 130160428.84214      -867.95704        38.600  

  20720372.34545 108886288.14145      1810.09845        39.100  

  23455618.60104 137637020.72114      3799.63704        38.000  

  22299062.38244 131559280.15144      2986.41444        38.400  

  20465236.58205 121922457.06415     -1604.18805        39.100  

  22368709.29504 131925274.04014     -2581.84404        38.500  

  24019620.93604 140600870.30414      2256.95304        37.800  

  19603265.31345 117392767.01655       318.37145        39.400  

 06 10 29 01 46 57.0000000  0  9G22G 6G21G10G30G26G17G16G 1                     
  22278901.80904 131453336.57814     -3399.79304        38.600  

  22033035.47704 130161297.50914      -869.03904        38.500  

  20720027.92645 108884478.30045      1809.27345        39.100  

  23454895.57104 137633221.31014      3799.30904        37.800  

  22298494.14204 131556293.96204      2986.00004        38.500  

  20465541.89505 121924061.38515     -1604.53505        39.100  

  22369200.65604 131927856.24214     -2582.33604        38.500  

  24019191.46904 140598613.52214      2256.63304        37.800  

  19603204.85745 117392449.22145       317.54345        39.600  

 06 10 29 01 46 58.0000000  0  9G22G 6G21G10G30G26G17G16G 1                     
  22279548.82944 131456736.66554     -3400.56344        38.300  

  22033200.94644 130162167.01454      -870.24244        38.500  

  20719683.62645 108882669.05245      1808.96145        39.100  

  23454172.62204 137629422.13214      3799.00404        38.000  

  22297925.96404 131553308.08814      2985.77304        38.400  

  20465847.28905 121925666.17415     -1605.17205        39.100  

  22369692.13244 131930439.00754     -2582.78944        38.500  

  24018762.14804 140596357.38614      2255.81604        37.800  

  19603144.53905 117392132.18805       316.79305        39.700  

 06 10 29 01 46 59.0000000  0  9G22G 6G21G10G30G26G17G16G 1                     
  22280195.91304 131460137.11904     -3400.50404        38.600  

  22033366.56004 130163037.33304      -870.64804        38.500  

  20719339.46545 108880860.44345      1808.53545        39.000  

  23453449.70604 137625623.16714      3798.87504        38.100  

  22297357.85404 131550322.51914      2985.35204        38.400  

  20466152.77345 121927271.43455     -1605.64145        39.300  

  22370183.72344 131933022.37244     -2583.75044        38.400  

  24018332.95244 140594101.90654      2255.36344        37.900  

  19603084.35505 117391815.95215       315.70705        39.500  

 06 10 29 01 47  0.0000000  0  9G22G 6G21G10G30G26G17G16G 1                     
  22280843.06904 131463538.01614     -3400.91804        38.400  

  22033532.37804 130163908.55514      -871.41404        38.600  

  20718995.41545 108879052.48645      1807.68045        39.200  

  23452726.80804 137621824.43914      3798.71104        38.100  

  22296789.75344 131547337.26354      2985.12144        38.400  

  20466458.33205 121928877.12605     -1606.02305        39.200  

  22370675.43904 131935606.27504     -2583.99204        38.600  

  24017903.87604 140591847.08504      2254.42204        37.900  

  19603024.32745 117391500.47355       315.11345        39.600  

 06 10 29 01 47  1.0000000  0  9G22G 6G21G10G30G26G17G16G 1                     
  22281490.28904 131466939.21414     -3401.11704        38.600  

  22033698.30104 130164780.51514      -872.20304        38.600  

  20718651.47405 108877245.06305      1807.26205        38.900  

  23452003.95304 137618025.84114      3798.64104        38.100  

  22296221.71304 131544352.22504      2984.64104        38.400  

  20466763.93805 121930483.18615     -1606.23005        39.100  

  22371167.20004 131938190.67714     -2584.53904        38.300  

  24017474.89704 140589592.80514      2253.87104        37.800  

  19602964.42905 117391185.67405       314.54705        39.600  

 06 10 29 01 47  2.0000000  0  9G22G 6G21G10G30G26G17G16G 1                     
  22282137.52644 131470340.67254     -3401.66844        38.300  

  22033864.33644 130165653.16054      -872.89144        38.500  

  20718307.62245 108875438.12355      1806.68845        39.100  

  23451281.11244 137614227.28954      3798.62144        38.100  

  22295653.70644 131541367.34554      2984.69544        38.400  

  20467069.62945 121932089.53255     -1606.49245        39.400  

  22371659.05544 131940775.47054     -2584.96944        38.600  

  24017045.99044 140587339.02254      2253.59844        37.800  

  19602904.64445 117390871.49955       313.81345        39.600  

 06 10 29 01 47  3.0000000  0  9G22G 6G21G10G30G26G17G16G 1                     
  22282784.86104 131473742.36604     -3401.65204        38.600  

  22034030.50404 130166526.52104      -873.81604        38.800  

  20717963.88905 108873631.64505      1806.11305        39.200  

  23450558.30444 137610428.83844      3798.22744        38.000  

  22295085.72004 131538382.58104      2984.93804        38.300  

  20467375.39005 121933696.19105     -1606.84405        39.100  

  22372151.00004 131943360.68104     -2585.53904        38.400  

  24016617.19004 140585085.74004      2253.11704        37.800  

  19602844.98105 117390557.92905       313.25805        39.500  

 06 10 29 01 47  4.0000000  0  9G22G 6G21G10G30G26G17G16G 1                     
  22283432.25804 131477144.37514     -3402.14504        38.500  

  22034196.83744 130167400.61954      -874.37144        38.600  

  20717620.23405 108871825.71915      1805.53905        38.900  

  23449835.53004 137606630.51904      3798.07804        38.000  

  22294517.81004 131535398.07514      2984.32404        38.500  

  20467681.19905 121935303.20115     -1607.06305        39.200  

  22372643.00204 131945946.35514     -2585.80904        38.500  

  24016188.50304 140582832.99914      2252.41404        37.800  

  19602785.44845 117390245.04955       312.48045        39.600  

 06 10 29 01 47  5.0000000  0  9G22G 6G21G10G30G26G17G16G 1                     
  22284079.72104 131480546.72514     -3402.25004        38.400  

  22034363.34744 130168275.51044      -875.22744        38.600  

  20717276.66305 108870020.33515      1804.96105        39.100  

  23449112.77104 137602832.34414      3798.20304        38.000  

  22293949.90404 131532413.79214      2984.00404        38.400  

  20467987.06905 121936910.59415     -1607.41805        39.100  

  22373135.17304 131948532.55514     -2586.41404        38.400  

  24015759.93704 140580580.84414      2252.16404        37.800  

  19602726.03705 117389932.85405       311.85505        39.600  

 06 10 29 01 47  6.0000000  0  9G22G 6G21G10G30G26G17G16G 1                     
  22284727.22804 131483949.33614     -3402.50004        38.500  

  22034529.95444 130169151.11144      -875.73844        38.800  

  20716933.21445 108868215.44855      1804.89545        39.000  

  23448390.02404 137599034.25114      3798.17204        38.000  

  22293382.08044 131529429.65654      2984.28144        38.500  

  20468292.99705 121938518.31015     -1607.78905        39.300  

  22373627.38204 131951119.15514     -2586.75804        38.700  

  24015331.45704 140578329.24114      2251.36704        37.900  

  19602666.76005 117389621.31715       311.26205        39.700  

 06 10 29 01 47  7.0000000  0  9G22G 6G21G10G30G26G17G16G 1                     
  22285374.76844 131487352.23254     -3403.19144        38.300  

  22034696.70444 130170027.42044      -876.76644        38.500  

  20716589.84405 108866411.05305      1804.22705        39.100  

  23447667.30204 137595236.23614      3798.09404        37.900  

  22292814.25704 131526445.70104      2983.91004        38.400  

  20468598.96005 121940126.31315     -1608.20305        39.200  

  22374119.67344 131953706.17154     -2587.07044        38.400  

  24014903.03404 140576078.10914      2250.77004        37.800  

  19602607.60345 117389310.37155       310.79345        39.600  

 06 10 29 01 47  8.0000000  0  9G22G 6G21G10G30G26G17G16G 1                     
  22286022.32944 131490755.36744     -3403.17644        38.400  

  22034863.59744 130170904.44244      -877.47344        38.700  

  20716246.57745 108864607.17555      1803.59845        39.000  

  23446944.61544 137591438.33354      3797.98044        38.100  

  22292246.47144 131523461.93254      2983.59444        38.600  

  20468905.03445 121941734.65355     -1608.54345        39.300  

  22374612.05044 131956293.64244     -2587.76644        38.400  

  24014474.73544 140573827.46554      2250.52744        37.800  

  19602548.55845 117389000.09545       310.13345        39.600  

 06 10 29 01 47  9.0000000  0  9G22G 6G21G10G30G26G17G16G 1                     
  22286669.99304 131494158.91904     -3403.60504        38.400  

  22035030.66344 130171782.30244      -878.27044        38.600  

  20715903.44745 108862803.90345      1802.78545        39.100  

  23446221.95104 137587640.65604      3797.70304        38.000  

  22291678.70704 131520478.46304      2983.46504        38.600  

  20469211.18505 121943343.46305     -1608.84805        39.100  

  22375104.54304 131958881.66004     -2588.24204        38.400  

  24014046.56404 140571577.49504      2249.63304        37.900  

  19602489.66705 117388690.57905       309.28105        39.700  

 06 10 29 01 47 10.0000000  0  9G22G 6G21G10G30G26G17G16G 1                     
  22287317.74404 131497562.89914     -3404.34004        38.600  

  22035197.89304 130172661.02904      -878.99204        38.500  

  20715560.40205 108861001.28705      1802.09005        39.100  

  23445499.31604 137583843.21614      3797.31604        38.000  

  22291111.01904 131517495.31414      2982.98404        38.700  

  20469517.41605 121944952.71915     -1609.73005        39.200  

  22375597.15404 131961470.28514     -2588.90204        38.500  

  24013618.53104 140569328.20914      2248.82804        37.800  

  19602430.94005 117388381.85815       308.31605        39.600  

 06 10 29 01 47 11.0000000  0  9G22G 6G21G10G30G26G17G16G 1                     
  22287965.52004 131500967.23714     -3404.50404        38.400  

  22035365.24004 130173540.59514      -880.02304        38.500  

  20715217.46905 108859199.26715      1801.73405        39.300  

  23444776.70904 137580045.94714      3797.30504        37.900  

  22290543.38704 131514512.43914      2982.71504        38.400  

  20469823.72005 121946562.37815     -1609.77305        39.100  

  22376089.86704 131964059.40714     -2589.43804        38.300  

  24013190.62104 140567079.50114      2248.41404        37.900  

  19602372.34005 117388073.85715       307.73805        39.600  

 06 10 29 01 47 12.0000000  0  9G22G 6G21G10G30G26G17G16G 1                     
  22288613.41004 131504371.83314     -3404.58604        38.500  

  22035532.74844 130174420.84554      -880.55544        38.600  

  20714874.64305 108857397.73315      1801.11705        39.300  

  23444054.14244 137576248.77954      3797.10244        38.000  

  22289975.81104 131511529.69714      2982.86304        38.400  

  20470130.09005 121948172.35815     -1610.45705        39.300  

  22376582.63604 131966648.95814     -2589.55104        38.500  

  24012762.80804 140564831.31614      2247.67204        37.900  

  19602313.86105 117387766.48515       307.10905        39.800  

 06 10 29 01 47 13.0000000  0  9G22G 6G21G10G30G26G17G16G 1                     
  22289261.34304 131507776.69014     -3405.12504        38.500  

  22035700.40604 130175301.77304      -881.30904        38.700  

  20714531.90505 108855596.65515      1801.16005        39.000  

  23443331.56944 137572451.65644      3797.04744        38.100  

  22289408.24504 131508547.13714      2982.61704        38.300  

  20470436.50905 121949782.59215     -1610.03505        39.100  

  22377075.44804 131969238.91714     -2590.30504        38.400  

  24012335.07304 140562583.62214      2247.50804        37.800  

  19602255.48005 117387459.73315       306.48005        39.700  

 06 10 29 01 47 14.0000000  0  9G22G 6G21G10G30G26G17G16G 1                     
  22289909.30804 131511181.72614     -3404.97704        38.700  

  22035868.18204 130176183.39214      -882.13304        38.500  

  20714189.26705 108853796.05715      1800.02305        39.100  

  23442609.01544 137568654.60944      3796.93044        38.200  

  22288840.67804 131505564.70114      2982.27304        38.400  

  20470742.99705 121951393.13915     -1610.71105        39.200  

  22377568.37404 131971829.25114     -2590.51204        38.500  

  24011907.44704 140560336.40214      2246.80504        38.000  

  19602197.21305 117387153.57215       305.69905        39.700  

 06 10 29 01 47 15.0000000  0  9G22G 6G21G10G30G26G17G16G 1                     
  22290557.36204 131514587.14914     -3405.67204        38.400  

  22036036.11704 130177065.77914      -882.83204        38.500  

  20713846.73005 108851995.99315      1799.81605        39.300  

  23441886.47144 137564857.69344      3796.70344        38.200  

  22288273.16004 131502582.49314      2982.27304        38.500  

  20471049.54805 121953004.07815     -1611.11705        39.400  

  22378061.40504 131974420.11314     -2591.17204        38.500  

  24011479.96204 140558089.74614      2246.50004        37.900  

  19602139.08405 117386848.11115       305.03505        39.600  

 06 10 29 01 47 16.0000000  0  9G22G 6G21G10G30G26G17G16G 1                     
  22291205.46104 131517992.81814     -3405.89504        38.300  

  22036204.17604 130177948.89414      -883.52004        38.600  

  20713504.28005 108850196.44415      1799.42205        39.100  

  23441163.93244 137561060.89444      3796.64844        38.200  

  22287705.73204 131499600.47814      2981.65604        38.200  

  20471356.14805 121954615.33015     -1611.26205        39.300  

  22378554.50644 131977011.35354     -2591.09844        38.300  

  24011052.52904 140555843.61814      2245.98004        38.000  

  19602081.08505 117386543.30215       304.28505        39.400  

 06 10 29 01 47 17.0000000  0  9G22G 6G21G10G30G26G17G16G 1                     
  22291853.60404 131521398.76614     -3406.14104        38.400  

  22036372.36104 130178832.69614      -884.15604        38.600  

  20713161.93805 108848397.39215      1798.80905        39.300  

  23440441.46544 137557264.15644      3796.99244        38.000  

  22287138.28704 131496618.61114      2981.69904        38.400  

  20471662.80105 121956226.87115     -1611.76205        39.300  

  22379047.72204 131979603.06804     -2591.87104        38.500  

  24010625.19004 140553597.98314      2245.34404        38.000  

  19602023.18805 117386239.10415       303.65205        39.600  

 06 10 29 01 47 18.0000000  0  9G22G 6G21G10G30G26G17G16G 1                     
  22292501.78304 131524804.94514     -3406.34804        38.500  

  22036540.68404 130179717.21714      -884.84804        38.700  

  20712819.68005 108846598.81015      1798.53905        39.300  

  23439718.97404 137553467.51304      3796.55904        38.100  

  22286570.89004 131493636.90814      2981.56304        38.300  

  20471969.50805 121957838.73015     -1611.94905        39.200  

  22379540.99544 131982195.18454     -2592.48444        38.500  

  24010197.95444 140551352.87054      2244.88344        38.100  

  19601965.39905 117385935.53515       303.16405        39.700  

 06 10 29 01 47 19.0000000  0  9G22G 6G21G10G30G26G17G16G 1                     
  22293150.05104 131528211.46514     -3406.54304        38.600  

  22036709.13604 130180602.51814      -885.85204        38.600  

  20712477.53705 108844800.81815      1797.16805        39.100  

  23438996.52704 137549671.03314      3796.76204        37.600  

  22286003.55304 131490655.42414      2981.59404        38.400  

  20472276.29805 121959450.98015     -1612.74205        39.300  

  22380034.35244 131984787.77444     -2592.71544        38.300  

  24009770.81944 140549108.33544      2244.08244        37.800  

  19601907.76845 117385632.66255       302.41445        39.700  

 06 10 29 01 47 20.0000000  0  9G22G 6G21G10G30G26G17G16G 1                     
  22293798.34144 131531618.30954     -3407.01244        38.200  

  22036877.75744 130181488.56554      -886.45744        38.600  

  20712135.51145 108843003.33555      1797.13745        39.100  

  23438274.10344 137545874.67954      3796.35244        37.900  

  22285436.22944 131487674.18454      2981.22744        38.500  

  20472583.15445 121961063.56555     -1612.87945        39.200  

  22380527.79844 131987380.86344     -2593.46544        38.500  

  24009343.78444 140546864.34944      2243.60244        37.900  

  19601850.27045 117385330.48145       301.77045        39.600  

 06 10 29 01 47 21.0000000  0  9G22G 6G21G10G30G26G17G16G 1                     
  22294446.72004 131535025.53104     -3407.33204        38.400  

  22037046.52404 130182375.44304      -887.13304        38.800  

  20711793.57145 108841206.47945      1796.67645        39.300  

  23437551.74104 137542078.52604      3796.19904        38.000  

  22284868.99204 131484693.23604      2980.69504        38.500  

  20472890.09005 121962676.58805     -1613.00405        39.300  

  22381021.33204 131989974.46604     -2593.65204        38.500  

  24008916.83804 140544620.99804      2243.03104        38.000  

  19601792.88005 117385029.02405       301.18405        39.700  

 06 10 29 01 47 22.0000000  0  9G22G 6G21G10G30G26G17G16G 1                     
  22295095.17004 131538433.10614     -3407.87104        38.400  

  22037215.46204 130183263.12214      -888.15604        38.500  

  20711451.75445 108839410.18245      1796.14145        39.200  

  23436829.36544 137538282.54454      3795.93044        38.200  

  22284301.81604 131481712.51814      2980.49604        38.400  

  20473197.11305 121964290.03315     -1613.83605        39.200  

  22381514.97704 131992568.60314     -2594.34004        38.300  

  24008490.06144 140542378.24854      2242.50444        37.800  

  19601735.66005 117384728.30215       300.29305        39.600  

 06 10 29 01 47 23.0000000  0  9G22G 6G21G10G30G26G17G16G 1                     
  22295743.67904 131541840.99714     -3407.91404        38.500  

  22037384.53404 130184151.56614      -888.67604        38.800  

  20711110.02745 108837614.46745      1795.56345        39.200  

  23436107.06104 137534486.74404      3795.59004        38.200  

  22283734.65204 131478732.05514      2980.41004        38.500  

  20473504.22745 121965903.84655     -1613.94945        39.100  

  22382008.72104 131995163.21614     -2594.64504        38.500  

  24008063.37344 140540136.06644      2241.86344        37.900  

  19601678.54905 117384428.30115       299.71505        39.700  

 06 10 29 01 47 24.0000000  0  9G22G 6G21G10G30G26G17G16G 1                     
  22296392.21904 131545249.23814     -3408.38304        38.500  

  22037553.73904 130185040.82614      -889.77304        38.800  

  20710768.39605 108835819.31905      1794.96105        39.000  

  23435384.76304 137530691.08614      3795.31604        38.200  

  22283167.52704 131475751.81114      2980.41004        38.700  

  20473811.37005 121967518.02105     -1614.31305        39.300  

  22382502.56204 131997758.35714     -2595.40204        38.500  

  24007636.83344 140537894.47644      2241.35244        37.800  

  19601621.57505 117384128.96115       299.09005        39.500  

 06 10 29 01 47 25.0000000  0  9G22G 6G21G10G30G26G17G16G 1                     
  22297040.84044 131548657.72454     -3408.33244        38.400  

  22037723.08204 130185930.74114      -890.14804        38.600  

  20710426.85705 108834024.63715      1794.62905        39.200  

  23434662.48104 137526895.50114      3795.64104        38.300  

  22282600.45004 131472771.73714      2980.31604        38.600  

  20474118.60645 121969132.52455     -1614.43045        39.200  

  22382996.45204 132000353.87814     -2595.78504        38.400  

  24007210.37844 140535653.40444      2240.54344        37.800  

  19601564.72705 117383830.27315       298.41405        39.700  

 06 10 29 01 47 26.0000000  0  9G22G 6G21G10G30G26G17G16G 1                     
  22297689.54104 131552066.53604     -3408.99604        38.400  

  22037892.59204 130186821.43014      -891.16804        38.600  

  20710085.40205 108832230.49515      1793.77705        39.100  

  23433940.21744 137523100.04654      3795.26244        37.900  

  22282033.45004 131469791.87914      2979.59804        38.600  

  20474425.90845 121970747.35245     -1615.09045        39.300  

  22383490.48444 132002949.87454     -2596.31644        38.300  

  24006784.02044 140533412.84344      2240.17244        37.900  

  19601507.99945 117383532.26055       297.50045        39.800  

 06 10 29 01 47 27.0000000  0  9G22G 6G21G10G30G26G17G16G 1                     
  22298338.22444 131555475.54254     -3409.22744        38.600  

  22038062.18604 130187712.77914      -891.75404        38.700  

  20709744.09305 108830436.79715      1793.56305        39.100  

  23433217.95004 137519304.63104      3795.63704        38.000  

  22281466.41704 131466812.14514      2979.49204        38.400  

  20474733.25945 121972362.46345     -1615.23445        39.100  

  22383984.56604 132005546.24804     -2596.60504        38.500  

  24006357.76104 140531172.76704      2239.76604        37.900  

  19601451.40745 117383234.80245       297.26645        39.600  

 06 10 29 01 47 28.0000000  0  9G22G 6G21G10G30G26G17G16G 1                     
  22298986.97444 131558884.76044     -3409.46944        38.400  

  22038231.89804 130188604.78514      -892.60504        38.400  

  20709402.84005 108828643.56615      1792.96105        38.900  

  23432495.72404 137515509.26514      3795.20704        37.900  

  22280899.41804 131463832.49714      2979.71904        38.700  

  20475040.65545 121973977.84345     -1615.58245        39.300  

  22384478.70704 132008142.98514     -2597.16404        38.400  

  24005931.59104 140528933.15814      2239.13704        37.900  

  19601394.92445 117382937.95545       296.32045        39.700  

 06 10 29 01 47 29.0000000  0  9G22G 6G21G10G30G26G17G16G 1                     
  22299635.81044 131562294.33644     -3409.58244        38.500  

  22038401.80604 130189497.58514      -893.07804        38.600  

  20709061.71305 108826850.88915      1792.49205        39.300  

  23431773.52404 137511714.06514      3795.15204        37.900  

  22280332.48204 131460853.15214      2979.37504        38.500  

  20475348.13945 121975593.61945     -1615.83245        39.300  

  22384972.94104 132010740.24414     -2597.36704        38.400  

  24005505.49544 140526694.12954      2238.84444        37.700  

  19601338.56845 117382641.82845       295.68045        39.600  

 06 10 29 01 47 30.0000000  0  9G22G 6G21G10G30G26G17G16G 1                     
  22300284.70944 131565704.29944     -3409.93844        38.500  

  22038571.87004 130190391.22314      -893.91804        38.400  

  20708720.68705 108825058.85415      1791.59805        38.900  

  23431051.38004 137507919.10214      3794.91404        37.800  

  22279765.57404 131457874.07814      2978.89504        38.600  

  20475655.71345 121977209.82545     -1616.44145        39.300  

  22385467.28304 132013338.04614     -2597.94504        38.400  

  24005079.53404 140524455.77004      2237.86304        37.900  

  19601282.34145 117382346.43245       294.85245        39.500  

 06 10 29 01 47 31.0000000  0  9G22G 6G21G10G30G26G17G16G 1                     
  22300933.72504 131569114.73504     -3410.52704        38.300  

  22038742.07904 130191285.76114      -894.83604        38.800  

  20708379.81605 108823267.50015      1790.78105        39.200  

  23430329.29404 137504124.41514      3794.47304        38.200  

  22279198.74304 131454895.37014      2978.46904        38.600  

  20475963.36305 121978826.54605     -1617.13305        39.200  

  22385961.72604 132015936.48814     -2598.86304        38.400  

  24004653.73104 140522218.09914      2237.08604        37.800  

  19601226.29805 117382051.86905       294.23005        39.400  

 06 10 29 01 47 32.0000000  0  9G22G 6G21G10G30G26G17G16G 1                     
  22301582.74644 131572525.47754     -3411.00444        38.600  

  22038912.43444 130192181.06554      -895.68844        38.700  

  20708039.02645 108821476.69455      1790.43845        39.200  

  23429607.22344 137500329.85854      3794.34444        38.000  

  22278631.97044 131451916.88854      2978.11744        38.400  

  20476271.07245 121980443.62555     -1617.44945        39.100  

  22386456.26044 132018535.36354     -2598.86344        38.400  

  24004228.02444 140519980.98254      2236.95744        37.900  

  19601170.38245 117381758.01355       293.39845        39.600  

 06 10 29 01 47 33.0000000  0  9G22G 6G21G10G30G26G17G16G 1                     
  22302231.84104 131575936.53104     -3411.22304        38.300  

  22039082.95704 130193077.15504      -896.68804        38.500  

  20707698.33105 108819686.42605      1790.14105        39.200  

  23428885.17504 137496535.43404      3794.46904        37.900  

  22278065.21944 131448938.61444      2978.34844        38.600  

  20476578.84905 121982061.06005     -1617.56305        39.300  

  22386950.90904 132021134.75504     -2599.52004        38.600  

  24003802.42004 140517744.44704      2236.36704        37.900  

  19601114.61405 117381464.82705       292.85205        39.600  

 06 10 29 01 47 34.0000000  0  9G22G 6G21G10G30G26G17G16G 1                     
  22302880.99904 131579347.82414     -3411.28104        38.600  

  22039253.60404 130193973.90314      -897.14804        38.600  

  20707357.72905 108817896.62115      1789.63305        39.200  

  23428163.14844 137492741.10454      3794.41444        38.000  

  22277498.47244 131445960.49944      2978.00044        38.400  

  20476886.70905 121983678.81615     -1617.83605        39.000  

  22387445.63704 132023734.54614     -2600.09804        38.400  

  24003376.91244 140515508.37754      2236.05144        37.800  

  19601058.94305 117381172.24915       292.24605        39.500  

 06 10 29 01 47 35.0000000  0  9G22G 6G21G10G30G26G17G16G 1                     
  22303530.17104 131582759.41714     -3411.77704        38.500  

  22039424.37204 130194871.37414      -897.80904        38.700  

  20707017.22105 108816107.35215      1788.98005        39.200  

  23427441.16044 137488946.88044      3794.08244        38.000  

  22276931.81844 131442982.58044      2977.77744        38.500  

  20477194.57705 121985296.88915     -1618.20705        39.200  

  22387940.44544 132026334.74654     -2600.55544        38.400  

  24002951.51704 140513272.88004      2235.23804        37.800  

  19601003.39145 117380880.33255       291.55145        39.700  

 06 10 29 01 47 36.0000000  0  9G22G 6G21G10G30G26G17G16G 1                     
  22304179.39704 131586171.23414     -3411.98404        38.400  

  22039595.29404 130195769.54514      -898.47704        38.700  

  20706676.82745 108814318.54455      1788.78945        39.000  

  23426719.16004 137485152.69404      3794.23004        38.100  

  22276365.13244 131440004.78744      2978.03144        38.300  

  20477502.54745 121986915.23355     -1618.53145        39.400  

  22388435.33904 132028935.35704     -2600.59004        38.400  

  24002526.24104 140511037.84414      2234.93404        37.900  

  19600947.94605 117380588.99405       291.03505        39.500  

 06 10 29 01 47 37.0000000  0  9G22G 6G21G10G30G26G17G16G 1                     
  22304828.69704 131589583.37014     -3412.32404        38.600  

  22039766.35844 130196668.49254      -899.53144        38.600  

  20706336.53505 108812530.29105      1787.82805        39.100  

  23425997.20704 137481358.67414      3793.96504        38.100  

  22275798.54404 131437027.22904      2977.50004        38.500  

  20477810.58305 121988533.93905     -1618.77305        39.300  

  22388930.34004 132031536.47714     -2601.49604        38.700  

  24002101.05104 140508803.39014      2233.79704        38.000  

  19600892.64605 117380298.37215       290.16005        39.600  

 06 10 29 01 47 38.0000000  0  9G22G 6G21G10G30G26G17G16G 1                     
  22305478.03104 131592995.71014     -3412.27304        38.400  

  22039937.51844 130197568.07144      -900.02344        38.500  

  20705996.32445 108810742.46255      1787.55145        39.000  

  23425275.21504 137477564.68014      3793.80104        38.100  

  22275231.93544 131434049.78854      2977.36744        38.700  

  20478118.66945 121990152.93155     -1619.12945        39.100  

  22389425.38844 132034137.93554     -2601.87144        38.300  

  24001675.94944 140506569.37554      2233.66444        37.900  

  19600837.44945 117380008.31055       289.73845        39.700  

 06 10 29 01 47 39.0000000  0  9G22G 6G21G10G30G26G17G16G 1                     
  22306127.42304 131596408.29304     -3412.70704        38.400  

  22040108.82944 130198468.32644      -900.52344        38.700  

  20705656.17605 108808955.10105      1787.16405        39.100  

  23424553.24604 137473770.74304      3793.93004        38.200  

  22274665.40704 131431072.45404      2977.44104        38.500  

  20478426.80105 121991772.18405     -1619.42205        39.400  

  22389920.50704 132036739.76604     -2601.94504        38.500  

  24001250.92444 140504335.83044      2233.33644        37.700  

  19600782.34105 117379718.85005       289.34805        39.600  

 06 10 29 01 47 40.0000000  0  9G22G 6G21G10G30G26G17G16G 1                     
  22306776.87404 131599821.21004     -3413.37904        38.600  

  22040280.31604 130199369.37104      -901.52004        38.600  

  20705316.17945 108807168.31855      1786.33645        39.400  

  23423831.30644 137469976.96944      3793.68844        38.200  

  22274098.89804 131428095.39814      2976.89804        38.600  

  20478734.98805 121993391.82315     -1619.98405        39.400  

  22390415.71404 132039342.12414     -2602.72304        38.500  

  24000825.99104 140502102.90604      2232.52304        37.800  

  19600727.40005 117379430.11415       288.20705        39.700  

 06 10 29 01 47 41.0000000  0  9G22G 6G21G10G30G26G17G16G 1                     
  22307426.43004 131603234.50004     -3413.27704        38.200  

  22040451.97004 130200271.23614      -902.23804        38.600  

  20704976.28105 108805382.14805      1785.90605        39.100  

  23423109.39344 137466183.41844      3793.54744        38.200  

  22273532.42404 131425118.63314      2976.58204        38.600  

  20479043.26405 121995011.89815     -1620.31305        39.200  

  22390911.04344 132041945.01754     -2603.09844        38.300  

  24000401.20704 140499870.59014      2231.95704        37.900  

  19600672.58545 117379142.10555       287.69545        39.700  

 06 10 29 01 47 42.0000000  0  9G22G 6G21G10G30G26G17G16G 1                     
  22308076.02704 131606648.10404     -3413.71504        38.300  

  22040623.74304 130201173.88714      -903.17204        38.800  

  20704636.47345 108803596.51955      1785.39145        39.100  

  23422387.51544 137462390.00644      3793.26244        37.800  

  22272966.01304 131422142.06614      2976.59004        38.500  

  20479351.63305 121996632.33115     -1620.35905        39.300  

  22391406.45144 132044548.38944     -2603.93444        38.400  

  23999976.51544 140497638.83454      2231.48844        37.900  

  19600617.91205 117378854.79705       286.83205        39.700  

 06 10 29 01 47 43.0000000  0  9G22G 6G21G10G30G26G17G16G 1                     
  22308725.67604 131610062.04504     -3414.10904        38.600  

  22040795.66304 130202077.28714      -903.93804        38.300  

  20704296.76145 108801811.44445      1784.59445        39.100  

  23421665.64144 137458596.76044      3792.98444        38.100  

  22272399.62704 131419165.73214      2976.37904        38.500  

  20479660.05305 121998253.14215     -1620.93005        39.100  

  22391901.96844 132047152.23444     -2604.20744        38.600  

  23999551.97204 140495407.67404      2231.04304        38.000  

  19600563.35445 117378568.16755       286.32845        39.700  

 06 10 29 01 47 44.0000000  0  9G22G 6G21G10G30G26G17G16G 1                     
  22309375.41444 131613476.36044     -3414.32844        38.500  

  22040967.72904 130202981.53814      -904.78104        38.500  

  20703957.19645 108800026.99045      1784.03945        39.000  

  23420943.84804 137454803.68304      3792.78904        38.100  

  22271833.27804 131416189.72114      2975.66004        38.500  

  20479968.58505 121999874.38615     -1621.55905        38.900  

  22392397.56244 132049756.61744     -2604.68844        38.200  

  23999127.47904 140493177.13014      2230.33204        37.700  

  19600508.96305 117378282.28905       285.60205        39.700  

 06 10 29 01 47 45.0000000  0  9G22G 6G21G10G30G26G17G16G 1                     
  22310025.22604 131616891.04804     -3414.85904        38.600  

  22041139.96504 130203886.58314      -905.45304        38.600  

  20703617.73145 108798243.13545      1783.73845        39.000  

  23420222.10504 137451010.81714      3793.01204        38.100  

  22271267.01004 131413213.94014      2975.59404        38.500  

  20480277.16845 122001496.04855     -1621.87945        39.100  

  22392893.28704 132052361.53104     -2605.28104        38.300  

  23998703.14404 140490947.21914      2229.61704        37.900  

  19600454.70605 117377997.15715       284.93405        39.600  

 06 10 29 01 47 46.0000000  0  9G22G 6G21G10G30G26G17G16G 1                     
  22310675.07904 131620305.97414     -3414.96104        38.500  

  22041312.34904 130204792.30914      -905.80904        38.500  

  20703278.37345 108796459.76445      1783.12545        39.200  

  23419500.37804 137447218.05814      3792.39504        38.100  

  22270700.79704 131410238.34814      2975.50404        38.300  

  20480585.83805 122003118.01005     -1622.05505        39.100  

  22393389.04804 132054966.84114     -2605.32404        38.300  

  23998278.89904 140488717.81214      2229.16004        37.900  

  19600400.59405 117377712.64915       284.16805        39.600  

 06 10 29 01 47 47.0000000  0  9G22G 6G21G10G30G26G17G16G 1                     
  22311324.95504 131623721.14914     -3415.26204        38.500  

  22041484.83004 130205698.74914      -906.45304        38.600  

  20702939.09145 108794676.87145      1782.80145        39.300  

  23418778.65404 137443425.33814      3792.68804        37.900  

  22270134.55804 131407262.88914      2975.34404        38.700  

  20480894.55305 122004740.26015     -1622.16805        39.300  

  22393884.90644 132057572.58354     -2605.80144        38.400  

  23997854.74504 140486488.87814      2228.85504        37.900  

  19600346.56705 117377428.74115       283.77705        39.800  

 06 10 29 01 47 48.0000000  0  9G22G 6G21G10G30G26G17G16G 1                     
  22311974.86604 131627136.54714     -3415.74604        38.500  

  22041657.42104 130206605.83314      -907.35904        38.400  

  20702599.87845 108792894.40145      1782.24245        39.200  

  23418056.91004 137439632.68514      3792.52304        38.100  

  22269568.37604 131404287.55714      2975.07004        38.500  

  20481203.31845 122006362.78655     -1623.02345        39.300  

  22394380.81604 132060178.66304     -2606.07404        38.400  

  23997430.69644 140484260.41554      2228.20744        37.800  

  19600292.65805 117377145.42115       282.70705        39.800  

 06 10 29 01 47 49.0000000  0  9G22G 6G21G10G30G26G17G16G 1                     
  22312624.85704 131630552.28114     -3415.92604        38.500  

  22041830.18304 130207513.72714      -908.03504        38.400  

  20702260.79105 108791112.53505      1781.42605        39.200  

  23417335.21504 137435840.20014      3792.35204        38.100  

  22269002.24344 131401312.46154      2975.05544        38.500  

  20481512.13405 122007985.67105     -1622.76605        39.400  

  22394876.83504 132062785.28714     -2606.95304        38.500  

  23997006.73044 140482032.57444      2227.32444        37.800  

  19600238.89705 117376862.82015       282.20305        39.800  

 06 10 29 01 47 50.0000000  0  9G22G 6G21G10G30G26G17G16G 1                     
  22313274.92744 131633968.43454     -3416.44944        38.300  

  22042003.14644 130208422.49954      -909.09044        38.600  

  20701921.83645 108789331.31855      1780.91045        39.200  

  23416613.58544 137432047.93954      3792.19144        38.000  

  22268436.17744 131398337.71844      2974.64544        38.400  

  20481821.06145 122009609.08155     -1623.59445        39.200  

  22395372.97044 132065392.47354     -2607.56644        38.500  

  23996582.90144 140479805.36644      2226.59844        37.500  

  19600185.23845 117376581.00355       281.37545        39.500  

 06 10 29 01 47 51.0000000  0  9G22G 6G21G10G30G26G17G16G 1                     
  22313925.05504 131637385.00804     -3416.61704        38.600  

  22042176.25704 130209332.13704      -910.20704        38.600  

  20701583.02705 108787550.76705      1780.22305        38.900  

  23415891.98404 137428255.96704      3791.98004        38.200  

  22267870.12004 131395363.30004      2974.36704        38.400  

  20482130.05245 122011232.92645     -1624.18045        39.200  

  22395869.20204 132068000.23604     -2607.95304        38.300  

  23996159.22344 140477578.84444      2226.39144        37.800  

  19600131.73845 117376299.97245       280.69545        39.500  

 06 10 29 01 47 52.0000000  0  9G22G 6G21G10G30G26G17G16G 1                     
  22314575.27104 131640801.91014     -3416.96104        38.300  

  22042349.46944 130210242.49654      -910.76244        38.500  

  20701244.28805 108785770.72215      1780.07005        39.200  

  23415170.44204 137424464.12514      3791.54704        38.000  

  22267304.10804 131392389.09514      2974.26604        38.400  

  20482439.12445 122012857.12845     -1624.28145        39.300  

  22396365.49804 132070608.47814     -2608.63704        38.500  

  23995735.64044 140475352.90244      2225.53144        37.900  

  19600078.37945 117376019.62745       279.90645        39.500  

 06 10 29 01 47 53.0000000  0  9G22G 6G21G10G30G26G17G16G 1                     
  22315225.52604 131644219.09314     -3417.44904        38.500  

  22042522.84444 130211153.63644      -911.74244        38.300  

  20700905.66405 108783991.25915      1779.13305        39.100  

  23414448.89844 137420672.41254      3791.53544        38.000  

  22266738.18904 131389415.11114      2973.85904        38.600  

  20482748.23945 122014481.68845     -1624.69145        39.100  

  22396861.92204 132073217.16414     -2608.94504        38.500  

  23995312.13504 140473127.49704      2225.33204        38.000  

  19600025.16345 117375739.95145       279.35545        39.600  

 06 10 29 01 47 54.0000000  0  9G22G 6G21G10G30G26G17G16G 1                     
  22315875.84004 131647636.57514     -3417.79704        38.200  

  22042696.35944 130212065.48444      -912.21544        38.700  

  20700567.13605 108782212.26515      1779.05505        39.300  

  23413727.35804 137416880.79704      3791.41804        38.200  

  22266172.30204 131386441.28614      2974.04304        38.400  

  20483057.43445 122016106.58345     -1624.91845        39.200  

  22397358.40844 132075826.28454     -2609.18844        38.400  

  23994888.74304 140470902.61414      2224.93404        37.800  

  19599972.07645 117375460.91145       278.97345        39.700  

 06 10 29 01 47 55.0000000  0  9G22G 6G21G10G30G26G17G16G 1                     
  22316526.15304 131651054.20314     -3417.56604        38.300  

  22042869.99804 130212977.97704      -913.03504        38.500  

  20700228.69105 108780433.72415      1778.18805        39.200  

  23413005.84204 137413089.20014      3791.53504        38.200  

  22265606.43704 131383467.59114      2973.58604        38.600  

  20483366.70505 122017731.71805     -1625.35205        39.100  

  22397854.99804 132078435.75704     -2609.58204        38.400  

  23994465.46404 140468678.18814      2224.42204        37.800  

  19599919.08205 117375182.45705       278.21905        39.400  

 06 10 29 01 47 56.0000000  0  9G22G 6G21G10G30G26G17G16G 1                     
  22317176.59744 131654472.24454     -3418.29744        38.500  

  22043043.82244 130213891.25354      -913.34844        38.600  

  20699890.36345 108778655.79855      1777.54345        38.900  

  23412284.39344 137409297.80254      3791.35544        38.200  

  22265040.60344 131380494.14054      2973.46544        38.500  

  20483676.03245 122019357.26055     -1625.77345        39.200  

  22398351.67044 132081045.76454     -2610.07844        38.500  

  23994042.28944 140466454.38554      2223.71944        37.700  

  19599866.24145 117374904.71855       277.45345        39.500  

 06 10 29 01 47 57.0000000  0  9G22G 6G21G10G30G26G17G16G 1                     
  22317827.07604 131657890.53904     -3418.33204        38.400  

  22043217.77004 130214805.30504      -914.35504        38.500  

  20699552.13905 108776878.34905      1777.27305        39.300  

  23411562.90404 137405506.52404      3791.54304        38.100  

  22264474.83304 131377520.89504      2973.24204        38.300  

  20483985.45305 122020983.13605     -1626.13705        39.200  

  22398848.42404 132083656.21904     -2610.62904        38.500  

  23993619.19404 140464231.10604      2222.86304        37.800  

  19599813.49345 117374627.63645       276.84845        39.600  

 06 10 29 01 47 58.0000000  0  9G22G 6G21G10G30G26G17G16G 1                     
  22318477.63704 131661309.17114     -3418.86304        38.400  

  22043391.85404 130215720.10114      -915.19104        38.700  

  20699214.02605 108775101.47415      1776.69905        38.900  

  23410841.49344 137401715.41054      3790.83644        38.000  

  22263909.10504 131374547.87014      2972.95304        38.600  

  20484294.92705 122022609.37315     -1626.57405        39.400  

  22399345.28404 132086267.12814     -2611.16004        38.300  

  23993196.24804 140462008.40314      2222.47704        37.600  

  19599760.89805 117374351.26105       275.95705        39.500  

 06 10 29 01 47 59.0000000  0  9G22G 6G21G10G30G26G17G16G 1                     
  22319128.20604 131664728.03714     -3418.98404        38.400  

  22043566.07204 130216635.59514      -915.75004        38.600  

  20698875.99205 108773325.08115      1776.21105        39.200  

  23410120.07204 137397924.35904      3791.16404        38.100  

  22263343.40704 131371575.03214      2972.85204        38.600  

  20484604.45905 122024235.92315     -1626.84805        39.100  

  22399842.19804 132088878.47414     -2611.59804        38.200  

  23992773.35604 140459786.19914      2222.02304        37.900  

  19599708.44105 117374075.49315       275.24605        39.600  

 06 10 29 01 48  0.0000000  0  9G22G 6G21G10G30G26G17G16G 1                     
  22319778.85004 131668147.13614     -3419.09404        38.400  

  22043740.41804 130217551.77414      -916.44904        38.600  

  20698538.04605 108771549.15415      1775.53505        39.200  

  23409398.65504 137394133.37714      3790.74204        38.000  

  22262777.69044 131368602.29654      2972.60244        38.600  

  20484914.02805 122025862.73015     -1626.73805        39.200  

  22400339.17544 132091490.17854     -2611.83244        38.500  

  23992350.56304 140457564.47414      2221.67604        37.800  

  19599656.08205 117373800.31115       274.80505        39.700  

 06 10 29 01 48  1.0000000  0  9G22G 6G21G10G30G26G17G16G 1                     
  22320429.52604 131671566.56014     -3419.73004        38.500  

  22043914.90904 130218468.69114      -917.07404        38.400  

  20698200.21105 108769773.77415      1775.23005        39.100  

  23408677.31204 137390342.51914      3790.91404        38.100  

  22262212.02504 131365629.81404      2972.08204        38.600  

  20485223.65605 122027489.93715     -1627.48805        39.300  

  22400836.24604 132094102.37704     -2612.57804        38.400  

  23991927.90604 140455343.32914      2220.77004        38.000  

  19599603.84005 117373525.81915       274.13705        39.600  

 06 10 29 01 48  2.0000000  0  9G22G 6G21G10G30G26G17G16G 1                     
  22321080.27244 131674986.35354     -3420.07444        38.200  

  22044089.55844 130219386.46154      -918.24244        38.500  

  20697862.49445 108767999.00555      1774.50845        39.000  

  23407956.00844 137386551.90754      3790.40244        38.200  

  22261646.39544 131362657.60054      2971.89144        38.600  

  20485533.36945 122029117.55055     -1627.83645        39.100  

  22401333.43944 132096715.09854     -2612.78944        38.500  

  23991505.36544 140453122.79954      2220.05944        37.800  

  19599551.75745 117373252.09055       273.11345        39.600  

 06 10 29 01 48  3.0000000  0  9G22G 6G21G10G30G26G17G16G 1                     
  22321731.07904 131678406.48104     -3420.37504        38.600  

  22044264.34604 130220305.00204      -918.98004        38.800  

  20697524.89505 108766224.81905      1773.90205        39.200  

  23407234.68204 137382761.43704      3790.42604        38.000  

  22261080.84904 131359685.63004      2971.73004        38.400  

  20485843.15505 122030745.56005     -1628.07005        39.300  

  22401830.72804 132099328.31804     -2613.52304        38.500  

  23991082.92204 140450902.86504      2219.59004        38.100  

  19599499.77405 117372979.04305       272.62505        39.600  

 06 10 29 01 48  4.0000000  0  9G22G 6G21G10G30G26G17G16G 1                     
  22322381.98704 131681826.96714     -3420.76604        38.300  

  22044439.28404 130221224.32914      -919.53904        38.500  

  20697187.39005 108764451.20515      1773.30105        39.100  

  23406513.41804 137378971.13614      3790.32004        38.100  

  22260515.36504 131356713.90914      2971.74604        38.600  

  20486153.04405 122032373.95215     -1628.46505        39.000  

  22402328.09704 132101942.06114     -2614.01604        38.400  

  23990660.60604 140448683.55614      2219.01204        38.000  

  19599447.97305 117372706.72515       271.79305        39.700  

 06 10 29 01 48  5.0000000  0  9G22G 6G21G10G30G26G17G16G 1                     
  22323032.93244 131685247.74754     -3420.83644        38.400  

  22044614.37004 130222144.42714      -920.46504        38.800  

  20696849.98945 108762678.14555      1772.77345        39.000  

  23405792.19804 137375181.00914      3789.94504        37.900  

  22259949.91404 131353742.42714      2971.24604        38.300  

  20486463.00705 122034002.71915     -1628.99605        39.000  

  22402825.55004 132104556.25014     -2614.41804        38.600  

  23990238.41104 140446464.78414      2218.62504        38.000  

  19599396.31105 117372435.07415       271.56605        39.700  

 06 10 29 01 48  6.0000000  0  9G22G 6G21G10G30G26G17G16G 1                     
  22323683.95804 131688668.88304     -3421.24204        38.400  

  22044789.60804 130223065.31614      -921.37904        38.700  

  20696512.69005 108760905.65105      1772.30505        39.100  

  23405070.99504 137371391.04114      3790.10204        38.100  

  22259384.46944 131350771.18454      2971.06344        38.300  

  20486773.02305 122035631.86615     -1629.46905        39.000  

  22403323.09204 132107170.93414     -2614.87104        38.500  

  23989816.29904 140444246.60914      2217.60204        37.800  

  19599344.75305 117372164.15715       270.62905        39.600  

 06 10 29 01 48  7.0000000  0  9G22G 6G21G10G30G26G17G16G 1                     
  22324335.05104 131692090.39614     -3421.66404        38.500  

  22044964.99704 130223987.02814      -922.00004        38.600  

  20696175.51745 108759133.77955      1771.60245        39.200  

  23404349.81204 137367601.29514      3789.69904        38.000  

  22258819.15044 131347800.24244      2971.08244        38.400  

  20487083.11005 122037261.46715     -1629.91405        39.400  

  22403820.73504 132109786.18614     -2615.49604        38.400  

  23989394.33104 140442029.10114      2217.15204        37.900  

  19599293.32805 117371893.99915       269.80905        39.600  

 06 10 29 01 48  8.0000000  0  9G22G 6G21G10G30G26G17G16G 1                     
  22324986.18604 131695512.17114     -3421.86704        38.300  

  22045140.51604 130224909.44114      -922.87104        38.600  

  20695838.45345 108757362.40945      1771.14145        39.100  

  23403628.65604 137363811.61614      3789.75404        38.000  

  22258253.84044 131344829.44044      2970.94944        38.400  

  20487393.26905 122038891.34515     -1630.01205        39.200  

  22404318.49944 132112401.83554     -2615.85544        38.500  

  23988972.40404 140439812.07614      2216.66804        38.000  

  19599242.04405 117371624.43815       269.23805        39.700  

 06 10 29 01 48  9.0000000  0  9G22G 6G21G10G30G26G17G16G 1                     
  22325637.37004 131698934.23804     -3422.14804        38.300  

  22045316.17444 130225832.60154      -923.39544        38.600  

  20695501.48705 108755591.56405      1770.51205        39.200  

  23402907.52804 137360022.09114      3789.53904        37.900  

  22257688.54644 131341858.87844      2970.42244        38.500  

  20487703.51305 122040521.58815     -1630.35205        38.900  

  22404816.29704 132115017.92704     -2616.22304        38.500  

  23988550.58904 140437595.57314      2216.22704        38.100  

  19599190.88445 117371355.56255       268.55145        39.600  

 06 10 29 01 48 10.0000000  0  9G22G 6G21G10G30G26G17G16G 1                     
  22326288.59804 131702356.60704     -3422.51604        38.200  

  22045491.99004 130226756.51804      -924.25004        38.600  

  20695164.58745 108753821.26955      1770.02745        39.200  

  23402186.45304 137356232.70214      3789.31604        38.100  

  22257123.29144 131338888.54444      2970.12144        38.500  

  20488013.82605 122042152.18715     -1630.62905        39.100  

  22405314.18904 132117634.49714     -2616.62904        38.300  

  23988128.95204 140435379.66614      2215.81304        37.900  

  19599139.83105 117371087.37205       267.86305        39.700  

 06 10 29 01 48 11.0000000  0  9G22G 6G21G10G30G26G17G16G 1                     
  22326939.89704 131705779.24404     -3423.00804        38.500  

  22045667.92004 130227681.15814      -925.16404        38.500  

  20694827.79945 108752051.45845      1769.89545        39.200  

  23401465.34904 137352443.40314      3789.12104        38.200  

  22256558.10944 131335918.33544      2970.14544        38.400  

  20488324.19205 122043783.09715     -1631.10505        39.300  

  22405812.19204 132120251.49014     -2617.29304        38.400  

  23987707.36404 140433164.26614      2215.14504        38.000  

  19599088.91505 117370819.78815       267.46905        39.400  

 06 10 29 01 48 12.0000000  0  9G22G 6G21G10G30G26G17G16G 1                     
  22327591.23844 131709202.07944     -3423.31344        38.600  

  22045843.97944 130228606.42854      -925.66444        38.400  

  20694491.10045 108750282.08145      1769.26645        39.100  

  23400744.29404 137348654.14314      3789.24604        38.000  

  22255992.95104 131332948.26004      2970.19104        38.700  

  20488634.58605 122045414.26115     -1631.40605        39.100  

  22406310.23804 132122868.84914     -2617.73004        38.400  

  23987285.85804 140430949.35014      2214.56304        38.000  

  19599038.09705 117370552.78915       266.85905        39.700  

 06 10 29 01 48 13.0000000  0  9G22G 6G21G10G30G26G17G16G 1                     
  22328242.64144 131712625.26744     -3423.47744        38.600  

  22046020.21844 130229532.50344      -926.58644        38.700  

  20694154.50945 108748513.32745      1768.45745        39.000  

  23400023.26144 137344865.07554      3789.02744        38.000  

  22255427.81404 131329978.46614      2969.82804        38.400  

  20488945.06505 122047045.83415     -1631.89505        39.200  

  22406808.40104 132125486.71614     -2618.18004        38.500  

  23986864.50204 140428735.03314      2213.98404        37.900  

  19598987.43905 117370286.54015       265.75405        39.400  

 06 10 29 01 48 14.0000000  0  9G22G 6G21G10G30G26G17G16G 1                     
  22328894.11144 131716048.67544     -3423.48844        38.600  

  22046196.57044 130230459.24444      -926.91444        38.500  

  20693818.01945 108746745.02545      1768.23445        39.000  

  23399302.22844 137341076.05744      3789.23844        37.700  

  22254862.72204 131327008.80114      2969.64804        38.400  

  20489255.58845 122048677.67655     -1632.00445        39.200  

  22407306.66404 132128104.95614     -2618.14504        38.600  

  23986443.22244 140426521.17754      2213.64144        38.000  

  19598936.88345 117370020.85555       265.59045        39.500  

 06 10 29 01 48 15.0000000  0  9G22G 6G21G10G30G26G17G16G 1                     
  22329545.62304 131719472.38904     -3423.96504        38.500  

  22046373.05244 130231386.72544      -927.91444        38.400  

  20693481.63905 108744977.22605      1767.59405        39.200  

  23398581.25344 137337287.18044      3788.49244        38.000  

  22254297.61804 131324039.31814      2969.35904        38.500  

  20489566.17205 122050309.85005     -1632.47305        39.200  

  22407804.97304 132130723.65514     -2618.96104        38.300  

  23986022.01204 140424307.86004      2213.14104        37.800  

  19598886.45405 117369755.84105       264.61705        39.700  

 06 10 29 01 48 16.0000000  0  9G22G 6G21G10G30G26G17G16G 1                     
  22330197.19504 131722896.40614     -3424.18404        38.500  

  22046549.67104 130232314.98604      -928.38304        38.600  

  20693145.34905 108743210.02215      1766.91805        39.300  

  23397860.25944 137333498.43144      3788.90644        37.800  

  22253732.56904 131321070.07614      2969.28904        38.500  

  20489876.82545 122051942.42055     -1632.74245        39.100  

  22408303.37904 132133342.83014     -2619.46104        38.600  

  23985600.91744 140422095.13754      2212.71544        37.800  

  19598836.17305 117369491.50915       264.39505        39.600  

 06 10 29 01 48 17.0000000  0  9G22G 6G21G10G30G26G17G16G 1                     
  22330848.82404 131726320.67614     -3424.37904        38.600  

  22046726.43504 130233243.91514      -929.15204        38.500  

  20692809.17405 108741443.27215      1766.48405        38.900  

  23397139.31844 137329709.77244      3788.44944        38.100  

  22253167.57604 131318101.00714      2968.97704        38.500  

  20490187.53805 122053575.25205     -1632.84005        39.300  

  22408801.85204 132135962.40414     -2620.08204        38.400  

  23985179.91544 140419882.91044      2211.89544        37.800  

  19598786.01745 117369227.82055       263.40645        39.600  

 06 10 29 01 48 18.0000000  0  9G22G 6G21G10G30G26G17G16G 1                     
  22331500.53704 131729745.36214     -3424.87504        38.600  

  22046903.39404 130234173.73314      -930.18404        38.300  

  20692473.10705 108739677.17515      1765.81305        39.300  

  23396418.43644 137325921.36844      3788.26244        38.000  

  22252602.63204 131315132.22314      2968.72704        38.300  

  20490498.35405 122055208.57215     -1633.58205        39.200  

  22409300.46004 132138582.51614     -2620.10504        38.400  

  23984759.05444 140417671.35344      2210.95744        38.100  

  19598735.98805 117368964.88205       262.46905        39.500  

 06 10 29 01 48 19.0000000  0  9G22G 6G21G10G30G26G17G16G 1                     
  22332152.30004 131733170.49114     -3425.36304        38.500  

  22047080.48304 130235104.43114      -931.00404        38.600  

  20692137.17605 108737911.77615      1765.09005        38.900  

  23395697.56504 137322133.23404      3787.88704        38.100  

  22252037.78504 131312163.82314      2968.37904        38.600  

  20490809.25605 122056842.37815     -1633.89505        39.200  

  22409799.18644 132141203.29454     -2621.09444        38.400  

  23984338.34744 140415460.52244      2210.37544        37.900  

  19598686.10005 117368702.77015       261.82005        39.400  

 06 10 29 01 48 20.0000000  0  9G22G 6G21G10G30G26G17G16G 1                     
  22332804.13544 131736595.92554     -3425.46144        38.100  

  22047257.77344 130236035.91154      -932.02744        38.500  

  20691801.33845 108736146.93255      1764.56345        39.200  

  23394976.72244 137318345.27754      3787.79744        37.900  

  22251472.97144 131309195.66654      2967.92244        38.600  

  20491120.22645 122058476.57155     -1634.51645        39.100  

  22410297.98044 132143824.51844     -2621.64844        38.600  

  23983917.74744 140413250.24444      2210.00844        37.900  

  19598636.36045 117368441.36155       261.17245        39.400  

 06 10 29 01 48 21.0000000  0  9G22G 6G21G10G30G26G17G16G 1                     
  22333456.06404 131740021.67904     -3425.94504        38.600  

  22047435.16044 130236968.11444      -932.75844        38.600  

  20691465.59345 108734382.60345      1764.04745        39.300  

  23394255.92604 137314557.42504      3787.81604        38.200  

  22250908.19004 131306227.67004      2968.00404        38.500  

  20491431.23305 122060111.08205     -1634.89105        39.200  

  22410796.84904 132146446.17504     -2621.71504        38.300  

  23983497.23004 140411040.49704      2209.32404        37.900  

  19598586.73905 117368180.61605       260.34805        39.700  

 06 10 29 01 48 22.0000000  0  9G22G 6G21G10G30G26G17G16G 1                     
  22334108.01504 131743447.66914     -3425.91804        38.300  

  22047612.68044 130237901.03644      -933.16844        38.500  

  20691129.93705 108732618.78505      1763.60205        39.200  

  23393535.16104 137310769.67614      3787.76204        38.000  

  22250343.42604 131303259.89414      2967.57404        38.500  

  20491742.31905 122061745.92515     -1635.04705        39.100  

  22411295.82804 132149068.29014     -2622.40204        38.200  

  23983076.83604 140408831.29514      2209.02004        38.100  

  19598537.26205 117367920.49215       259.83605        39.700  

 06 10 29 01 48 23.0000000  0  9G22G 6G21G10G30G26G17G16G 1                     
  22334760.02604 131746873.95414     -3426.35504        38.400  

  22047790.32804 130238834.67704      -933.91804        38.600  

  20690794.39445 108730855.48755      1762.87145        39.100  

  23392814.40444 137306982.06154      3787.48444        38.100  

  22249778.68404 131300292.29614      2967.25004        38.500  

  20492053.50605 122063381.10715     -1635.61705        39.300  

  22411794.87104 132151690.81414     -2622.84804        38.300  

  23982656.51444 140406622.61654      2208.16844        38.100  

  19598487.88805 117367661.02015       258.97305        39.600  

 06 10 29 01 48 24.0000000  0  9G22G 6G21G10G30G26G17G16G 1                     
  22335412.11904 131750300.58814     -3426.90204        38.200  

  22047968.13204 130239769.11314      -934.90604        38.600  

  20690458.95605 108729092.76305      1762.47705        39.100  

  23392093.68204 137303194.60004      3787.32404        38.100  

  22249214.01904 131297324.91814      2967.26604        38.400  

  20492364.76045 122065016.65655     -1635.74645        39.400  

  22412294.02904 132154313.83614     -2623.20304        38.700  

  23982236.34604 140404414.53204      2207.90204        38.000  

  19598438.67145 117367402.26155       258.29345        39.600  

 06 10 29 01 48 25.0000000  0  9G22G 6G21G10G30G26G17G16G 1                     
  22336064.21804 131753727.50714     -3426.91804        38.500  

  22048146.07304 130240704.29514      -935.45304        38.600  

  20690123.60405 108727330.58515      1762.01605        39.200  

  23391372.98304 137299407.27314      3787.37504        37.900  

  22248649.39604 131294357.78314      2967.03504        38.300  

  20492676.09405 122066652.58205     -1636.43805        39.100  

  22412793.24704 132156937.32714     -2623.61704        38.500  

  23981816.25004 140402207.03314      2207.29704        37.700  

  19598389.54645 117367144.16545       257.87945        39.700  

 06 10 29 01 48 26.0000000  0  9G22G 6G21G10G30G26G17G16G 1                     
  22336716.37944 131757154.64754     -3427.19944        38.600  

  22048324.19144 130241640.15754      -936.14544        38.700  

  20689788.36245 108725568.87355      1761.32045        39.100  

  23390652.27344 137295620.02554      3787.06344        37.800  

  22248084.80844 131291390.79554      2966.80144        38.600  

  20492987.43445 122068288.76255     -1636.60945        39.000  

  22413292.52644 132159561.18554     -2623.80144        38.400  

  23981396.27544 140399999.98354      2206.60944        38.000  

  19598340.56445 117366886.68945       257.27045        39.700  

 06 10 29 01 48 27.0000000  0  9G22G 6G21G10G30G26G17G16G 1                     
  22337368.59404 131760582.02004     -3427.51604        38.600  

  22048502.39444 130242576.67344      -936.80944        38.300  

  20689453.21905 108723807.60605      1760.94905        39.100  

  23389931.58744 137291832.82244      3787.28544        38.000  

  22247520.21704 131288423.91404      2966.58604        38.400  

  20493298.82645 122069925.20845     -1636.50845        39.100  

  22413791.90904 132162185.43004     -2624.29704        38.300  

  23980976.38604 140397793.41204      2206.57404        37.900  

  19598291.69005 117366629.78005       256.62105        39.500  

 06 10 29 01 48 28.0000000  0  9G22G 6G21G10G30G26G17G16G 1                     
  22338020.84604 131764009.56114     -3427.72304        38.400  

  22048680.73044 130243513.82444      -937.46944        38.700  

  20689118.12805 108722046.75315      1760.78505        39.000  

  23389210.91244 137288045.63744      3786.79344        38.000  

  22246955.66604 131285457.12214      2966.62904        38.500  

  20493610.26445 122071561.89445     -1636.66045        39.200  

  22414291.36404 132164810.01114     -2624.63704        38.500  

  23980556.56404 140395587.29014      2205.72304        37.800  

  19598242.89505 117366373.43115       256.03105        39.700  

 06 10 29 01 48 29.0000000  0  9G22G 6G21G10G30G26G17G16G 1                     
  22338673.14104 131767437.40714     -3428.10504        38.600  

  22048859.22344 130244451.75144      -938.56644        38.400  

  20688783.17305 108720286.46015      1760.28505        39.300  

  23388490.24904 137284258.59704      3786.96504        38.200  

  22246391.14304 131282490.55914      2966.53104        38.400  

  20493921.77245 122073198.94545     -1637.19145        39.200  

  22414790.91704 132167435.07214     -2625.49604        38.600  

  23980136.83904 140393381.73114      2205.29304        38.000  

  19598194.25905 117366117.76715       255.32005        39.600  

 06 10 29 01 48 30.0000000  0  9G22G 6G21G10G30G26G17G16G 1                     
  22339325.49704 131770865.54914     -3428.25004        38.300  

  22049037.84004 130245390.38804      -939.04304        38.500  

  20688448.32305 108718526.71115      1759.40605        39.300  

  23387769.61644 137280471.71154      3786.62544        37.900  

  22245826.65604 131279524.19714      2966.39104        38.400  

  20494233.37245 122074836.35145     -1637.72745        39.300  

  22415290.54204 132170060.56914     -2625.72304        38.500  

  23979717.22504 140391176.73314      2204.65604        37.900  

  19598145.72945 117365862.76855       254.87145        39.600  

 06 10 29 01 48 31.0000000  0  9G22G 6G21G10G30G26G17G16G 1                     
  22339977.94344 131774294.10954     -3428.82044        38.400  

  22049216.62144 130246329.88054      -939.66044        38.300  

  20688113.59505 108716767.60215      1758.86705        39.100  

  23387049.01844 137276685.04144      3786.68844        38.000  

  22245262.22404 131276558.18414      2965.77004        38.500  

  20494545.04805 122076474.19305     -1638.12105        39.000  

  22415790.25504 132172686.63814     -2626.34404        38.600  

  23979297.77404 140388972.40114      2203.94504        37.900  

  19598097.34405 117365608.54805       253.88705        39.700  

 06 10 29 01 48 32.0000000  0  9G22G 6G21G10G30G26G17G16G 1                     
  22340630.45144 131777723.12444     -3429.03144        38.300  

  22049395.58044 130247270.31744      -940.80144        38.500  

  20687778.98845 108715009.20355      1758.02745        38.900  

  23386328.48644 137272898.67644      3786.20344        37.800  

  22244697.91044 131273592.52754      2965.44544        38.500  

  20494856.80145 122078112.57055     -1638.63745        39.400  

  22416290.09044 132175313.31254     -2626.86744        38.500  

  23978878.40644 140386768.76354      2203.54344        37.800  

  19598049.14545 117365355.15155       253.19945        39.600  

 06 10 29 01 48 33.0000000  0  9G22G 6G21G10G30G26G17G16G 1                     
  22341283.06704 131781152.58304     -3429.72304        38.500  

  22049574.70644 130248211.61044      -941.60244        38.500  

  20687444.49245 108713251.44745      1757.55545        39.100  

  23385608.01704 137269112.59204      3785.98804        38.000  

  22244133.63204 131270627.19404      2965.19504        38.400  

  20495168.66405 122079751.40305     -1638.86305        39.300  

  22416790.07204 132177940.58504     -2627.28904        38.400  

  23978459.22944 140384565.85244      2202.68044        37.700  

  19598001.08505 117365102.59005       252.06305        39.500  

 06 10 29 01 48 34.0000000  0  9G22G 6G21G10G30G26G17G16G 1                     
  22341935.72704 131784582.39914     -3429.96104        38.700  

  22049753.97004 130249153.72604      -942.41804        38.500  

  20687110.11545 108711494.32545      1756.88345        39.100  

  23384887.56604 137265326.68814      3786.03504        38.100  

  22243569.44104 131267662.15414      2965.10504        38.600  

  20495480.59605 122081390.65815     -1639.26605        39.300  

  22417290.10504 132180568.39314     -2627.88304        38.400  

  23978040.13704 140382363.53304      2202.25804        37.900  

  19597953.15205 117364850.72615       251.50405        39.700  

 06 10 29 01 48 35.0000000  0  9G22G 6G21G10G30G26G17G16G 1                     
  22342588.45204 131788012.44614     -3430.27004        38.200  

  22049933.37304 130250096.51814      -943.18004        38.600  

  20686775.81945 108709737.67345      1756.35945        39.000  

  23384167.14504 137261540.88614      3785.76604        38.100  

  22243005.22504 131264697.26414      2964.78504        38.600  

  20495792.58245 122083030.23855     -1639.70345        39.300  

  22417790.22804 132183196.56614     -2628.31304        38.300  

  23977621.15744 140380161.72154      2201.80944        37.700  

  19597905.31905 117364599.47215       251.02305        39.600  

 06 10 29 01 48 36.0000000  0  9G22G 6G21G10G30G26G17G16G 1                     
  22343241.19904 131791442.65014     -3430.10904        38.400  

  22050112.91644 130251039.94354      -943.75044        38.500  

  20686441.62845 108707981.42745      1756.12145        39.200  

  23383446.71004 137257755.08214      3785.94104        38.000  

  22242441.08104 131261732.46314      2964.81604        38.400  

  20496104.59805 122084670.00505     -1639.92205        39.400  

  22418290.42204 132185825.09314     -2628.77304        38.400  

  23977202.22604 140377960.35404      2200.94504        38.000  

  19597857.62605 117364348.78515       250.39105        39.700  

 06 10 29 01 48 37.0000000  0  9G22G 6G21G10G30G26G17G16G 1                     
  22343893.99104 131794873.11614     -3430.67604        38.300  

  22050292.53744 130251984.02044      -944.20744        38.600  

  20686107.52845 108706225.66345      1755.40645        39.100  

  23382726.31044 137253969.34354      3785.70744        38.100  

  22241876.94904 131258767.81014      2964.45704        38.500  

  20496416.69405 122086310.06615     -1640.12505        39.300  

  22418790.66804 132188453.99114     -2629.04304        38.500  

  23976783.38304 140375759.47314      2200.75404        37.900  

  19597810.03105 117364098.67815       249.94105        39.800  

 06 10 29 01 48 38.0000000  0  9G22G 6G21G10G30G26G17G16G 1                     
  22344546.84144 131798303.87254     -3431.21144        38.300  

  22050472.33944 130252928.86144      -945.05144        38.600  

  20685773.49805 108704470.42505      1754.95305        39.200  

  23382005.92144 137250183.71944      3785.66844        38.300  

  22241312.83304 131255803.36014      2964.24604        38.400  

  20496728.85605 122087950.47815     -1640.39805        39.100  

  22419291.02044 132191083.35054     -2629.76244        38.500  

  23976364.68744 140373559.13354      2200.04344        37.800  

  19597762.55905 117363849.27315       248.94505        39.700  

 06 10 29 01 48 39.0000000  0  9G22G 6G21G10G30G26G17G16G 1                     
  22345199.72844 131801734.92144     -3431.34044        38.400  

  22050652.26944 130253874.47844      -946.04744        38.700  

  20685439.59605 108702715.74415      1754.35505        39.100  

  23381285.60144 137246398.29844      3785.40244        38.100  

  22240748.75604 131252839.13314      2964.11304        38.500  

  20497041.09305 122089591.25515     -1640.89105        39.200  

  22419791.45644 132193713.17544     -2629.86744        38.400  

  23975946.12304 140371359.37104      2199.34004        37.900  

  19597715.18605 117363600.52715       248.44105        39.800  

 06 10 29 01 48 40.0000000  0  9G22G 6G21G10G30G26G17G16G 1                     
  22345852.64344 131805166.16144     -3431.42244        38.300  

  22050832.32004 130254820.71004      -946.74204        38.200  

  20685105.76205 108700961.46715      1754.29705        39.000  

  23380565.23644 137242612.86544      3785.45744        37.900  

  22240184.69404 131249875.00714      2964.01204        38.500  

  20497353.35605 122091232.26715     -1641.02705        39.300  

  22420291.97344 132196343.35344     -2630.59444        38.300  

  23975527.61044 140369160.04454      2199.02344        38.000  

  19597667.94005 117363352.33515       247.96905        39.300  

 06 10 29 01 48 41.0000000  0  9G22G 6G21G10G30G26G17G16G 1                     
  22346505.65244 131808597.72544     -3431.62144        38.500  

  22051012.49604 130255767.72214      -947.47304        38.500  

  20684772.04845 108699207.79855      1753.48845        39.000  

  23379844.94144 137238827.61144      3784.96944        38.000  

  22239620.67904 131246911.11814      2963.81304        38.600  

  20497665.71605 122092873.67115     -1641.66805        39.200  

  22420792.57644 132198973.98644     -2630.81344        38.300  

  23975109.20144 140366961.32344      2198.39144        37.800  

  19597620.85705 117363104.88115       246.91805        39.500  

 06 10 29 01 48 42.0000000  0  9G22G 6G21G10G30G26G17G16G 1                     
  22347158.71344 131812029.60544     -3431.86344        38.500  

  22051192.84004 130256715.46314      -948.10204        38.500  

  20684438.44145 108697454.62645      1753.05945        39.100  

  23379124.64444 137235042.48444      3785.08244        38.000  

  22239056.73244 131243947.43354      2963.64844        38.700  

  20497978.12605 122094515.38915     -1641.64105        39.100  

  22421293.25844 132201605.08144     -2631.21544        38.400  

  23974690.90744 140364763.13044      2198.03544        37.800  

  19597573.88205 117362858.02515       246.74205        39.600  

 06 10 29 01 48 43.0000000  0  9G22G 6G21G10G30G26G17G16G 1                     
  22347811.82744 131815461.70844     -3432.02044        38.500  

  22051373.32044 130257663.90754      -948.59044        38.600  

  20684104.91505 108695701.97605      1752.61305        39.200  

  23378404.37704 137231257.45504      3784.94904        37.700  

  22238492.77204 131240983.92004      2963.64104        38.600  

  20498290.59505 122096157.43515     -1642.12505        39.200  

  22421794.02104 132204236.60204     -2631.70704        38.500  

  23974272.68644 140362565.46244      2197.32044        38.000  

  19597527.01505 117362611.84415       245.95705        39.700  

 06 10 29 01 48 44.0000000  0  9G22G 6G21G10G30G26G17G16G 1                     
  22348465.01044 131818894.15044     -3432.46544        38.500  

  22051553.92544 130258613.15444      -949.65644        38.500  

  20683771.50745 108693949.90155      1751.50845        39.000  

  23377684.15344 137227472.60654      3784.73044        38.100  

  22237928.87644 131238020.66254      2963.07844        38.600  

  20498603.16045 122097799.85655     -1642.57045        39.000  

  22422294.86344 132206868.58454     -2632.20744        38.400  

  23973854.56444 140360368.39844      2196.66844        37.800  

  19597480.29745 117362366.35255       245.27745        39.600  

 06 10 29 01 48 45.0000000  0  9G22G 6G21G10G30G26G17G16G 1                     
  22349118.27904 131822327.01404     -3433.18404        38.500  

  22051734.70604 130259563.22804      -950.41804        38.500  

  20683438.22305 108692198.45605      1751.10205        39.200  

  23376963.98804 137223687.97804      3784.40204        38.400  

  22237365.04944 131235057.70044      2962.85944        38.500  

  20498915.81205 122099442.73705     -1643.25805        39.400  

  22422795.80404 132209501.13504     -2632.60504        38.300  

  23973436.57104 140358171.97704      2196.00404        37.800  

  19597433.72705 117362121.64505       244.21905        39.500  

 06 10 29 01 48 46.0000000  0  9G22G 6G21G10G30G26G17G16G 1                     
  22349771.56204 131825760.26014     -3433.73004        38.500  

  22051915.64904 130260514.16314      -951.53104        38.500  

  20683105.04605 108690447.64015      1750.57405        39.000  

  23376243.83004 137219903.57814      3784.05504        38.100  

  22236801.27304 131232095.04904      2962.57804        38.400  

  20499228.51905 122101086.05515     -1643.71105        39.100  

  22423296.89504 132212134.24414     -2633.10904        38.400  

  23973018.75144 140355976.21454      2195.35544        37.800  

  19597387.31805 117361877.67715       243.47705        39.600  

 06 10 29 01 48 47.0000000  0  9G22G 6G21G10G30G26G17G16G 1                     
  22350424.93804 131829193.82414     -3433.75404        38.300  

  22052096.75444 130261465.86854      -952.16444        38.300  

  20682771.98705 108688697.40815      1750.05105        39.000  

  23375523.70104 137216119.35914      3784.18404        38.000  

  22236237.53644 131229132.65454      2962.21144        38.500  

  20499541.28805 122102729.76315     -1644.00005        39.100  

  22423798.04504 132214767.85314     -2634.11704        38.400  

  23972601.04704 140353781.04704      2194.76204        38.000  

  19597341.03705 117361634.42815       243.04705        39.700  

 06 10 29 01 48 48.0000000  0  9G22G 6G21G10G30G26G17G16G 1                     
  22351078.40204 131832627.71614     -3434.16404        38.600  

  22052277.98704 130262418.34604      -952.96904        38.700  

  20682439.03105 108686947.74015      1749.31605        39.100  

  23374803.61404 137212335.29714      3784.18004        38.100  

  22235673.85844 131226170.49444      2961.98044        38.600  

  20499854.10645 122104373.83255     -1644.25845        39.400  

  22424299.27504 132217401.91514     -2634.39504        38.400  

  23972183.42604 140351586.45614      2194.14804        38.000  

  19597294.88605 117361391.87415       242.14805        39.700  

 06 10 29 01 48 49.0000000  0  9G22G 6G21G10G30G26G17G16G 1                     
  22351731.91404 131836061.96614     -3434.46504        38.500  

  22052459.37504 130263371.63314      -953.97304        38.600  

  20682106.18645 108685198.66255      1749.10245        39.200  

  23374083.57304 137208551.46914      3783.95304        38.100  

  22235110.25544 131223208.60244      2961.82444        38.600  

  20500167.04745 122106018.34545     -1644.90645        39.300  

  22424800.63804 132220036.50214     -2634.77304        38.400  

  23971765.94504 140349392.49114      2193.69504        38.100  

  19597248.86045 117361150.06355       241.21145        39.600  

 06 10 29 01 48 50.0000000  0  9G22G 6G21G10G30G26G17G16G 1                     
  22352385.47044 131839496.42554     -3434.55944        38.100  

  22052640.89544 130264325.54254      -954.00444        38.600  

  20681773.44645 108683450.05045      1748.27045        39.100  

  23373363.53844 137204767.64854      3783.72744        38.100  

  22234546.65144 131220246.84344      2961.46544        38.600  

  20500480.02345 122107663.07945     -1644.82845        39.100  

  22425302.07844 132222671.44454     -2635.35244        38.500  

  23971348.55944 140347198.99054      2193.34444        37.700  

  19597202.94445 117360908.80845       240.84445        39.800  

 06 10 29 01 48 51.0000000  0  9G22G 6G21G10G30G26G17G16G 1                     
  22353039.10204 131842931.12404     -3434.87904        38.500  

  22052822.57704 130265280.18604      -954.96904        38.600  

  20681440.81805 108681701.90505      1747.93005        39.300  

  23372643.52904 137200983.93704      3783.53104        37.900  

  22233983.07144 131217285.20444      2961.59444        38.500  

  20500793.05905 122109308.12405     -1645.27705        39.300  

  22425803.57444 132225306.79344     -2635.72744        38.500  

  23970931.23604 140345005.99204      2192.69504        37.800  

  19597157.12805 117360668.17205       240.48005        39.700  

 06 10 29 01 48 52.0000000  0  9G22G 6G21G10G30G26G17G16G 1                     
  22353692.77904 131846366.09414     -3434.86304        38.600  

  22053004.35104 130266235.56014      -955.85504        38.600  

  20681108.25105 108679954.32715      1747.34005        39.100  

  23371923.54604 137197200.36114      3783.36304        38.000  

  22233419.55904 131214323.82004      2961.37504        38.700  

  20501106.16445 122110953.49355     -1645.34845        39.300  

  22426305.13004 132227942.57704     -2636.02304        38.500  

  23970514.06104 140342813.55814      2192.30504        38.000  

  19597111.47305 117360428.21115       239.50805        39.600  

 06 10 29 01 48 53.0000000  0  9G22G 6G21G10G30G26G17G16G 1                     
  22354346.45004 131849801.31314     -3435.30104        38.500  

  22053186.27704 130267191.58414      -956.23004        38.600  

  20680775.78705 108678207.17615      1746.88705        39.100  

  23371203.58004 137193416.80114      3783.48804        38.000  

  22232856.03904 131211362.54414      2961.23004        38.600  

  20501419.32945 122112599.17445     -1645.99245        39.200  

  22426806.77704 132230578.72614     -2636.02704        38.200  

  23970096.98004 140340621.60314      2191.59004        37.800  

  19597065.92605 117360188.82715       238.97305        39.400  

 06 10 29 01 48 54.0000000  0  9G22G 6G21G10G30G26G17G16G 1                     
  22355000.20804 131853236.71514     -3435.43004        38.400  

  22053368.33804 130268148.27914      -957.09004        38.600  

  20680443.40805 108676460.47415      1746.53905        39.000  

  23370483.63004 137189633.33214      3783.43004        38.300  

  22232292.51104 131208401.36514      2961.27704        38.600  

  20501732.52145 122114245.06845     -1645.99245        39.300  

  22427308.48304 132233215.25314     -2636.78504        38.500  

  23969679.97704 140338430.09014      2191.25804        37.800  

  19597020.47705 117359950.03115       238.57805        39.600  

 06 10 29 01 48 55.0000000  0  9G22G 6G21G10G30G26G17G16G 1                     
  22355653.98504 131856672.40514     -3436.00004        38.400  

  22053550.49904 130269105.68014      -957.82804        38.500  

  20680111.12605 108674714.29115      1745.89805        39.100  

  23369763.69204 137185849.95014      3783.08604        38.000  

  22231729.06804 131205440.40614      2960.73404        38.600  

  20502045.76145 122115891.29145     -1646.60545        39.200  

  22427810.26604 132235852.20814     -2637.34804        38.500  

  23969263.00204 140336239.11714      2190.52004        37.900  

  19596975.17705 117359711.87715       237.46905        39.700  

 06 10 29 01 48 56.0000000  0  9G22G 6G21G10G30G26G17G16G 1                     
  22356307.82844 131860108.37754     -3436.20344        38.400  

  22053732.82944 130270063.82054      -958.40244        38.500  

  20679778.92745 108672968.64755      1745.38345        39.200  

  23369043.78544 137182066.71154      3783.10944        38.000  

  22231165.63844 131202479.64054      2960.60544        38.600  

  20502359.11045 122117537.88045     -1646.73445        39.000  

  22428312.15544 132238489.61254     -2637.82044        38.600  

  23968846.14544 140334048.69954      2190.09844        37.900  

  19596929.97945 117359474.37155       237.21945        39.700  

 06 10 29 01 48 57.0000000  0  9G22G 6G21G10G30G26G17G16G 1                     
  22356961.73604 131863544.70204     -3436.48404        38.400  

  22053915.31944 130271022.78344      -959.27044        38.600  

  20679446.85245 108671223.60145      1744.73045        39.100  

  23368323.88404 137178283.67404      3783.17604        38.300  

  22230602.27904 131199519.16504      2960.16404        38.400  

  20502672.54505 122119184.86905     -1647.10905        39.100  

  22428814.12704 132241127.53204     -2638.34804        38.600  

  23968429.43344 140331858.92244      2189.55544        37.900  

  19596884.94405 117359237.63605       236.17605        39.400  

 06 10 29 01 48 58.0000000  0  9G22G 6G21G10G30G26G17G16G 1                     
  22357615.71244 131866981.40554     -3436.76244        38.400  

  22054097.96344 130271982.55744      -959.81344        38.600  

  20679114.91345 108669479.18945      1744.11745        39.200  

  23367604.04904 137174500.86214      3782.84804        38.100  

  22230038.96204 131196558.94614      2960.33604        38.400  

  20502986.01405 122120832.28215     -1647.62505        39.400  

  22429316.21104 132243765.97114     -2638.61704        38.300  

  23968012.87444 140329669.74744      2188.81644        37.700  

  19596840.03005 117359001.61715       235.60905        39.600  

 06 10 29 01 48 59.0000000  0  9G22G 6G21G10G30G26G17G16G 1                     
  22358269.74904 131870418.44804     -3437.31304        38.300  

  22054280.75744 130272943.15844      -961.07844        38.700  

  20678783.08445 108667735.37445      1743.24645        39.200  

  23366884.25104 137170718.23214      3782.57804        38.100  

  22229475.71004 131193599.01814      2959.52704        38.600  

  20503299.58805 122122480.11515     -1648.05505        39.000  

  22429818.41604 132246404.90714     -2639.02004        38.500  

  23967596.40204 140327481.21304      2188.10204        37.800  

  19596795.27105 117358766.31615       234.85905        39.600  

 06 10 29 01 49  0.0000000  0  9G22G 6G21G10G30G26G17G16G 1                     
  22358923.83904 131873855.84514     -3437.40204        38.500  

  22054463.69844 130273904.51444      -961.64144        38.600  

  20678451.33445 108665992.12045      1742.64845        39.000  

  23366164.46644 137166935.78454      3782.29344        38.100  

  22228912.49904 131190639.35714      2959.27704        38.200  

  20503613.23705 122124128.32715     -1648.47305        39.300  

  22430320.67804 132249044.36714     -2639.70704        38.500  

  23967180.03404 140325293.26014      2187.68004        37.800  

  19596750.63105 117358531.75615       234.27305        39.700  

 06 10 29 01 49  1.0000000  0  9G22G 6G21G10G30G26G17G16G 1                     
  22359578.03604 131877293.60514     -3437.86304        38.700  

  22054646.78444 130274866.70444      -962.62144        38.600  

  20678119.70145 108664249.47545      1742.41445        39.200  

  23365444.72204 137163153.55504      3782.27704        38.100  

  22228349.34304 131187679.94914      2959.11704        38.500  

  20503926.94805 122125776.95115     -1648.69505        39.200  

  22430823.06504 132251684.32414     -2640.14504        38.300  

  23966763.80204 140323105.98014      2186.72304        37.700  

  19596706.12505 117358297.90215       233.69105        39.700  

 06 10 29 01 49  2.0000000  0  9G22G 6G21G10G30G26G17G16G 1                     
  22360232.28144 131880731.64154     -3437.99244        38.600  

  22054830.01344 130275829.63244      -963.25844        38.600  

  20677788.18645 108662507.36645      1741.88745        38.900  

  23364725.00244 137159371.45654      3782.10544        38.200  

  22227786.23044 131184720.74854      2959.09044        38.600  

  20504240.73745 122127425.92555     -1649.13345        39.200  

  22431325.52544 132254324.74054     -2640.73044        38.400  

  23966347.68644 140320919.20254      2186.39144        37.900  

  19596661.76145 117358064.73255       232.98445        39.700  

 06 10 29 01 49  3.0000000  0  9G22G 6G21G10G30G26G17G16G 1                     
  22360886.57704 131884169.99504     -3438.61704        38.500  

  22055013.37944 130276793.29344      -964.06344        38.700  

  20677456.78605 108660765.81805      1741.30905        38.900  

  23364005.31404 137155589.48304      3781.75804        38.100  

  22227223.13604 131181761.75704      2959.17204        38.600  

  20504554.60805 122129075.25505     -1649.46905        39.100  

  22431828.07844 132256965.59244     -2641.19144        38.400  

  23965931.68704 140318732.99404      2186.05504        37.800  

  19596617.52705 117357832.22905       232.27005        39.600  

 06 10 29 01 49  4.0000000  0  9G22G 6G21G10G30G26G17G16G 1                     
  22361540.91704 131887608.62514     -3438.78904        38.400  

  22055196.90544 130277757.69944      -964.79744        38.300  

  20677125.46905 108659024.77315      1740.70705        39.100  

  23363285.68104 137151807.65214      3781.80104        38.000  

  22226660.11004 131178802.99714      2958.58204        38.600  

  20504868.54705 122130724.92415     -1649.80905        39.300  

  22432330.70804 132259606.88404     -2641.45704        38.200  

  23965515.78744 140316547.32754      2185.53544        37.900  

  19596573.39205 117357600.37415       231.64105        39.400  

 06 10 29 01 49  5.0000000  0  9G22G 6G21G10G30G26G17G16G 1                     
  22362195.30044 131891047.54354     -3439.15244        38.500  

  22055380.58404 130278722.84704      -965.68404        38.600  

  20676794.25405 108657284.27915      1740.16405        38.900  

  23362566.01904 137148025.96114      3781.73004        38.100  

  22226097.08904 131175844.41614      2958.55104        38.300  

  20505182.53505 122132374.91315     -1649.99205        39.300  

  22432833.43104 132262248.64614     -2642.08204        38.400  

  23965099.99244 140314362.23844      2184.52044        37.900  

  19596529.40405 117357369.19715       230.93805        39.600  

 06 10 29 01 49  6.0000000  0  9G22G 6G21G10G30G26G17G16G 1                     
  22362849.75804 131894486.81304     -3439.40204        38.600  

  22055564.41304 130279688.77414      -966.13704        38.600  

  20676463.16304 108655544.38314      1739.50004        38.800  

  23361846.40904 137144244.44714      3781.64504        38.000  

  22225534.13604 131172886.10514      2958.38304        38.400  

  20505496.62405 122134025.32815     -1650.55505        39.300  

  22433336.22944 132264890.90354     -2642.55544        38.500  

  23964684.26144 140312177.76244      2184.16444        38.100  

  19596485.53205 117357138.74015       230.26605        39.600  

 06 10 29 01 49  7.0000000  0  9G22G 6G21G10G30G26G17G16G 1                     
  22363504.27204 131897926.38814     -3440.11704        38.100  

  22055748.37344 130280655.45754      -966.95344        38.700  

  20676132.17505 108653805.02315      1739.00405        39.000  

  23361126.81844 137140463.08954      3780.91844        38.000  

  22224971.23704 131169928.03014      2957.75004        38.200  

  20505810.74805 122135676.09915     -1651.14805        39.100  

  22433839.11404 132267533.61104     -2643.25004        38.500  

  23964268.67544 140309993.83344      2183.59844        37.700  

  19596441.80505 117356908.94015       229.51205        39.500  

 06 10 29 01 49  8.0000000  0  9G22G 6G21G10G30G26G17G16G 1                     
  22364158.87644 131901366.25354     -3440.00444        38.300  

  22055932.47444 130281622.91944      -967.77344        38.800  

  20675801.30645 108652066.22955      1738.33645        39.200  

  23360407.27244 137136681.87244      3781.26244        37.900  

  22224408.36244 131166970.16254      2957.68844        38.700  

  20506124.93945 122137327.19955     -1651.27045        39.200  

  22434342.10244 132270176.79054     -2643.43844        38.600  

  23963853.21544 140307810.48744      2183.07444        37.900  

  19596398.22545 117356679.86655       228.60545        39.700  

 06 10 29 01 49  9.0000000  0  9G22G 6G21G10G30G26G17G16G 1                     
  22364813.53344 131904806.46444     -3440.34044        38.200  

  22056116.70004 130282591.15304      -968.58604        38.500  

  20675470.52305 108650327.99305      1738.18405        39.100  

  23359687.74704 137132900.84904      3780.89804        37.900  

  22223845.54304 131164012.55004      2957.24604        38.500  

  20506439.21005 122138978.72805     -1651.66005        39.400  

  22434845.17544 132272820.45144     -2644.12544        38.500  

  23963437.85204 140305627.74404      2182.22304        37.600  

  19596354.75505 117356451.44205       228.37505        39.600  

 06 10 29 01 49 10.0000000  0  9G22G 6G21G10G30G26G17G16G 1                     
  22365468.20644 131908246.92644     -3440.54744        38.600  

  22056301.08404 130283560.09314      -968.99604        38.700  

  20675139.84805 108648590.27915      1737.52705        39.100  

  23358968.29404 137129119.93014      3781.00004        38.200  

  22223282.76304 131161055.11214      2957.35504        38.500  

  20506753.51905 122140630.54015     -1651.78905        39.200  

  22435348.31844 132275464.51044     -2644.03144        38.500  

  23963022.60244 140303445.49954      2182.10544        37.800  

  19596311.42505 117356223.67915       227.74605        39.600  

 06 10 29 01 49 11.0000000  0  9G22G 6G21G10G30G26G17G16G 1                     
  22366122.95844 131911687.58244     -3440.77044        38.300  

  22056485.59804 130284529.67214      -969.78904        38.400  

  20674809.25305 108646852.99915      1736.96905        39.000  

  23358248.79304 137125339.02614      3781.09804        38.100  

  22222719.97604 131158097.76514      2957.37104        38.600  

  20507067.86805 122142282.59815     -1651.98405        39.300  

  22435851.50744 132278108.94144     -2644.65244        38.500  

  23962607.44804 140301263.73104      2181.44904        37.700  

  19596268.19505 117355996.49315       226.70705        39.700  

 06 10 29 01 49 12.0000000  0  9G22G 6G21G10G30G26G17G16G 1                     
  22366777.75744 131915128.54744     -3441.05944        38.600  

  22056670.25404 130285500.02614      -970.64504        38.600  

  20674478.74705 108645116.27315      1736.52705        38.900  

  23357529.33404 137121558.30614      3780.83204        38.200  

  22222157.26704 131155140.70014      2956.78504        38.500  

  20507382.30605 122143935.05715     -1652.80105        39.300  

  22436354.78804 132280753.82404     -2645.18804        38.100  

  23962192.35204 140299082.53114      2180.78904        38.000  

  19596225.08845 117355769.98755       226.07845        39.700  

 06 10 29 01 49 13.0000000  0  9G22G 6G21G10G30G26G17G16G 1                     
  22367432.64744 131918569.93244     -3441.56344        38.600  

  22056855.05104 130286471.22714      -971.68404        38.600  

  20674148.40745 108643380.20655      1735.91845        39.000  

  23356809.97604 137117777.82314      3780.69104        37.900  

  22221594.62504 131152183.91714      2956.34804        38.500  

  20507696.84305 122145587.93615     -1652.84405        39.000  

  22436858.19544 132283399.28254     -2645.82444        38.600  

  23961777.43204 140296902.01114      2180.21504        37.700  

  19596182.14305 117355544.24005       225.46105        39.700  

 06 10 29 01 49 14.0000000  0  9G22G 6G21G10G30G26G17G16G 1                     
  22368087.57344 131922011.58244     -3441.69544        38.300  

  22057039.99244 130287443.15954      -972.21544        38.500  

  20673818.16045 108641644.66845      1735.35945        39.200  

  23356090.60944 137113997.48154      3780.44944        38.200  

  22221032.00144 131149227.32854      2956.44944        38.600  

  20508011.43145 122147241.16655     -1653.43445        39.200  

  22437361.67244 132286045.16544     -2646.05944        38.200  

  23961362.61844 140294722.03254      2179.68044        37.800  

  19596139.30645 117355319.17455       224.82045        39.500  

 06 10 29 01 49 15.0000000  0  9G22G 6G21G10G30G26G17G16G 1                     
  22368742.55604 131925453.57804     -3441.98804        38.400  

  22057225.10604 130288415.87204      -973.03104        38.500  

  20673488.02045 108639909.70745      1735.00445        38.900  

  23355371.25804 137110217.31004      3780.13704        37.900  

  22220469.42504 131146271.01004      2956.36704        38.500  

  20508326.11005 122148894.77105     -1653.45305        38.900  

  22437865.24844 132288691.55744     -2646.75844        38.400  

  23960947.92304 140292542.67104      2179.05504        37.900  

  19596096.59645 117355094.80445       224.14145        39.400  

 06 10 29 01 49 16.0000000  0  9G22G 6G21G10G30G26G17G16G 1                     
  22369397.56504 131928895.77714     -3442.13304        38.500  

  22057410.31204 130289389.26714      -973.89504        38.600  

  20673157.96845 108638175.19545      1734.28145        38.900  

  23354651.93904 137106437.20114      3780.13704        38.000  

  22219906.89004 131143314.81814      2956.12504        38.500  

  20508640.86705 122150548.65915     -1654.08205        39.200  

  22438368.88704 132291338.28204     -2646.95304        38.300  

  23960533.32504 140290363.73914      2178.69104        37.700  

  19596054.00445 117354871.02845       223.41045        39.600  

 06 10 29 01 49 17.0000000  0  9G22G 6G21G10G30G26G17G16G 1                     
  22370052.63504 131932338.29514     -3442.42204        38.400  

  22057595.69004 130290363.37914      -974.31304        38.700  

  20672828.01445 108636441.24545      1733.66445        39.000  

  23353932.60904 137102657.24114      3779.68004        38.100  

  22219344.37304 131140358.84314      2955.78104        38.700  

  20508955.68405 122152202.90515     -1654.38705        39.100  

  22438872.65804 132293985.49114     -2647.54704        38.200  

  23960118.81804 140288185.42814      2178.20304        37.800  

  19596011.55745 117354647.91045       222.86745        39.500  

 06 10 29 01 49 18.0000000  0  9G22G 6G21G10G30G26G17G16G 1                     
  22370707.79404 131935781.04914     -3442.60204        38.500  

  22057781.21104 130291338.21914      -974.95704        38.700  

  20672498.15445 108634707.79945      1733.10245        39.100  

  23353213.32704 137098877.38914      3779.84004        38.000  

  22218781.91544 131137403.03554      2955.81344        38.400  

  20509270.52905 122153857.43815     -1654.48005        39.200  

  22439376.50104 132296633.11714     -2647.84404        38.500  

  23959704.41004 140286007.62614      2177.26204        37.800  

  19595969.21105 117354425.45405       222.24205        39.700  

 06 10 29 01 49 19.0000000  0  9G22G 6G21G10G30G26G17G16G 1                     
  22371362.96344 131939223.97354     -3442.71944        38.600  

  22057966.81904 130292313.67514      -975.42604        38.500  

  20672168.35105 108632974.77105      1732.91805        38.900  

  23352494.06904 137095097.54714      3779.93404        38.300  

  22218219.43044 131134447.32244      2955.66844        38.500  

  20509585.41405 122155512.22315     -1654.75405        39.400  

  22439880.40844 132299281.03954     -2647.95344        38.500  

  23959290.10604 140283830.23914      2177.38704        37.900  

  19595926.96605 117354203.51215       221.72705        39.600  

 06 10 29 01 49 20.0000000  0  9G22G 6G21G10G30G26G17G16G 1                     
  22372018.19944 131942667.12344     -3443.47344        38.400  

  22058152.58644 130293289.80154      -976.43044        38.700  

  20671838.65345 108631242.18055      1732.36345        39.100  

  23351774.80144 137091317.74754      3779.93044        38.100  

  22217657.01344 131131491.72444      2955.73844        38.400  

  20509900.35045 122157167.25155     -1655.17245        39.100  

  22440384.35144 132301929.33444     -2648.48044        38.300  

  23958875.84744 140281653.35254      2176.34444        38.000  

  19595884.84645 117353982.16755       220.93445        39.700  

 06 10 29 01 49 21.0000000  0  9G22G 6G21G10G30G26G17G16G 1                     
  22372673.45204 131946110.55304     -3443.41004        38.500  

  22058338.47504 130294266.66704      -977.09004        38.700  

  20671509.04445 108629510.17145      1731.58645        39.200  

  23351055.51904 137087538.12604      3779.36304        38.000  

  22217094.62104 131128536.38704      2955.15604        38.200  

  20510215.36505 122158822.66605     -1655.87905        39.200  

  22440888.40304 132304578.10204     -2648.87104        38.400  

  23958461.72804 140279477.01804      2175.78504        37.600  

  19595842.86005 117353761.49505       220.54705        39.500  

 06 10 29 01 49 22.0000000  0  9G22G 6G21G10G30G26G17G16G 1                     
  22373328.75704 131949554.33214     -3443.75004        38.300  

  22058524.51604 130295244.32314      -978.09004        38.600  

  20671179.58845 108627778.73245      1731.23845        39.100  

  23350336.31844 137083758.66854      3779.43444        38.300  

  22216532.24704 131125581.27114      2954.79304        38.500  

  20510530.46745 122160478.41355     -1655.85545        39.300  

  22441392.55744 132307227.37154     -2649.75844        38.500  

  23958047.67344 140277301.27554      2175.14544        37.800  

  19595801.00845 117353541.54455       219.61745        39.800  

 06 10 29 01 49 23.0000000  0  9G22G 6G21G10G30G26G17G16G 1                     
  22373984.15204 131952998.41214     -3444.28504        38.500  

  22058710.70704 130296222.73314      -978.80904        38.600  

  20670850.20745 108626047.82645      1730.51245        39.000  

  23349617.12744 137079979.36844      3779.13744        37.800  

  22215969.95404 131122626.37214      2954.77704        38.600  

  20510845.60445 122162134.57845     -1656.57445        39.200  

  22441896.78704 132309877.04304     -2649.82404        38.500  

  23957633.75904 140275126.11204      2174.71504        37.800  

  19595759.29845 117353322.25245       219.14545        39.400  

 06 10 29 01 49 24.0000000  0  9G22G 6G21G10G30G26G17G16G 1                     
  22374639.63004 131956442.85714     -3444.67604        38.600  

  22058897.05204 130297201.96214      -979.81304        38.700  

  20670520.93945 108624317.56445      1729.99245        39.100  

  23348898.00644 137076200.28344      3778.74244        38.100  

  22215407.70404 131119671.77014      2954.38704        38.400  

  20511160.82645 122163791.12345     -1656.81345        39.200  

  22442401.11704 132312527.28014     -2650.58604        38.300  

  23957219.97204 140272951.58314      2174.02304        37.900  

  19595717.72405 117353103.71905       218.06605        39.500  

 06 10 29 01 49 25.0000000  0  9G22G 6G21G10G30G26G17G16G 1                     
  22375295.17104 131959887.74914     -3445.18804        38.300  

  22059083.57704 130298182.09414      -980.91404        38.600  

  20670191.80745 108622587.96345      1729.50845        39.100  

  23348178.92344 137072421.47444      3778.74644        38.100  

  22214845.52804 131116717.52814      2954.09004        38.600  

  20511476.16045 122165448.16445     -1657.21545        39.200  

  22442905.54804 132315178.11414     -2651.23004        38.500  

  23956806.30204 140270777.75514      2173.71904        37.700  

  19595676.28905 117352885.98215       217.45305        39.600  

 06 10 29 01 49 26.0000000  0  9G22G 6G21G10G30G26G17G16G 1                     
  22375950.76044 131963332.98954     -3445.61344        38.500  

  22059270.21444 130299163.01154      -981.54344        38.800  

  20669862.77445 108620858.96145      1728.95745        39.000  

  23347459.92144 137068642.87244      3778.51244        38.000  

  22214283.40144 131113763.54954      2953.95744        38.600  

  20511791.57045 122167105.64145     -1657.67245        39.300  

  22443410.06444 132317829.43554     -2651.63744        38.200  

  23956392.79044 140268604.56454      2172.96544        37.800  

  19595635.01745 117352668.99655       216.51245        39.600  

 06 10 29 01 49 27.0000000  0  9G22G 6G21G10G30G26G17G16G 1                     
  22376606.43504 131966778.53404     -3445.82804        38.300  

  22059457.02804 130300144.66904      -981.89804        38.600  

  20669533.87305 108619130.54305      1728.30505        39.000  

  23346740.87544 137064864.41944      3778.75444        38.100  

  22213721.31504 131110809.80604      2953.51204        38.800  

  20512107.04145 122168763.46245     -1658.16845        39.200  

  22443914.68304 132320481.21704     -2651.95704        38.300  

  23955979.36204 140266431.92004      2172.51204        37.900  

  19595593.85805 117352452.66305       216.23005        39.700  

 06 10 29 01 49 28.0000000  0  9G22G 6G21G10G30G26G17G16G 1                     
  22377262.12004 131970224.26314     -3445.98004        38.500  

  22059643.95104 130301126.97214      -982.51204        38.400  

  20669205.03505 108617402.55315      1727.76605        39.200  

  23346021.87404 137061086.01604      3778.56604        38.100  

  22213159.23804 131107856.15314      2953.78104        38.500  

  20512422.53605 122170421.52905     -1658.08205        39.300  

  22444419.37404 132323133.34014     -2652.28504        38.400  

  23955566.04304 140264259.78014      2171.95704        38.000  

  19595552.80305 117352236.92915       215.13705        39.600  

 06 10 29 01 49 29.0000000  0  9G22G 6G21G10G30G26G17G16G 1                     
  22377917.88004 131973670.25714     -3445.98404        38.400  

  22059831.01204 130302110.01814      -983.37104        38.500  

  20668876.29005 108615675.07815      1727.12905        39.000  

  23345302.88604 137057307.75014      3777.93804        38.200  

  22212597.23104 131104902.70514      2953.44104        38.600  

  20512738.13105 122172079.92115     -1658.84005        39.200  

  22444924.11604 132325785.91114     -2652.71904        38.300  

  23955152.80504 140262088.14714      2171.25804        37.800  

  19595511.84645 117352021.80655       214.79745        39.600  

 06 10 29 01 49 30.0000000  0  9G22G 6G21G10G30G26G17G16G 1                     
  22378573.65604 131977116.51114     -3446.29704        38.300  

  22060018.20844 130303093.76754      -983.87944        38.700  

  20668547.67505 108613948.10715      1726.59805        39.200  

  23344583.93704 137053529.56414      3778.07804        38.300  

  22212035.26104 131101949.44514      2953.02704        38.500  

  20513053.76705 122173738.60415     -1658.84405        39.300  

  22445428.95304 132328438.88714     -2653.17204        38.500  

  23954739.64804 140259917.01614      2170.84004        38.100  

  19595471.01105 117351807.33605       214.16405        39.600  

 06 10 29 01 49 31.0000000  0  9G22G 6G21G10G30G26G17G16G 1                     
  22379229.53504 131980563.08414     -3446.68804        38.400  

  22060205.57604 130304078.26604      -984.80504        38.600  

  20668219.13705 108612221.69015      1726.10505        39.100  

  23343864.98804 137049751.53714      3777.75804        38.100  

  22211473.29404 131098996.39614      2952.97304        38.600  

  20513369.46645 122175397.67255     -1659.31345        39.300  

  22445933.88304 132331092.32014     -2653.79704        38.300  

  23954326.62704 140257746.48614      2170.36304        38.000  

  19595430.34305 117351593.53715       213.51605        39.700  

 06 10 29 01 49 32.0000000  0  9G22G 6G21G10G30G26G17G16G 1                     
  22379885.43844 131984009.97754     -3447.34444        38.300  

  22060393.04844 130305063.54054      -985.81344        38.600  

  20667890.70445 108610495.84455      1725.61345        39.000  

  23343146.10244 137045973.68454      3777.46944        38.400  

  22210911.38044 131096043.58854      2952.78144        38.500  

  20513685.22845 122177057.10245     -1659.55145        39.300  

  22446438.91644 132333746.22254     -2654.09844        38.500  

  23953913.69944 140255576.52354      2169.82844        37.900  

  19595389.78245 117351380.43555       212.77045        39.600  

 06 10 29 01 49 33.0000000  0  9G22G 6G21G10G30G26G17G16G 1                     
  22380541.41344 131987457.19744     -3447.48844        38.600  

  22060580.69504 130306049.56504      -986.09404        38.500  

  20667562.39405 108608770.59205      1724.65605        39.000  

  23342427.24004 137042196.00004      3777.78104        38.000  

  22210349.50904 131093091.04404      2952.28904        38.600  

  20514001.09145 122178716.92645     -1660.00045        39.100  

  22446944.02704 132336400.60904     -2654.43404        38.300  

  23953500.88304 140253407.21204      2168.91404        37.800  

  19595349.36505 117351168.03705       212.08205        39.700  

 06 10 29 01 49 34.0000000  0  9G22G 6G21G10G30G26G17G16G 1                     
  22381197.46704 131990904.73004     -3447.82404        38.500  

  22060768.48704 130307036.45114      -987.41404        38.400  

  20667234.19945 108607045.90655      1724.26245        39.100  

  23341708.39504 137038418.51514      3777.51604        38.200  

  22209787.69504 131090138.72314      2952.20304        38.500  

  20514317.03445 122180377.13545     -1660.57845        39.300  

  22447449.24004 132339055.49714     -2655.14504        38.500  

  23953088.15704 140251238.44214      2168.59804        38.000  

  19595309.09205 117350956.37015       211.03505        39.600  

 06 10 29 01 49 35.0000000  0  9G22G 6G21G10G30G26G17G16G 1                     
  22381853.58604 131994352.58214     -3448.07004        38.600  

  22060956.44204 130308024.01614      -988.00404        38.500  

  20666906.10705 108605321.76605      1723.79705        39.300  

  23340989.57704 137034641.16214      3777.48004        38.000  

  22209225.93904 131087186.62714      2952.20704        38.700  

  20514633.01105 122182037.68205     -1660.70705        39.200  

  22447954.53704 132341710.81914     -2655.81604        38.400  

  23952675.52604 140249070.24814      2168.25004        38.000  

  19595268.91045 117350745.34555       210.77345        39.700  

 06 10 29 01 49 36.0000000  0  9G22G 6G21G10G30G26G17G16G 1                     
  22382509.74704 131997800.69914     -3448.18404        38.400  

  22061144.50204 130309012.35114      -988.62504        38.500  

  20666578.14205 108603598.16815      1723.06305        39.000  

  23340270.79544 137030863.94954      3777.38344        38.000  

  22208664.24244 131084234.76254      2951.80544        38.600  

  20514949.05905 122183698.59015     -1661.00405        39.100  

  22448459.90144 132344366.60254     -2656.05944        38.500  

  23952263.07204 140246902.65914      2167.05904        38.000  

  19595228.89405 117350534.99705       210.03905        39.700  

 06 10 29 01 49 37.0000000  0  9G22G 6G21G10G30G26G17G16G 1                     
  22383165.96604 132001249.16314     -3448.55504        38.300  

  22061332.75304 130310001.43414      -989.39804        38.500  

  20666250.27545 108601875.13655      1722.68445        39.000  

  23339552.07904 137027086.91604      3777.16804        38.300  

  22208102.55344 131081283.11444      2951.23444        38.500  

  20515265.18005 122185359.88515     -1661.30105        39.000  

  22448965.38344 132347022.84244     -2656.52044        38.300  

  23951850.67304 140244735.60114      2166.76204        37.900  

  19595189.00545 117350325.34555       209.29745        39.600  

 06 10 29 01 49 38.0000000  0  9G22G 6G21G10G30G26G17G16G 1                     
  22383822.24604 132004697.88014     -3448.87504        38.500  

  22061521.10304 130310991.23214      -989.87104        38.500  

  20665922.49405 108600152.64005      1722.19505        39.400  

  23338833.35404 137023310.00714      3776.69904        38.000  

  22207540.89004 131078331.66504      2951.43404        38.600  

  20515581.37505 122187021.47115     -1661.53905        39.300  

  22449470.90444 132349679.49044     -2656.64844        38.400  

  23951438.41904 140242569.10714      2166.12104        37.800  

  19595149.22645 117350116.33045       208.66845        39.600  

 06 10 29 01 49 39.0000000  0  9G22G 6G21G10G30G26G17G16G 1                     
  22384478.55704 132008146.89414     -3449.23404        38.600  

  22061709.62104 130311981.80114      -991.18004        38.600  

  20665594.80345 108598430.65855      1721.65245        39.100  

  23338114.66804 137019533.24014      3776.44904        38.100  

  22206979.26304 131075380.42014      2951.19104        38.800  

  20515897.61044 122188683.40354     -1661.93044        38.800  

  22449976.53944 132352336.61644     -2657.52744        38.700  

  23951026.26544 140240403.16254      2165.73844        37.900  

  19595109.58145 117349907.97845       207.98045        39.700  

 06 10 29 01 49 40.0000000  0  9G22G 6G21G10G30G26G17G16G 1                     
  22385134.94004 132011596.23214     -3449.56604        38.500  

  22061898.29204 130312973.12814      -991.50404        38.600  

  20665267.25445 108596709.26645      1721.03145        39.200  

  23337395.99904 137015756.60914      3776.79304        37.900  

  22206417.72104 131072429.43914      2950.78504        38.400  

  20516213.95145 122190345.75345     -1662.57845        39.300  

  22450482.27644 132354994.20644     -2657.87144        38.400  

  23950614.19704 140238237.82104      2164.94104        38.100  

  19595070.07045 117349700.31945       207.57445        39.800  

 06 10 29 01 49 41.0000000  0  9G22G 6G21G10G30G26G17G16G 1                     
  22385791.41004 132015045.91614     -3449.84804        38.400  

  22062087.07904 130313965.25714      -992.22704        38.500  

  20664939.79345 108594988.48245      1720.43045        39.200  

  23336677.38004 137011980.25814      3776.30104        38.100  

  22205856.21104 131069478.70614      2950.78904        38.600  

  20516530.35505 122192008.48605     -1662.95305        39.200  

  22450988.10644 132357652.30844     -2658.24244        38.400  

  23950202.25744 140236073.09854      2164.11344        37.800  

  19595030.70345 117349493.42445       206.62545        39.700  

 06 10 29 01 49 42.0000000  0  9G22G 6G21G10G30G26G17G16G 1                     
  22386447.93504 132018495.91914     -3450.09404        38.400  

  22062276.02004 130314958.18314      -993.44104        38.300  

  20664612.41005 108593268.26405      1719.93805        39.200  

  23335958.79004 137008204.01714      3776.12504        38.200  

  22205294.75404 131066528.24214      2950.26204        38.700  

  20516846.84905 122193671.59715     -1663.34805        39.000  

  22451494.01044 132360310.87344     -2658.62544        38.400  

  23949790.45504 140233908.97304      2163.77004        37.800  

  19594991.45345 117349287.20145       206.05145        39.700  

 06 10 29 01 49 43.0000000  0  9G22G 6G21G10G30G26G17G16G 1                     
  22387104.48404 132021946.21314     -3450.41004        38.600  

  22062465.08804 130315951.81714      -994.10204        38.600  

  20664285.18405 108591548.58615      1719.18005        39.300  

  23335240.20304 137004427.95614      3775.68004        38.100  

  22204733.32504 131063577.98614      2949.86704        38.500  

  20517163.39405 122195335.06015     -1663.58605        39.400  

  22452000.00644 132362969.90744     -2659.44544        38.300  

  23949378.71604 140231745.38014      2163.40204        37.700  

  19594952.35205 117349081.65805       205.23005        39.800  

 06 10 29 01 49 44.0000000  0  9G22G 6G21G10G30G26G17G16G 1                     
  22387761.09944 132025396.84354     -3450.72744        38.300  

  22062654.32044 130316946.25154      -994.65644        38.600  

  20663958.06045 108589829.48955      1718.79345        39.300  

  23334521.64044 137000652.04954      3775.80944        38.000  

  22204171.97844 131060627.96254      2949.82444        38.400  

  20517480.00145 122196998.89455     -1663.98045        39.100  

  22452506.08744 132365629.40544     -2659.85944        38.500  

  23948967.15744 140229582.42754      2162.45744        38.100  

  19594913.38845 117348876.79855       204.64145        39.600  

 06 10 29 01 49 45.0000000  0  9G22G 6G21G10G30G26G17G16G 1                     
  22388417.78204 132028847.76304     -3451.02004        38.400  

  22062843.69904 130317941.42004      -995.34804        38.600  

  20663631.01105 108588110.94205      1718.13305        39.000  

  23333803.14204 136996876.30804      3775.55904        38.300  

  22203610.61704 131057678.13604      2949.89804        38.500  

  20517796.70905 122198663.08105     -1664.43405        39.300  

  22453012.25204 132368289.34404     -2660.23004        38.500  

  23948555.66644 140227420.00144      2162.46144        37.900  

  19594874.52605 117348672.61105       204.06605        39.700  

 06 10 29 01 49 46.0000000  0  9G22G 6G21G10G30G26G17G16G 1                     
  22389074.58504 132032299.04214     -3451.44504        38.400  

  22063033.23604 130318937.40814      -996.50404        38.500  

  20663304.11705 108586392.99915      1717.65605        39.100  

  23333084.66204 136993100.74114      3775.62504        38.000  

  22203049.36204 131054728.62414      2949.51604        38.600  

  20518113.48605 122200327.66515     -1664.60505        39.100  

  22453518.53404 132370949.80314     -2660.86304        38.200  

  23948144.28244 140225258.22244      2161.43044        37.700  

  19594835.79805 117348469.15215       203.32805        39.600  

 06 10 29 01 49 47.0000000  0  9G22G 6G21G10G30G26G17G16G 1                     
  22389731.42304 132035750.54714     -3451.56604        38.600  

  22063222.90604 130319934.06514      -997.00804        38.500  

  20662977.27405 108584675.51315      1717.69105        39.100  

  23332366.22704 136989325.29614      3775.43404        38.000  

  22202488.12104 131051779.22614      2949.53504        38.600  

  20518430.28705 122201992.56415     -1665.03105        39.300  

  22454024.85404 132373610.63014     -2661.09804        38.400  

  23947732.98944 140223096.92744      2160.96144        37.900  

  19594797.21005 117348266.33815       202.52705        39.500  

 06 10 29 01 49 48.0000000  0  9G22G 6G21G10G30G26G17G16G 1                     
  22390388.26604 132039202.20314     -3451.85904        38.500  

  22063412.67004 130320931.32914      -997.77704        38.700  

  20662650.52705 108582958.46015      1716.98405        39.100  

  23331647.78604 136985549.84114      3775.28504        38.000  

  22201926.87304 131048829.93314      2949.50804        38.500  

  20518747.14305 122203657.65415     -1665.32005        39.200  

  22454531.24104 132376271.77314     -2661.32404        38.600  

  23947321.78544 140220936.07044      2160.63344        37.800  

  19594758.71805 117348064.00615       202.27705        39.300  

 06 10 29 01 49 49.0000000  0  9G22G 6G21G10G30G26G17G16G 1                     
  22391045.13804 132042654.10714     -3451.99604        38.300  

  22063602.57604 130321929.28514      -998.04704        38.800  

  20662323.89105 108581241.90615      1716.41005        39.000  

  23330929.36804 136981774.48614      3775.23004        38.000  

  22201365.65604 131045880.81914      2948.92204        38.500  

  20519064.07405 122205323.04315     -1665.49605        39.200  

  22455037.71304 132378933.32714     -2661.64804        38.100  

  23946910.68604 140218775.73304      2160.07004        37.900  

  19594720.34305 117347862.33615       201.44105        39.600  

 06 10 29 01 49 50.0000000  0  9G22G 6G21G10G30G26G17G16G 1                     
  22391702.05344 132046106.27554     -3451.95744        38.400  

  22063792.62244 130322927.98854      -999.09044        38.600  

  20661997.35845 108579525.89255      1715.88745        39.200  

  23330210.97344 136977999.26454      3775.23044        38.100  

  22200804.47444 131042931.89054      2948.73844        38.500  

  20519381.07545 122206988.79355     -1665.81645        38.900  

  22455544.27744 132381595.29754     -2662.16844        38.300  

  23946499.70244 140216615.95854      2159.32444        38.000  

  19594682.08045 117347661.30855       200.69545        39.600  

 06 10 29 01 49 51.0000000  0  9G22G 6G21G10G30G26G17G16G 1                     
  22392359.05804 132049558.82304     -3452.63304        38.100  

  22063982.79244 130323927.49844      -999.77044        38.400  

  20661670.93005 108577810.47305      1715.33605        39.100  

  23329492.60904 136974224.24904      3774.92204        38.000  

  22200243.37004 131039983.24404      2948.36304        38.600  

  20519698.15405 122208654.93305     -1666.37105        39.300  

  22456050.93344 132384257.80244     -2662.76244        38.600  

  23946088.81104 140214456.78704      2158.81604        38.000  

  19594643.94605 117347461.00405       199.94105        39.500  

 06 10 29 01 49 52.0000000  0  9G22G 6G21G10G30G26G17G16G 1                     
  22393016.10904 132053011.71214     -3453.27704        38.500  

  22064173.12804 130324927.77004     -1000.84404        38.400  

  20661344.60805 108576095.61415      1714.65605        39.100  

  23328774.28304 136970449.39614      3774.66404        38.100  

  22199682.30904 131037034.80714      2948.42204        38.500  

  20520015.26705 122210321.44415     -1666.56305        39.200  

  22456557.65744 132386920.75444     -2663.14144        38.600  

  23945678.06504 140212298.18914      2158.37104        37.800  

  19594605.95905 117347261.39115       199.30505        39.600  

 06 10 29 01 49 53.0000000  0  9G22G 6G21G10G30G26G17G16G 1                     
  22393673.23404 132056464.85014     -3453.19504        38.600  

  22064363.60804 130325928.79114     -1001.28504        38.500  

  20661018.36705 108574381.33315      1713.94905        38.900  

  23328055.98904 136966674.71714      3774.52004        38.200  

  22199121.27804 131034086.64014      2948.07804        38.600  

  20520332.48505 122211988.32715     -1667.18805        39.300  

  22457064.47904 132389584.16204     -2663.35504        38.300  

  23945267.39704 140210140.21114      2157.62104        37.800  

  19594568.10005 117347062.46715       198.51205        39.500  

 06 10 29 01 49 54.0000000  0  9G22G 6G21G10G30G26G17G16G 1                     
  22394330.40604 132059918.33014     -3453.87504        38.300  

  22064554.25104 130326930.59014     -1002.32404        38.600  

  20660692.25905 108572667.60215      1713.45305        39.100  

  23327337.73404 136962900.19714      3774.55104        38.100  

  22198560.33104 131031138.67414      2948.02704        38.500  

  20520649.72045 122213655.55455     -1667.29745        39.200  

  22457571.40004 132392248.06514     -2664.23804        38.400  

  23944856.82304 140207982.77514      2157.08204        38.100  

  19594530.37505 117346864.22615       197.80505        39.600  

 06 10 29 01 49 55.0000000  0  9G22G 6G21G10G30G26G17G16G 1                     
  22394987.62144 132063372.06554     -3454.08644        38.400  

  22064745.00504 130327933.10214     -1002.80904        38.700  

  20660366.24405 108570954.41315      1712.73405        39.000  

  23326619.50404 136959125.80514      3774.21904        38.200  

  22197999.38504 131028190.93514      2947.41404        38.300  

  20520967.06205 122215323.13205     -1667.65605        39.300  

  22458078.36904 132394912.35714     -2664.38704        38.600  

  23944446.39804 140205825.90614      2156.47304        37.800  

  19594492.75105 117346666.64315       197.13705        39.600  

 06 10 29 01 49 56.0000000  0  9G22G 6G21G10G30G26G17G16G 1                     
  22395644.89444 132066826.14044     -3454.52744        38.200  

  22064935.91944 130328936.39354     -1003.80544        38.600  

  20660040.34045 108569241.80155      1712.06645        39.000  

  23325901.29344 136955351.61454      3773.89844        38.000  

  22197438.47344 131025243.42854      2947.28544        38.700  

  20521284.45945 122216991.10655     -1668.27045        39.400  

  22458585.48444 132397577.15954     -2665.04744        38.300  

  23944036.08744 140203669.63954      2155.82044        38.000  

  19594455.27745 117346469.76155       196.35945        39.600  

 06 10 29 01 49 57.0000000  0  9G22G 6G21G10G30G26G17G16G 1                     
  22396302.27304 132070280.60804     -3454.51204        38.400  

  22065126.98304 130329940.52104     -1004.24604        38.500  

  20659714.54305 108567529.81405      1711.69105        39.200  

  23325183.13504 136951577.64804      3773.85504        38.200  

  22196877.65444 131022296.23544      2946.77744        38.600  

  20521601.95305 122218659.52205     -1669.02705        39.300  

  22459092.67904 132400242.50404     -2665.50004        38.300  

  23943625.86904 140201514.04504      2155.29704        37.800  

  19594417.94205 117346273.63705       195.92605        39.400  

 06 10 29 01 49 58.0000000  0  9G22G 6G21G10G30G26G17G16G 1                     
  22396959.67844 132073735.43954     -3455.28144        38.500  

  22065318.24104 130330945.47914     -1005.46904        38.500  

  20659388.90005 108565818.44215      1711.24605        39.400  

  23324464.98204 136947803.88914      3773.70704        38.100  

  22196316.88044 131019349.33544      2946.74644        38.500  

  20521919.52605 122220328.31715     -1669.07805        39.100  

  22459599.96804 132402908.34814     -2665.97704        38.400  

  23943215.77304 140199359.05214      2154.72304        37.900  

  19594380.75405 117346078.25515       194.90205        39.400  

 06 10 29 01 49 59.0000000  0  9G22G 6G21G10G30G26G17G16G 1                     
  22397617.16544 132077190.49044     -3455.14144        38.400  

  22065509.61604 130331951.11514     -1005.77304        38.400  

  20659063.34005 108564107.59615      1710.26605        39.200  

  23323746.85904 136944030.24114      3773.57804        38.100  

  22195756.14004 131016402.58104      2946.70304        38.500  

  20522237.15805 122221997.45415     -1669.52705        39.300  

  22460107.36404 132405574.59014     -2666.57404        38.300  

  23942805.79304 140197204.60014      2154.16804        37.700  

  19594343.67845 117345883.50555       194.28145        39.700  

 06 10 29 01 50  0.0000000  0  9G22G 6G21G10G30G26G17G16G 1                     
  22398274.73144 132080645.88444     -3455.60244        38.700  

  22065701.13604 130332957.53114     -1006.91004        38.600  

  20658737.88805 108562397.28515      1710.12905        39.000  

  23323028.80204 136940256.75114      3773.57804        38.000  

  22195195.45604 131013456.05414      2946.93004        38.300  

  20522554.83605 122223666.92315     -1669.63705        39.300  

  22460614.82904 132408241.29714     -2666.71904        38.300  

  23942395.90204 140195050.72414      2153.69904        37.800  

  19594306.75305 117345689.42205       193.90605        39.900  

 06 10 29 01 50  1.0000000  0  9G22G 6G21G10G30G26G17G16G 1                     
  22398932.32744 132084101.48244     -3455.82044        38.500  

  22065892.74204 130333964.59314     -1006.97704        38.800  

  20658412.50305 108560687.46715      1709.48805        39.000  

  23322310.75304 136936483.36014      3773.12104        37.900  

  22194634.78704 131010509.71814      2946.24204        38.700  

  20522872.58405 122225336.69315     -1670.01205        39.000  

  22461122.35404 132410908.37814     -2667.10504        38.600  

  23941986.12204 140192897.35014      2152.95704        37.800  

  19594269.92945 117345495.96255       193.05145        39.500  

 06 10 29 01 50  2.0000000  0  9G22G 6G21G10G30G26G17G16G 1                     
  22399589.93744 132087557.26444     -3455.66444        38.400  

  22066084.52704 130334972.36214     -1008.56304        38.400  

  20658087.20805 108558978.08215      1709.32805        39.000  

  23321592.69404 136932709.99514      3773.20704        37.800  

  22194074.14344 131007563.47954      2946.02044        38.400  

  20523190.39645 122227006.70655     -1670.02745        39.300  

  22461629.97604 132413575.82014     -2667.49204        38.300  

  23941576.43004 140190744.42814      2152.48004        37.900  

  19594233.21705 117345303.05405       192.65205        39.700  

 06 10 29 01 50  3.0000000  0  9G22G 6G21G10G30G26G17G16G 1                     
  22400247.57404 132091013.23304     -3455.93404        38.400  

  22066276.37804 130335980.69714     -1008.47704        38.400  

  20657761.98905 108557269.15415      1708.77305        38.900  

  23320874.65804 136928936.67614      3773.15204        38.000  

  22193513.52104 131004617.32904      2946.07804        38.300  

  20523508.23045 122228676.96545     -1670.59845        39.000  

  22462137.66444 132416243.58254     -2667.77744        38.400  

  23941166.83644 140188591.97154      2152.19544        37.900  

  19594196.56345 117345110.70855       192.02345        39.500  

 06 10 29 01 50  4.0000000  0  9G22G 6G21G10G30G26G17G16G 1                     
  22400905.29004 132094469.53414     -3456.38704        38.500  

  22066468.42104 130336989.83414     -1009.59004        38.500  

  20657436.89205 108555560.78015      1708.19105        39.300  

  23320156.67804 136925163.52214      3773.28104        38.300  

  22192952.94004 131001671.42614      2946.05104        38.300  

  20523826.14145 122230347.59245     -1670.83645        39.100  

  22462645.38444 132418911.82844     -2668.72744        38.600  

  23940757.34104 140186440.09904      2151.27004        37.800  

  19594160.08745 117344919.06945       191.26245        39.600  

 06 10 29 01 50  5.0000000  0  9G22G 6G21G10G30G26G17G16G 1                     
  22401563.06704 132097926.18014     -3456.84404        38.500  

  22066660.62504 130337999.77114     -1010.24204        38.300  

  20657111.91805 108553853.01415      1707.39105        39.100  

  23319438.70104 136921390.60014      3772.90204        38.200  

  22192392.42304 130998725.80414      2945.46904        38.700  

  20524144.12945 122232018.60745     -1671.20745        39.400  

  22463153.25344 132421580.57044     -2669.16444        38.300  

  23940347.97004 140184288.83614      2151.02004        37.800  

  19594123.76045 117344728.13945       190.64545        39.700  

 06 10 29 01 50  6.0000000  0  9G22G 6G21G10G30G26G17G16G 1                     
  22402220.88604 132101383.07914     -3456.86704        38.200  

  22066852.94604 130339010.41914     -1010.75004        38.500  

  20656787.03905 108552145.76915      1706.90605        39.200  

  23318720.76004 136917617.77714      3773.08204        38.100  

  22191831.91104 130995780.36914      2945.36304        38.400  

  20524462.18145 122233689.98345     -1671.44145        39.200  

  22463661.18344 132424249.73044     -2669.36744        38.700  

  23939938.71904 140182138.13414      2150.43404        37.900  

  19594087.54245 117344537.85645       189.89845        39.400  

 06 10 29 01 50  7.0000000  0  9G22G 6G21G10G30G26G17G16G 1                     
  22402878.74304 132104840.26714     -3457.18004        38.700  

  22067045.41804 130340021.81014     -1011.71104        38.500  

  20656462.28005 108550439.07715      1706.30505        39.100  

  23318002.85804 136913845.11514      3772.67204        38.000  

  22191271.45344 130992835.15054      2945.11744        38.400  

  20524780.29605 122235361.67105     -1672.05105        39.100  

  22464169.18904 132426919.32204     -2669.79704        38.300  

  23939529.56004 140179987.99614      2149.78504        37.700  

  19594051.48705 117344348.25505       189.15605        39.700  

 06 10 29 01 50  8.0000000  0  9G22G 6G21G10G30G26G17G16G 1                     
  22403536.67944 132108297.79654     -3457.76244        38.400  

  22067238.07044 130341033.96954     -1012.32044        38.600  

  20656137.63045 108548732.94155      1705.89145        39.100  

  23317284.96544 136910072.62454      3772.50844        38.100  

  22190711.05544 130989890.17344      2944.89144        38.600  

  20525098.48145 122237033.75555     -1672.27745        39.200  

  22464677.27644 132429589.40954     -2670.25844        38.700  

  23939120.50044 140177838.44954      2149.22344        37.900  

  19594015.53145 117344159.34155       188.42645        39.600  

 06 10 29 01 50  9.0000000  0  9G22G 6G21G10G30G26G17G16G 1                     
  22404194.69604 132111755.56104     -3457.44904        38.500  

  22067430.84204 130342046.86504     -1013.22704        38.600  

  20655813.08305 108547027.34605      1705.40205        39.000  

  23316567.11404 136906300.25104      3772.41804        38.100  

  22190150.71004 130986945.39704      2944.73404        38.500  

  20525416.74405 122238706.15305     -1672.42205        39.400  

  22465185.44004 132432259.90504     -2670.79304        38.500  

  23938711.59304 140175689.43304      2148.73004        38.100  

  19593979.70505 117343971.06905       187.94505        39.600  

 06 10 29 01 50 10.0000000  0  9G22G 6G21G10G30G26G17G16G 1                     
  22404852.73144 132115213.62654     -3457.99644        38.600  

  22067623.72704 130343060.48814     -1014.30904        38.700  

  20655488.63245 108545322.29755      1704.91045        39.100  

  23315849.24104 136902528.03214      3772.03904        38.100  

  22189590.38204 130984000.81114      2944.34804        38.400  

  20525735.04505 122240378.91115     -1673.09005        39.200  

  22465693.71604 132434930.82614     -2671.15604        38.500  

  23938302.77844 140173541.00154      2147.89144        37.900  

  19593944.00505 117343783.46015       187.25805        39.600  

 06 10 29 01 50 11.0000000  0  9G22G 6G21G10G30G26G17G16G 1                     
  22405510.88744 132118672.08944     -3458.54344        38.400  

  22067816.76704 130344074.94414     -1014.93804        38.600  

  20655164.27045 108543617.87445      1704.02045        39.200  

  23315131.46244 136898756.05054      3771.89544        38.200  

  22189030.11404 130981056.54314      2944.29704        38.500  

  20526053.44705 122242052.09215     -1673.41405        39.100  

  22466202.08904 132437602.31114     -2671.87904        38.200  

  23937894.02204 140171393.19104      2147.46904        37.800  

  19593908.46705 117343596.62215       186.35905        39.700  

 06 10 29 01 50 12.0000000  0  9G22G 6G21G10G30G26G17G16G 1                     
  22406169.06804 132122130.82504     -3458.58604        38.500  

  22068009.96604 130345090.15714     -1015.80104        38.400  

  20654840.01645 108541914.00745      1703.44145        38.900  

  23314413.68344 136894984.21244      3772.02344        38.000  

  22188469.86104 130978112.50014      2943.87904        38.600  

  20526371.95305 122243725.63215     -1673.87905        39.300  

  22466710.51904 132440274.21914     -2672.18404        38.600  

  23937485.42204 140169245.98414      2146.93404        37.900  

  19593873.02905 117343410.44515       185.77305        39.800  

 06 10 29 01 50 13.0000000  0  9G22G 6G21G10G30G26G17G16G 1                     
  22406827.31404 132125590.00914     -3459.42604        38.400  

  22068203.32944 130346106.22954     -1016.44144        38.500  

  20654515.89845 108540210.82545      1702.82845        39.100  

  23313696.00344 136891212.67644      3771.31344        37.900  

  22187909.69204 130975168.77814      2943.68804        38.700  

  20526690.51205 122245399.63415     -1674.04705        39.300  

  22467219.09904 132442946.69414     -2672.61304        38.300  

  23937076.94804 140167099.46014      2146.32404        38.100  

  19593837.78705 117343225.07915       184.98005        39.600  

 06 10 29 01 50 14.0000000  0  9G22G 6G21G10G30G26G17G16G 1                     
  22407485.63844 132129049.51554     -3459.38344        38.400  

  22068396.83244 130347123.08744     -1017.06644        38.400  

  20654191.89745 108538508.21345      1702.40245        39.100  

  23312978.31644 136887441.32644      3771.11344        38.400  

  22187349.59444 130972225.35954      2943.48444        38.500  

  20527009.16445 122247074.04755     -1674.55545        39.400  

  22467727.75644 132445619.71454     -2673.49644        38.600  

  23936668.59044 140164953.54154      2145.42644        37.800  

  19593802.67145 117343040.41555       184.18045        39.600  

 06 10 29 01 50 15.0000000  0  9G22G 6G21G10G30G26G17G16G 1                     
  22408144.03804 132132509.39404     -3460.00404        38.500  

  22068590.47544 130348140.78344     -1018.06644        38.600  

  20653868.02545 108536806.24345      1701.89145        39.400  

  23312260.68444 136883670.18844      3770.94544        38.000  

  22186789.53304 130969282.21304      2942.89504        38.600  

  20527327.86405 122248748.89805     -1675.16005        39.500  

  22468236.50804 132448293.19704     -2673.69104        38.500  

  23936260.35504 140162808.28204      2145.12104        37.700  

  19593767.67105 117342856.51305       183.26205        39.600  

 06 10 29 01 50 16.0000000  0  9G22G 6G21G10G30G26G17G16G 1                     
  22408802.48304 132135969.59714     -3460.46904        38.600  

  22068784.29744 130349159.25344     -1018.75044        38.700  

  20653544.26645 108535104.86545      1701.20345        39.200  

  23311543.07904 136879899.24604      3770.96104        38.100  

  22186229.50804 130966339.31114      2942.93804        38.600  

  20527646.64605 122250424.10715     -1675.38305        39.200  

  22468745.33504 132450967.18214     -2674.27004        38.200  

  23935852.19804 140160663.59814      2144.44904        38.000  

  19593732.77005 117342673.28715       182.86705        39.700  

 06 10 29 01 50 17.0000000  0  9G22G 6G21G10G30G26G17G16G 1                     
  22409461.00004 132139430.04014     -3460.82404        38.300  

  22068978.24504 130350178.41904     -1019.44104        38.700  

  20653220.58105 108533403.94805      1700.64105        38.900  

  23310825.50104 136876128.39314      3770.80104        38.100  

  22185669.52704 130963396.57914      2942.64804        38.400  

  20527965.49645 122252099.60755     -1675.64545        39.400  

  22469254.23704 132453641.54914     -2674.58604        38.600  

  23935444.18204 140158519.45614      2143.82804        37.700  

  19593698.04505 117342490.70515       181.98805        39.400  

 06 10 29 01 50 18.0000000  0  9G22G 6G21G10G30G26G17G16G 1                     
  22410119.57604 132142890.67414     -3460.67604        38.200  

  22069172.33604 130351198.23514     -1020.35204        38.600  

  20652897.01105 108531703.52215      1699.94105        39.000  

  23310107.94904 136872357.61614      3770.62104        38.200  

  22185109.54704 130960453.98514      2942.36704        38.400  

  20528284.39305 122253775.40005     -1675.91405        39.000  

  22469763.23604 132456316.28414     -2674.91404        38.100  

  23935036.27604 140156375.80414      2143.12104        37.900  

  19593663.40505 117342308.69215       181.65605        39.800  

 06 10 29 01 50 19.0000000  0  9G22G 6G21G10G30G26G17G16G 1                     
  22410778.18404 132146351.58114     -3460.89104        38.300  

  22069366.53204 130352218.77514     -1020.79704        38.500  

  20652573.52305 108530003.63015      1699.57005        39.200  

  23309390.40404 136868586.97114      3770.82004        38.200  

  22184549.60104 130957511.56614      2942.41004        38.400  

  20528603.33645 122255451.51055     -1676.33245        39.400  

  22470272.29604 132458991.44514     -2675.41404        38.400  

  23934628.43644 140154232.66354      2142.76644        38.100  

  19593628.90305 117342127.34315       180.90605        39.600  

 06 10 29 01 50 20.0000000  0  9G22G 6G21G10G30G26G17G16G 1                     
  22411436.84344 132149812.83754     -3461.34444        38.600  

  22069560.88344 130353240.10254     -1021.69944        38.600  

  20652250.14445 108528304.30355      1699.02345        39.300  

  23308672.91944 136864816.52654      3770.04344        38.300  

  22183989.72244 130954569.42454      2942.21944        38.600  

  20528922.38045 122257128.00345     -1676.74645        39.400  

  22470781.47944 132461667.08354     -2675.86744        38.300  

  23934220.72644 140152090.14844      2142.30144        38.000  

  19593594.52045 117341946.70855       180.17245        39.500  

 06 10 29 01 50 21.0000000  0  9G22G 6G21G10G30G26G17G16G 1                     
  22412095.58304 132153274.50104     -3461.48804        38.600  

  22069755.39204 130354262.31404     -1022.53504        38.600  

  20651926.89805 108526605.65505      1698.40205        39.100  

  23307955.47004 136861046.33304      3770.19104        38.100  

  22183429.92404 130951627.63704      2941.78504        38.600  

  20529241.50205 122258804.97405     -1677.07405        39.100  

  22471290.76004 132464343.28404     -2676.53504        38.300  

  23933813.17044 140149948.33244      2141.42644        37.900  

  19593560.27105 117341766.84905       179.50805        39.700  

 06 10 29 01 50 22.0000000  0  9G22G 6G21G10G30G26G17G16G 1                     
  22412754.36004 132156736.43214     -3462.25804        38.200  

  22069950.06104 130355285.21514     -1023.41804        38.500  

  20651603.76605 108524907.53215      1697.84005        39.300  

  23307238.03004 136857276.24914      3769.65604        38.200  

  22182870.15804 130948686.00814      2941.46104        38.500  

  20529560.65605 122260482.25315     -1677.50405        39.000  

  22471800.10604 132467019.90114     -2676.96904        38.200  

  23933405.71644 140147807.01644      2141.19944        38.000  

  19593526.18245 117341587.60755       179.00445        39.400  

 06 10 29 01 50 23.0000000  0  9G22G 6G21G10G30G26G17G16G 1                     
  22413413.17004 132160198.59914     -3462.35504        38.600  

  22070144.82404 130356308.82214     -1023.98004        38.400  

  20651280.69405 108523209.92415      1697.45305        39.400  

  23306520.64704 136853506.30114      3770.25004        38.200  

  22182310.44144 130945744.57554      2941.50444        38.600  

  20529879.90505 122262159.84515     -1677.57005        39.200  

  22472309.50404 132469696.93614     -2677.21104        38.300  

  23932998.31604 140145666.25804      2140.83604        37.900  

  19593492.19805 117341409.03605       178.35205        39.400  

 06 10 29 01 50 24.0000000  0  9G22G 6G21G10G30G26G17G16G 1                     
  22414072.03804 132163660.93914     -3462.43004        38.100  

  22070339.71004 130357333.05014     -1024.47304        38.600  

  20650957.74505 108521512.72415      1696.89805        39.300  

  23305803.26704 136849736.37414      3770.01204        38.000  

  22181750.72044 130942803.22644      2941.27044        38.500  

  20530199.16004 122263837.66314     -1677.67204        38.800  

  22472818.96804 132472374.26214     -2677.33604        38.200  

  23932591.01304 140143525.94614      2140.02304        38.100  

  19593458.32705 117341230.98715       177.65605        39.400  

 06 10 29 01 50 25.0000000  0  9G22G 6G21G10G30G26G17G16G 1                     
  22414730.95344 132167123.55854     -3462.73044        38.300  

  22070534.73904 130358358.02014     -1025.21504        38.700  

  20650634.89005 108519816.07215      1696.41005        39.200  

  23305085.89304 136845966.59714      3769.63704        38.000  

  22181191.03844 130939862.09244      2940.97344        38.400  

  20530518.49705 122265515.83215     -1678.30505        39.300  

  22473328.55304 132475052.04714     -2677.91004        38.600  

  23932183.82104 140141386.17814      2139.48804        37.800  

  19593424.53805 117341053.60615       176.97305        39.600  

 06 10 29 01 50 26.0000000  0  9G22G 6G21G10G30G26G17G16G 1                     
  22415389.93944 132170586.44444     -3462.75444        38.400  

  22070729.91844 130359383.71454     -1026.18844        38.500  

  20650312.14345 108518119.94755      1695.92645        39.300  

  23304368.57644 136842196.94054      3769.67244        38.200  

  22180631.40144 130936921.13944      2940.96144        38.600  

  20530837.90145 122267194.31655     -1678.62945        39.200  

  22473838.19744 132477730.26054     -2678.66844        38.600  

  23931776.75544 140139246.96554      2139.10944        37.900  

  19593390.93245 117340876.87055       176.49245        39.700  

 06 10 29 01 50 27.0000000  0  9G22G 6G21G10G30G26G17G16G 1                     
  22416048.94904 132174049.56904     -3463.34404        38.200  

  22070925.24304 130360410.06904     -1026.56604        38.700  

  20649989.46545 108516424.29945      1695.48045        39.200  

  23303651.25344 136838427.38144      3769.35944        38.100  

  22180071.78744 130933980.33244      2940.80144        38.700  

  20531157.37205 122268873.07505     -1678.98805        39.300  

  22474347.92104 132480408.80804     -2678.75404        38.300  

  23931369.77104 140137108.26504      2138.45704        37.800  

  19593357.42405 117340700.72705       176.02305        39.600  

 06 10 29 01 50 28.0000000  0  9G22G 6G21G10G30G26G17G16G 1                     
  22416708.03104 132177513.06414     -3463.68804        38.500  

  22071120.71904 130361437.25814     -1027.50804        38.300  

  20649666.92545 108514729.27645      1694.80945        39.300  

  23302933.96044 136834658.02044      3769.37944        38.200  

  22179512.21804 130931039.84604      2940.28904        38.600  

  20531476.89405 122270552.26415     -1679.25005        39.300  

  22474857.74304 132483087.92314     -2679.45704        38.400  

  23930962.90804 140134970.18814      2137.78904        37.900  

  19593324.06305 117340525.36615       174.99605        39.700  

 06 10 29 01 50 29.0000000  0  9G22G 6G21G10G30G26G17G16G 1                     
  22417367.19504 132180976.82314     -3463.92204        38.500  

  22071316.33944 130362465.17654     -1028.17644        38.600  

  20649344.46805 108513034.80005      1694.10905        39.100  

  23302216.74604 136830888.83704      3768.85904        38.100  

  22178952.70204 130928099.55114      2940.18004        38.700  

  20531796.48605 122272231.79515     -1679.61705        39.300  

  22475367.66144 132485767.44354     -2679.83244        38.500  

  23930556.17104 140132832.68214      2137.43404        37.700  

  19593290.80945 117340350.63455       174.17645        39.700  

 06 10 29 01 50 30.0000000  0  9G22G 6G21G10G30G26G17G16G 1                     
  22418026.41144 132184440.87754     -3463.97344        38.700  

  22071512.10244 130363493.86744     -1029.13744        38.700  

  20649022.11805 108511340.89415      1693.66805        39.000  

  23301499.49144 136827119.79654      3769.08644        38.200  

  22178393.22904 130925159.50414      2939.91404        38.600  

  20532116.15805 122273911.69915     -1680.19105        39.200  

  22475877.62704 132488447.43204     -2680.27004        38.500  

  23930149.52504 140130695.76314      2136.59404        37.800  

  19593257.68545 117340176.58345       173.90245        39.700  

 06 10 29 01 50 31.0000000  0  9G22G 6G21G10G30G26G17G16G 1                     
  22418685.66604 132187905.20304     -3464.44104        38.300  

  22071707.98104 130364523.24204     -1029.69904        38.600  

  20648699.87045 108509647.49255      1693.28945        39.200  

  23300782.28304 136823350.90104      3768.71504        38.000  

  22177833.74604 130922219.63114      2939.68804        38.500  

  20532435.89605 122275591.91715     -1680.60205        39.400  

  22476387.67944 132491127.83054     -2680.64844        38.700  

  23929742.98104 140128559.38214      2136.14504        37.600  

  19593224.68545 117340003.17445       173.12145        39.600  

 06 10 29 01 50 32.0000000  0  9G22G 6G21G10G30G26G17G16G 1                     
  22419345.01744 132191369.91454     -3464.59844        38.400  

  22071904.04144 130365553.48454     -1030.79344        38.400  

  20648377.75805 108507954.76705      1692.21505        39.100  

  23300065.16044 136819582.23854      3768.59044        38.200  

  22177274.34744 130919280.07354      2939.43044        38.600  

  20532755.71945 122277272.56755     -1680.98445        39.300  

  22476897.84144 132493808.74944     -2680.99244        38.700  

  23929336.59544 140126423.67054      2135.19144        37.800  

  19593191.83245 117339830.53345       172.50845        39.500  

 06 10 29 01 50 33.0000000  0  9G22G 6G21G10G30G26G17G16G 1                     
  22420004.38704 132194834.87404     -3464.94104        38.600  

  22072100.22104 130366584.40004     -1031.09804        38.700  

  20648055.73645 108506262.49355      1692.04345        39.300  

  23299348.03904 136815813.68604      3768.64504        38.200  

  22176715.00804 130916340.66804      2939.52704        38.600  

  20533075.57905 122278953.51805     -1680.94105        39.100  

  22477408.07544 132496490.07644     -2681.36744        38.600  

  23928930.29804 140124288.44504      2135.11704        38.000  

  19593159.10505 117339658.52105       171.78905        39.400  

 06 10 29 01 50 34.0000000  0  9G22G 6G21G10G30G26G17G16G 1                     
  22420663.82204 132198300.13714     -3465.60904        38.700  

  22072296.56004 130367616.06714     -1031.90604        38.600  

  20647733.80145 108504570.80545      1691.30145        39.300  

  23298630.92804 136812045.27514      3768.34004        38.200  

  22176155.68504 130913401.48714      2938.94504        38.400  

  20533395.50905 122280634.81115     -1681.39105        38.900  

  22477918.38144 132499171.84144     -2682.04744        38.400  

  23928524.07104 140122153.82114      2134.23404        38.100  

  19593126.49605 117339487.17215       171.06305        39.600  

 06 10 29 01 50 35.0000000  0  9G22G 6G21G10G30G26G17G16G 1                     
  22421323.29944 132201765.64854     -3465.74644        38.400  

  22072493.01904 130368648.47714     -1032.90204        38.600  

  20647411.98845 108502879.61945      1691.21545        39.200  

  23297913.82544 136808277.00554      3768.35944        37.900  

  22175596.44904 130910462.52214      2938.91804        38.600  

  20533715.50905 122282316.43415     -1681.55505        39.300  

  22478428.78104 132501854.03704     -2682.30104        38.600  

  23928117.94804 140120019.74414      2133.97304        37.700  

  19593094.03445 117339316.47755       170.39145        39.600  

 06 10 29 01 50 36.0000000  0  9G22G 6G21G10G30G26G17G16G 1                     
  22421982.80344 132205231.45044     -3466.07844        38.600  

  22072689.61404 130369681.61414     -1033.62504        38.400  

  20647090.28545 108501189.02145      1690.12545        39.100  

  23297196.77944 136804508.88344      3767.92644        38.100  

  22175037.20104 130907523.77314      2938.60904        38.700  

  20534035.58905 122283998.42115     -1682.09005        39.100  

  22478939.27604 132504536.68814     -2683.00004        38.600  

  23927711.94604 140117886.19214      2133.53104        37.900  

  19593061.69105 117339146.43805       169.84005        39.500  

 06 10 29 01 50 37.0000000  0  9G22G 6G21G10G30G26G17G16G 1                     
  22422642.36844 132208697.48944     -3465.89844        38.600  

  22072886.31744 130370715.44654     -1033.94544        38.600  

  20646768.69245 108499498.89745      1689.63345        39.200  

  23296479.75644 136800740.88044      3767.89844        38.300  

  22174477.99204 130904585.18314      2938.64504        38.600  

  20534355.72505 122285680.70815     -1682.29305        39.000  

  22479449.83804 132507219.72914     -2683.42204        38.500  

  23927306.03904 140115753.23714      2132.69504        37.900  

  19593029.45505 117338977.04415       169.15605        39.700  

 06 10 29 01 50 38.0000000  0  9G22G 6G21G10G30G26G17G16G 1                     
  22423301.99544 132212163.85944     -3466.41844        38.300  

  22073083.19944 130371750.04344     -1034.98844        38.200  

  20646447.19345 108497809.34545      1689.26645        39.300  

  23295762.79544 136796973.04144      3767.68444        38.000  

  22173918.85844 130901646.84954      2938.03544        38.600  

  20534675.94045 122287363.35155     -1682.54345        39.200  

  22479960.50544 132509903.20354     -2683.82444        38.500  

  23926900.25444 140113620.79954      2132.36344        37.600  

  19592997.34745 117338808.33355       168.21145        39.700  

 06 10 29 01 50 39.0000000  0  9G22G 6G21G10G30G26G17G16G 1                     
  22423961.68244 132215630.55144     -3466.84444        38.400  

  22073280.22244 130372785.42644     -1035.82044        38.300  

  20646125.79705 108496120.39905      1688.70705        39.100  

  23295045.84304 136793205.40004      3767.37504        38.000  

  22173359.74744 130898708.76344      2937.65644        38.600  

  20534996.21005 122289046.40905     -1683.18805        39.200  

  22480471.25304 132512587.18504     -2684.40204        38.400  

  23926494.55704 140111489.02104      2131.36704        37.700  

  19592965.37805 117338640.31105       167.75005        39.700  

 06 10 29 01 50 40.0000000  0  9G22G 6G21G10G30G26G17G16G 1                     
  22424621.45444 132219097.63644     -3467.37144        38.300  

  22073477.40344 130373821.62244     -1036.20344        38.400  

  20645804.50705 108494432.08615      1687.84805        39.200  

  23294328.92104 136789437.99614      3767.12104        38.200  

  22172800.72744 130895770.97044      2937.50044        38.500  

  20535316.57005 122290729.88115     -1683.48005        39.300  

  22480982.10904 132515271.67814     -2684.80904        38.500  

  23926089.03304 140109357.88314      2130.80104        37.600  

  19592933.54305 117338473.06415       167.13705        39.600  

 06 10 29 01 50 41.0000000  0  9G22G 6G21G10G30G26G17G16G 1                     
  22425281.27904 132222565.07204     -3467.41804        38.400  

  22073674.75344 130374858.70144     -1037.45744        38.500  

  20645483.35205 108492744.39715      1687.56305        39.200  

  23293612.08104 136785670.84214      3767.19504        38.100  

  22172241.77104 130892833.50304      2937.09804        38.300  

  20535637.02545 122292413.81655     -1684.18445        39.200  

  22481493.04104 132517956.73514     -2685.53504        38.400  

  23925683.61204 140107227.40814      2130.20704        37.900  

  19592901.84505 117338306.58415       166.30905        39.500  

 06 10 29 01 50 42.0000000  0  9G22G 6G21G10G30G26G17G16G 1                     
  22425941.18404 132226032.77914     -3467.70704        38.400  

  22073872.23004 130375896.43304     -1037.88304        38.500  

  20645162.30605 108491057.22815      1687.09005        38.900  

  23292895.23604 136781903.79314      3767.19904        38.300  

  22171682.83004 130889896.18914      2937.50404        38.500  

  20535957.53045 122294098.03645     -1684.49245        39.100  

  22482004.03404 132520642.13414     -2685.44104        38.600  

  23925278.27444 140105097.44454      2129.78944        37.800  

  19592870.29505 117338140.70415       165.93805        39.600  

 06 10 29 01 50 43.0000000  0  9G22G 6G21G10G30G26G17G16G 1                     
  22426601.06504 132229500.65714     -3467.86704        38.400  

  22074069.82404 130376934.82914     -1038.49604        38.700  

  20644841.32705 108489370.52315      1686.50405        39.000  

  23292178.40804 136778136.80114      3766.89804        38.200  

  22171123.85904 130886959.01914      2937.02004        38.300  

  20536278.07245 122295782.49445     -1684.54345        39.600  

  22482515.12104 132523327.91214     -2685.89504        38.200  

  23924873.08044 140102967.98244      2128.98044        38.000  

  19592838.85405 117337975.42215       164.93805        39.600  

 06 10 29 01 50 44.0000000  0  9G22G 6G21G10G30G26G17G16G 1                     
  22427261.04144 132232968.84854     -3468.48444        38.400  

  22074267.55244 130377973.97154     -1039.28144        38.700  

  20644520.44845 108487684.36155      1685.60245        39.000  

  23291461.59544 136774369.96254      3766.69544        38.100  

  22170564.99444 130884022.05554      2937.03144        38.600  

  20536598.70545 122297467.32745     -1685.27345        39.300  

  22483026.27744 132526014.13854     -2686.40644        38.500  

  23924467.96044 140100839.05344      2128.61344        37.800  

  19592807.52145 117337810.81555       164.22345        39.600  

 06 10 29 01 50 45.0000000  0  9G22G 6G21G10G30G26G17G16G 1                     
  22427921.07504 132236437.36804     -3468.44504        38.300  

  22074465.48004 130379013.93604     -1040.40604        38.600  

  20644199.67845 108485998.80145      1685.03145        39.300  

  23290744.84704 136770603.35204      3766.46504        37.900  

  22170006.14344 130881085.38544      2936.58244        38.400  

  20536919.40045 122299152.55245     -1685.26245        39.300  

  22483537.56204 132528700.86304     -2686.93404        38.600  

  23924062.98444 140098710.78244      2127.98444        37.900  

  19592776.33005 117337646.91305       163.69505        39.600  

 06 10 29 01 50 46.0000000  0  9G22G 6G21G10G30G26G17G16G 1                     
  22428581.18704 132239906.17814     -3469.16004        38.200  

  22074663.53204 130380054.59514     -1041.08604        38.500  

  20643879.03805 108484313.79005      1684.69105        39.000  

  23290028.07904 136766836.84914      3766.62104        38.000  

  22169447.34604 130878148.91104      2936.27304        38.700  

  20537240.17005 122300838.12005     -1685.70305        39.300  

  22484048.87744 132531388.02354     -2687.27744        38.400  

  23923658.08044 140096583.05244      2127.58244        38.000  

  19592745.27845 117337483.68355       162.80545        39.600  

 06 10 29 01 50 47.0000000  0  9G22G 6G21G10G30G26G17G16G 1                     
  22429241.34204 132243375.31014     -3469.27304        38.600  

  22074861.70704 130381096.06014     -1041.77304        38.300  

  20643558.49605 108482629.36915      1684.07805        39.200  

  23289311.40504 136763070.58514      3766.35204        38.000  

  22168888.58604 130875212.69514      2936.19504        38.400  

  20537560.99305 122302524.06715     -1686.29705        39.100  

  22484560.32344 132534075.67344     -2687.85244        38.600  

  23923253.29004 140094455.95504      2126.97704        37.900  

  19592714.34805 117337321.16605       162.07005        39.700  

 06 10 29 01 50 48.0000000  0  9G22G 6G21G10G30G26G17G16G 1                     
  22429901.54604 132246844.74714     -3469.69104        38.400  

  22075060.04804 130382138.24914     -1042.54704        38.500  

  20643238.05105 108480945.48715      1683.54705        39.000  

  23288594.72544 136759304.44054      3766.09044        37.900  

  22168329.90404 130872276.68014      2936.10504        38.700  

  20537881.88205 122304210.39715     -1686.57005        39.500  

  22485071.81444 132536763.72744     -2688.56344        38.500  

  23922848.61804 140092329.41814      2126.24204        37.900  

  19592683.55305 117337159.28715       161.59005        39.700  

 06 10 29 01 50 49.0000000  0  9G22G 6G21G10G30G26G17G16G 1                     
  22430561.78404 132250314.45114     -3470.00404        38.500  

  22075258.51104 130383181.19914     -1043.43004        38.500  

  20642917.74505 108479262.14915      1683.10205        39.300  

  23287878.06344 136755538.45744      3766.22344        38.100  

  22167771.22144 130869340.89454      2935.82444        38.600  

  20538202.80505 122305897.01915     -1687.00005        39.200  

  22485583.41544 132539452.21444     -2688.30944        38.400  

  23922444.05544 140090203.44154      2125.65644        38.000  

  19592652.88005 117336998.08915       161.14505        39.700  

 06 10 29 01 50 50.0000000  0  9G22G 6G21G10G30G26G17G16G 1                     
  22431222.09444 132253784.37654     -3469.96944        38.300  

  22075457.10744 130384224.81554     -1044.21544        38.600  

  20642597.53245 108477579.32455      1682.44945        39.000  

  23287161.43444 136751772.58244      3765.69944        37.900  

  22167212.59544 130866405.27444      2935.58644        38.700  

  20538523.81005 122307583.94115     -1687.09805        39.300  

  22486095.08904 132542141.10904     -2689.00004        38.200  

  23922039.60204 140088077.95904      2125.46104        37.900  

  19592622.32705 117336837.51715       160.10505        39.600  

 06 10 29 01 50 51.0000000  0  9G22G 6G21G10G30G26G17G16G 1                     
  22431882.48104 132257254.60104     -3470.43004        38.500  

  22075655.85604 130385269.17104     -1044.84004        38.800  

  20642277.41505 108475897.03505      1681.97305        39.100  

  23286444.81244 136748006.83244      3765.64844        38.000  

  22166654.03344 130863469.87444      2935.29344        38.600  

  20538844.88005 122309271.23515     -1687.74205        39.300  

  22486606.86044 132544830.42554     -2689.29744        38.400  

  23921635.25244 140085953.06854      2124.31344        37.800  

  19592591.89705 117336677.59615       159.58605        39.600  

 06 10 29 01 50 52.0000000  0  9G22G 6G21G10G30G26G17G16G 1                     
  22432542.92644 132260725.17654     -3470.65244        38.400  

  22075854.74504 130386314.33814     -1045.53504        38.400  

  20641957.42445 108474215.34755      1681.35945        39.000  

  23285728.25404 136744241.31504      3765.55904        38.000  

  22166095.51044 130860534.73444      2935.14844        38.500  

  20539166.03805 122310958.91515     -1687.99605        38.900  

  22487118.71344 132547520.25344     -2689.94944        38.000  

  23921231.00644 140083828.78844      2124.12144        38.100  

  19592561.61005 117336518.40515       158.83605        39.500  

 06 10 29 01 50 53.0000000  0  9G22G 6G21G10G30G26G17G16G 1                     
  22433203.41144 132264196.01544     -3471.06644        38.400  

  22076053.76304 130387360.21214     -1046.18404        38.600  

  20641637.50745 108472534.20245      1681.07445        39.100  

  23285011.73444 136740475.93454      3765.16044        38.200  

  22165537.00144 130857599.79644      2935.07844        38.600  

  20539487.24305 122312646.93015     -1688.12105        39.500  

  22487630.65304 132550210.50004     -2690.65604        38.300  

  23920826.85604 140081705.07304      2123.19104        38.000  

  19592531.42305 117336359.84815       158.45705        39.700  

 06 10 29 01 50 54.0000000  0  9G22G 6G21G10G30G26G17G16G 1                     
  22433863.92104 132267667.02404     -3471.15604        38.700  

  22076252.88904 130388406.72114     -1046.50004        38.800  

  20641317.69605 108470853.48405      1680.41805        38.900  

  23284295.20604 136736710.57604      3765.33204        37.900  

  22164978.52104 130854664.96504      2934.91004        38.400  

  20539808.48605 122314335.16615     -1688.26205        39.300  

  22488142.63944 132552901.06954     -2690.84044        38.400  

  23920422.80904 140079581.79914      2123.12504        37.900  

  19592501.37405 117336201.87015       157.72705        39.700  

 06 10 29 01 50 55.0000000  0  9G22G 6G21G10G30G26G17G16G 1                     
  22434524.49704 132271138.31614     -3471.48404        38.600  

  22076452.19104 130389453.97314     -1047.64504        38.700  

  20640997.94405 108469173.31115      1679.73805        39.300  

  23283578.71544 136732945.39054      3765.12144        38.100  

  22164420.08604 130851730.35114      2934.35904        38.500  

  20540129.80005 122316023.74315     -1688.93005        39.200  

  22488654.73544 132555592.07244     -2691.41044        38.500  

  23920018.87704 140077459.09414      2122.42604        37.800  

  19592471.46105 117336044.54415       156.86305        39.500  

 06 10 29 01 50 56.0000000  0  9G22G 6G21G10G30G26G17G16G 1                     
  22435185.09944 132274609.86954     -3471.72344        38.500  

  22076651.61244 130390501.93054     -1048.26244        38.700  

  20640678.31945 108467493.68355      1679.25445        39.000  

  23282862.22544 136729180.30244      3765.14844        38.200  

  22163861.66544 130848795.92554      2934.26244        38.500  

  20540451.20445 122317712.66155     -1689.13745        39.000  

  22489166.88844 132558283.46644     -2691.31344        38.400  

  23919615.06344 140075336.92654      2122.04744        37.900  

  19592441.64245 117335887.85155       156.35245        39.600  

 06 10 29 01 50 57.0000000  0  9G22G 6G21G10G30G26G17G16G 1                     
  22435845.75944 132278081.77844     -3472.07044        38.400  

  22076851.19104 130391550.70004     -1048.99204        38.600  

  20640358.81745 108465814.65345      1678.63745        39.200  

  23282145.81004 136725415.44504      3764.83204        38.000  

  22163303.31404 130845861.77504      2933.89804        38.400  

  20540772.66105 122319401.95305     -1689.31605        39.100  

  22489679.13244 132560975.37844     -2691.99244        38.500  

  23919211.35204 140073215.41504      2121.10204        38.200  

  19592411.98505 117335731.89705       155.55905        39.600  

 06 10 29 01 50 58.0000000  0  9G22G 6G21G10G30G26G17G16G 1                     
  22436506.50804 132281554.05104     -3472.28504        38.400  

  22077050.90904 130392600.30614     -1050.09004        38.600  

  20640039.43405 108464136.24705      1678.35205        39.000  

  23281429.42104 136721650.84314      3764.65204        38.100  

  22162745.03504 130842927.93514      2933.46104        38.600  

  20541094.21205 122321091.71215     -1689.75805        39.000  

  22490191.50844 132563667.82344     -2692.72744        38.400  

  23918807.76904 140071094.52614      2120.49204        38.000  

  19592382.45105 117335576.68815       155.02005        39.600  

 06 10 29 01 50 59.0000000  0  9G22G 6G21G10G30G26G17G16G 1                     
  22437167.32904 132285026.60014     -3472.77304        38.200  

  22077250.78544 130393650.61054     -1050.69144        38.500  

  20639720.14105 108462458.38615      1677.62905        39.100  

  23280713.04444 136717886.37654      3764.50444        38.100  

  22162186.77304 130839994.28014      2933.57004        38.300  

  20541415.83205 122322781.78915     -1690.25405        39.300  

  22490703.93804 132566360.67404     -2692.96504        38.400  

  23918404.29104 140068974.20514      2120.19104        37.900  

  19592353.04305 117335422.14915       154.12505        39.400  

 06 10 29 01 51  0.0000000  0  9G22G 6G21G10G30G26G17G16G 1                     
  22437828.19904 132288499.47614     -3473.25004        38.500  

  22077450.80704 130394701.71304     -1051.64104        38.600  

  20639400.96545 108460781.11255      1677.07045        39.000  

  23279996.74944 136714122.07844      3764.27344        38.100  

  22161628.60444 130837060.88054      2933.29344        38.500  

  20541737.49945 122324472.25955     -1690.78145        39.300  

  22491216.47144 132569054.01154     -2693.68444        38.300  

  23918000.91504 140066854.49114      2119.29704        37.800  

  19592323.75605 117335268.27915       153.74205        39.600  

 06 10 29 01 51  1.0000000  0  9G22G 6G21G10G30G26G17G16G 1                     
  22438489.15404 132291972.73514     -3473.68004        38.200  

  22077650.99904 130395753.64414     -1052.37504        38.400  

  20639081.91845 108459104.47645      1676.25045        38.900  

  23279280.49344 136710358.04844      3763.86344        38.100  

  22161070.46604 130834127.81804      2932.77704        38.600  

  20542059.25204 122326163.16504     -1691.20304        38.800  

  22491729.08204 132571747.84804     -2694.09004        38.400  

  23917597.67204 140064735.43114      2118.66804        37.900  

  19592294.61705 117335115.20315       152.66805        39.500  

 06 10 29 01 51  2.0000000  0  9G22G 6G21G10G30G26G17G16G 1                     
  22439150.17144 132295446.28954     -3473.66044        38.300  

  22077851.31744 130396806.35054     -1052.91444        38.500  

  20638762.97945 108457428.44345      1675.77045        38.900  

  23278564.27144 136706594.18244      3764.01644        38.300  

  22160512.38644 130831194.97554      2933.00844        38.500  

  20542381.08245 122327854.45655     -1691.33645        39.100  

  22492241.79144 132574442.18854     -2694.41844        38.500  

  23917194.55944 140062616.97554      2118.61344        37.800  

  19592265.60245 117334962.81355       152.30145        39.300  

 06 10 29 01 51  3.0000000  0  9G22G 6G21G10G30G26G17G16G 1                     
  22439811.20104 132298920.03804     -3473.84404        38.500  

  22078051.75204 130397859.66104     -1053.62104        38.700  

  20638444.11845 108455752.82245      1675.20345        39.000  

  23277848.06544 136702830.39144      3763.52044        38.100  

  22159954.30104 130828262.24304      2932.67604        38.700  

  20542702.95205 122329545.93705     -1691.49205        39.100  

  22492754.56304 132577136.84204     -2695.01204        38.300  

  23916791.50944 140060498.98844      2117.73044        37.700  

  19592236.70205 117334810.96905       151.52005        39.600  

 06 10 29 01 51  4.0000000  0  9G22G 6G21G10G30G26G17G16G 1                     
  22440472.30204 132302394.04214     -3474.12904        38.700  

  22078252.35704 130398913.73114     -1054.55904        38.600  

  20638125.36845 108454077.73045      1674.73845        39.000  

  23277131.83704 136699066.71104      3763.60504        38.100  

  22159396.26604 130825329.72014      2932.42204        38.600  

  20543024.89705 122331237.78215     -1692.13305        39.100  

  22493267.40204 132579831.92714     -2695.33604        38.100  

  23916388.57804 140058381.53604      2117.26604        37.800  

  19592207.91505 117334659.77915       150.83605        39.600  

 06 10 29 01 51  5.0000000  0  9G22G 6G21G10G30G26G17G16G 1                     
  22441133.43604 132305868.29914     -3474.44104        38.500  

  22078453.07504 130399968.48914     -1055.12104        38.500  

  20637806.71105 108452403.16405      1674.56605        39.200  

  23276415.66104 136695303.15714      3763.41404        38.300  

  22158838.27944 130822397.36554      2932.60244        38.700  

  20543346.90305 122332929.93115     -1692.40205        39.200  

  22493780.33504 132582527.39314     -2695.73804        38.500  

  23915985.75504 140056264.63414      2116.53504        37.800  

  19592179.27605 117334509.22615       150.21905        39.500  

 06 10 29 01 51  6.0000000  0  9G22G 6G21G10G30G26G17G16G 1                     
  22441794.62504 132309342.83114     -3474.73004        38.400  

  22078653.92904 130401023.95814     -1055.80504        38.500  

  20637488.16405 108450729.11815      1673.98805        39.300  

  23275699.48904 136691539.73414      3763.46504        38.300  

  22158280.27944 130819465.21644      2932.07044        38.500  

  20543668.98305 122334622.39615     -1692.49205        39.100  

  22494293.34504 132585223.26814     -2696.15204        38.400  

  23915583.03404 140054148.26614      2116.12504        37.800  

  19592150.71405 117334359.31415       149.72705        39.700  

 06 10 29 01 51  7.0000000  0  9G22G 6G21G10G30G26G17G16G 1                     
  22442455.87204 132312817.66114     -3474.95304        38.200  

  22078854.93904 130402080.22414     -1056.92604        38.800  

  20637169.72705 108449055.66215      1673.40605        39.100  

  23274983.36744 136687776.49554      3763.00044        38.100  

  22157722.35844 130816533.30244      2931.93444        38.500  

  20543991.14205 122336315.24915     -1692.91405        39.100  

  22494806.43804 132587919.62014     -2696.60904        38.600  

  23915180.39804 140052032.48914      2115.58204        38.000  

  19592122.28745 117334210.09155       149.15245        39.700  

 06 10 29 01 51  8.0000000  0  9G22G 6G21G10G30G26G17G16G 1                     
  22443117.18044 132316292.77454     -3475.31644        38.500  

  22079056.08044 130403137.17254     -1057.25044        38.600  

  20636851.35745 108447382.73655      1672.80145        39.000  

  23274267.26944 136684013.39544      3762.82844        38.300  

  22157164.46944 130813601.61644      2931.37144        38.500  

  20544313.33845 122338008.40855     -1693.07845        39.100  

  22495319.61144 132590616.41754     -2697.23844        38.600  

  23914777.82944 140049917.28054      2115.01244        37.600  

  19592094.01545 117334061.52345       148.42245        39.700  

 06 10 29 01 51  9.0000000  0  9G22G 6G21G10G30G26G17G16G 1                     
  22443778.54204 132319768.21504     -3475.55504        38.300  

  22079257.38204 130404194.95004     -1058.41404        38.500  

  20636533.13005 108445710.43405      1671.90605        39.100  

  23273551.23904 136680250.49804      3762.92604        38.200  

  22156606.63104 130810670.16404      2931.57004        38.500  

  20544635.63305 122339702.01105     -1693.95705        39.400  

  22495832.87804 132593313.66104     -2697.58204        38.400  

  23914375.43704 140047802.69304      2114.60504        37.800  

  19592065.89705 117333913.67905       147.48005        39.600  

 06 10 29 01 51 10.0000000  0  9G22G 6G21G10G30G26G17G16G 1                     
  22444439.97704 132323243.99814     -3475.88304        38.400  

  22079458.81804 130405253.49514     -1059.04704        38.700  

  20636215.02305 108444038.70015      1671.43005        39.000  

  23272835.22304 136676487.80414      3762.76604        38.000  

  22156048.87444 130807739.00454      2931.02044        38.500  

  20544957.98505 122341395.97215     -1694.35905        39.100  

  22496346.23304 132596011.40714     -2697.76204        38.600  

  23913973.15704 140045688.72814      2113.81604        37.900  

  19592037.88245 117333766.56355       146.78945        39.600  

 06 10 29 01 51 11.0000000  0  9G22G 6G21G10G30G26G17G16G 1                     
  22445101.33304 132326719.43614     -3475.05104        38.300  

  22079660.26804 130406312.14114     -1058.40604        38.300  

  20635896.88505 108442366.88715      1672.03905        39.000  

  23272119.13104 136672724.64114      3763.79304        38.100  

  22155491.02104 130804807.41804      2931.98004        38.700  

  20545280.31105 122343089.65015     -1693.43405        39.400  

  22496859.54504 132598708.95714     -2697.08204        38.200  

  23913570.86804 140043574.68614      2114.30904        38.000  

  19592009.90745 117333619.47745       147.18045        39.700  

 06 10 29 01 51 12.0000000  0  9G22G 6G21G10G30G26G17G16G 1                     
  22445762.59104 132330194.40814     -3475.09804        38.600  

  22079861.71704 130407370.79314     -1058.80504        38.500  

  20635578.69405 108440694.88615      1671.90205        39.100  

  23271402.90504 136668960.88714      3763.71504        38.200  

  22154933.05704 130801875.30014      2932.17204        38.300  

  20545602.53305 122344782.92815     -1693.21105        39.000  

  22497372.80104 132601406.19014     -2697.14504        38.400  

  23913168.56104 140041460.47714      2114.17604        37.900  

  19591981.87045 117333472.26945       147.09445        39.700  

 06 10 29 01 51 13.0000000  0  9G22G 6G21G10G30G26G17G16G 1                     
  22446423.88904 132333669.54214     -3475.49204        38.300  

  22080063.28204 130408430.07214     -1059.65604        38.700  

  20635260.62245 108439023.32055      1671.12145        39.100  

  23270686.66604 136665197.17414      3763.52704        38.300  

  22154375.11704 130798943.27814      2932.13704        38.500  

  20545924.81745 122346476.44355     -1693.89545        39.200  

  22497886.15004 132604103.73414     -2697.80904        38.400  

  23912766.34544 140039346.71354      2113.36344        38.000  

  19591953.97145 117333325.64445       146.22345        39.600  

 06 10 29 01 51 14.0000000  0  9G22G 6G21G10G30G26G17G16G 1                     
  22447085.30004 132337145.19114     -3475.93004        38.400  

  22080265.04804 130409490.30514     -1060.93804        38.600  

  20634942.71205 108437352.52105      1670.53905        39.200  

  23269970.50404 136661433.83614      3762.99604        38.000  

  22153817.27004 130796011.72214      2931.36704        38.400  

  20546247.18145 122348170.49745     -1694.42645        39.200  

  22498399.58404 132606801.96414     -2698.66804        38.400  

  23912364.22744 140037233.75344      2112.58644        37.800  

  19591926.23945 117333179.90145       145.36345        39.600  

 06 10 29 01 51 15.0000000  0  9G22G 6G21G10G30G26G17G16G 1                     
  22447746.82904 132340621.49714     -3476.69104        38.600  

  22080467.00904 130410551.65114     -1061.64104        38.400  

  20634624.91605 108435682.68015      1669.20705        39.100  

  23269254.42304 136657671.02214      3762.38704        38.100  

  22153259.52544 130793080.75654      2930.50844        38.500  

  20546569.68845 122349865.30945     -1695.13745        39.100  

  22498913.19304 132609501.01914     -2699.85904        38.200  

  23911962.31444 140035121.74044      2111.55544        37.900  

  19591898.69905 117333035.22205       144.02305        39.600  

 06 10 29 01 51 16.0000000  0  9G22G 6G21G10G30G26G17G16G 1                     
  22448408.48704 132344098.56414     -3477.40604        38.300  

  22080669.17604 130411614.22314     -1062.85904        38.700  

  20634307.31705 108434013.82615      1668.31605        39.200  

  23268538.52304 136653908.84814      3761.93004        38.200  

  22152701.88244 130790150.45644      2929.91044        38.500  

  20546892.33345 122351560.90245     -1695.75845        39.100  

  22499426.95104 132612200.92814     -2700.30904        38.300  

  23911560.59244 140033010.77444      2110.41044        37.800  

  19591871.38005 117332891.64915       143.21505        39.400  

 06 10 29 01 51 17.0000000  0  9G22G 6G21G10G30G26G17G16G 1                     
  22449070.31304 132347576.34314     -3478.05104        38.400  

  22080871.60004 130412677.98014     -1064.18004        38.500  

  20633989.93005 108432345.96415      1667.57005        39.200  

  23267822.72404 136650147.27814      3761.05904        38.300  

  22152144.40144 130787220.82844      2929.18444        38.500  

  20547215.16845 122353257.31945     -1696.63745        39.200  

  22499940.87404 132614901.73714     -2701.30904        38.400  

  23911159.09104 140030900.81504      2109.21104        37.800  

  19591844.30505 117332749.20915       141.85205        39.500  

 06 10 29 01 51 18.0000000  0  9G22G 6G21G10G30G26G17G16G 1                     
  22449732.22904 132351054.79614     -3478.92204        38.300  

  22081074.27744 130413742.80854     -1065.23044        38.600  

  20633672.71105 108430679.03215      1666.50405        39.000  

  23267107.02144 136646386.18354      3760.68044        38.200  

  22151587.01904 130784291.76204      2928.80104        38.500  

  20547538.11705 122354954.42605     -1697.38305        39.200  

  22500454.95804 132617603.31814     -2701.87504        38.500  

  23910757.76904 140028791.75914      2108.59404        37.700  

  19591817.40405 117332607.77915       140.60505        39.400  

 06 10 29 01 51 19.0000000  0  9G22G 6G21G10G30G26G17G16G 1                     
  22450394.22604 132354533.67914     -3479.07004        38.300  

  22081277.08644 130414808.55944     -1066.02344        38.500  

  20633355.61805 108429012.79715      1665.88305        39.300  

  23266391.36444 136642625.44044      3760.46544        38.100  

  22151029.70904 130781363.08614      2928.54704        38.500  

  20547861.15505 122356652.03615     -1697.86305        39.300  

  22500969.17904 132620305.52414     -2702.41004        38.500  

  23910356.60504 140026683.46114      2107.90204        37.800  

  19591790.61105 117332467.15215       140.56305        39.700  

 06 10 29 01 51 20.0000000  0  9G22G 6G21G10G30G26G17G16G 1                     
  22451056.28544 132358012.84054     -3479.25844        38.400  

  22081480.02944 130415875.07644     -1067.03544        38.600  

  20633038.64545 108427347.12855      1665.35945        39.000  

  23265675.78444 136638864.83044      3760.75044        38.100  

  22150472.43744 130778434.63254      2928.53144        38.100  

  20548184.26945 122358350.00355     -1698.11745        39.100  

  22501483.47344 132623008.17354     -2703.09444        38.400  

  23909955.52744 140024575.73454      2107.18044        38.000  

  19591763.98045 117332327.24755       139.69545        39.600  

 06 10 29 01 51 21.0000000  0  9G22G 6G21G10G30G26G17G16G 1                     
  22451718.41304 132361492.30604     -3479.45304        38.300  

  22081683.11944 130416942.30944     -1067.56344        38.500  

  20632721.77505 108425682.01405      1664.98405        39.100  

  23264960.18904 136635104.43204      3760.29704        38.100  

  22149915.22504 130775506.41204      2928.22304        38.500  

  20548507.44405 122360048.31605     -1698.25405        39.100  

  22501997.85204 132625711.24804     -2703.33204        38.200  

  23909554.55204 140022468.57304      2106.81304        38.000  

  19591737.49705 117332188.00005       138.79305        39.700  

 06 10 29 01 51 22.0000000  0  9G22G 6G21G10G30G26G17G16G 1                     
  22452380.54704 132364971.95514     -3479.67604        38.600  

  22081886.32344 130418010.19044     -1068.46544        38.700  

  20632405.00305 108424017.33915      1664.61705        39.200  

  23264244.57804 136631344.06314      3760.28504        38.000  

  22149358.01804 130772578.28914      2928.27304        38.200  

  20548830.68205 122361746.87615     -1698.60505        39.200  

  22502512.28604 132628414.65614     -2703.58604        38.500  

  23909153.68404 140020361.89714      2106.25004        37.900  

  19591711.12005 117332049.29415       138.50005        39.600  

 06 10 29 01 51 23.0000000  0  9G22G 6G21G10G30G26G17G16G 1                     
  22453042.75804 132368451.86014     -3480.20304        38.600  

  22082089.67504 130419078.76504     -1069.13304        38.700  

  20632088.37205 108422353.20215      1663.84405        39.100  

  23263529.01504 136627583.79914      3760.27004        37.900  

  22148800.83504 130769650.36914      2928.05504        38.400  

  20549153.96805 122363445.75715     -1698.99605        39.400  

  22503026.81004 132631118.45414     -2703.97704        38.400  

  23908752.90504 140018255.75414      2105.85204        37.900  

  19591684.83705 117331911.24515       137.75005        39.400  

 06 10 29 01 51 24.0000000  0  9G22G 6G21G10G30G26G17G16G 1                     
  22453705.02604 132371932.06214     -3480.52704        38.400  

  22082293.16104 130420148.12214     -1069.97704        38.800  

  20631771.78705 108420689.64415      1663.23005        39.100  

  23262813.49804 136623823.75714      3759.82404        38.000  

  22148243.73404 130766722.70514      2927.39504        38.700  

  20549477.31105 122365144.99415     -1699.40205        39.000  

  22503541.39144 132633822.73854     -2704.54344        38.600  

  23908352.23704 140016150.21014      2105.05904        37.900  

  19591658.70505 117331773.89815       136.88705        39.500  

 06 10 29 01 51 25.0000000  0  9G22G 6G21G10G30G26G17G16G 1                     
  22454367.33304 132375412.56614     -3480.51604        38.200  

  22082496.80704 130421218.22514     -1070.57004        38.700  

  20631455.32105 108419026.64315      1662.77705        39.100  

  23262098.03304 136620063.86714      3759.70704        37.900  

  22147686.66604 130763795.23914      2927.50004        38.300  

  20549800.72205 122366844.60915     -1699.96505        39.100  

  22504056.08944 132636527.47444     -2704.92644        38.400  

  23907951.68244 140014045.22254      2104.87144        37.700  

  19591632.68705 117331637.21815       136.29305        39.800  

 06 10 29 01 51 26.0000000  0  9G22G 6G21G10G30G26G17G16G 1                     
  22455029.66144 132378893.26554     -3480.99244        38.300  

  22082700.58304 130422288.94014     -1070.95304        38.600  

  20631138.92345 108417364.07755      1662.32045        39.200  

  23261382.54704 136616304.02714      3759.53504        38.100  

  22147129.62444 130760867.90754      2927.04744        38.500  

  20550124.16645 122368544.44255     -1700.06645        39.300  

  22504570.83344 132639232.51144     -2705.18044        38.600  

  23907551.22144 140011940.74744      2104.23044        37.800  

  19591606.79245 117331501.09155       135.83245        39.600  

 06 10 29 01 51 27.0000000  0  9G22G 6G21G10G30G26G17G16G 1                     
  22455692.06404 132382374.20504     -3481.05904        38.200  

  22082904.45804 130423360.42114     -1071.78904        38.500  

  20630822.68205 108415702.07105      1661.77305        39.500  

  23260667.08204 136612544.32014      3759.66804        38.200  

  22146572.61604 130757940.76804      2927.10204        38.400  

  20550447.69505 122370244.61705     -1700.41405        39.200  

  22505085.65544 132641937.98044     -2705.65244        38.400  

  23907150.83944 140009836.80544      2103.68044        37.800  

  19591581.04145 117331365.60445       135.32445        39.800  

 06 10 29 01 51 28.0000000  0  9G22G 6G21G10G30G26G17G16G 1                     
  22456354.54104 132385855.41114     -3481.27004        38.300  

  22083108.48704 130424432.59014     -1072.60204        38.400  

  20630506.56105 108414040.56515      1661.48805        39.200  

  23259951.64644 136608784.75854      3759.52044        37.900  

  22146015.65904 130755013.84014      2926.67204        38.500  

  20550771.28645 122371945.09155     -1700.59445        39.200  

  22505600.56244 132644643.88244     -2706.34844        38.500  

  23906750.56204 140007733.40504      2103.19104        37.700  

  19591555.38645 117331230.78645       134.47345        39.400  

 06 10 29 01 51 29.0000000  0  9G22G 6G21G10G30G26G17G16G 1                     
  22457017.05204 132389336.88014     -3481.70704        38.400  

  22083312.64004 130425505.46514     -1073.27304        38.200  

  20630190.50105 108412379.58915      1660.73005        39.100  

  23259236.26644 136605025.31044      3759.16444        38.200  

  22145458.68904 130752087.06414      2926.56604        38.600  

  20551094.94205 122373645.89305     -1700.98405        39.000  

  22506115.55244 132647350.14144     -2706.51244        38.300  

  23906350.41704 140005630.56214      2102.40204        37.800  

  19591529.83405 117331096.58105       133.82005        39.700  

