     2.10           OBSERVATION DATA    G (GPS)             RINEX VERSION / TYPE
Convert                                 12-Aug-2008 16:35   PGM / RUN BY / DATE 
Signal Strength values S1,S2 are in dBHz                    COMMENT             
                                                            MARKER NAME         
                                                            MARKER NUMBER       
                                                            OBSERVER / AGENCY   
SVA05050095         NOV RT2             2.210               REC # / TYPE / VERS 
                                                            ANT # / TYPE        
  3991021.8930   562990.1398  4926987.2873                  APPROX POSITION XYZ 
        0.0000        0.0000        0.0000                  ANTENNA: DELTA H/E/N
     1     1                                                WAVELENGTH FACT L1/2
     1     1     7   G01   G06   G10   G16   G17   G21   G22WAVELENGTH FACT L1/2
     1     1     2   G26   G30                              WAVELENGTH FACT L1/2
                                                            COMMENT             
                                                            COMMENT             
                                                            COMMENT             
                                                            COMMENT             
                                                            COMMENT             
     8    C1    L1    D1    S1    P2    L2    D2    S2      # / TYPES OF OBSERV 
     1.000                                                  INTERVAL            
  2006    10    29    01    44    16.0000000    GPS         TIME OF FIRST OBS   
  2006    10    29    01    55     4.0000000    GPS         TIME OF LAST OBS    
    14                                                      LEAP SECONDS        
                                                            END OF HEADER       
 06 10 29 01 44 16.0000000  0  9G10G 1G26G22G 6G17G30G21G16                     
  23571609.60604 132766422.36914      3818.51204        37.900  

  19614606.43705 111972233.13315       426.23005        39.600  

  20417272.08505 116190269.02115     -1547.17205        39.200  

  22175525.63104 125429961.51814     -3349.04704        38.800  

  22008276.12004 124551049.99714      -747.73404        38.600  

  22291257.62204 126038124.05314     -2505.10504        38.700  

  22390486.85904 126559582.07514      3019.41804        38.300  

  20776773.47705 118079463.33815      1894.48005        39.100  

  24089660.26304 135488799.61214      2343.99604        37.900  

 06 10 29 01 44 17.0000000  0  9G10G 1G26G22G 6G17G30G21G16                     
  23570883.02604 132762604.14414      3818.03504        38.000  

  19614525.38645 111971807.22355       425.49645        39.600  

  20417566.48605 116191816.19515     -1547.50005        39.300  

  22176163.02804 125433310.85314     -3349.41804        38.600  

  22008418.39304 124551797.78614      -748.42604        38.700  

  22291734.40504 126040629.62614     -2506.07004        38.500  

  22389912.35444 126556562.85654      3019.10944        38.600  

  20776413.02005 118077569.17115      1893.87505        38.900  

  24089214.26604 135486455.78614      2343.65604        37.900  

 06 10 29 01 44 18.0000000  0  9G10G 1G26G22G 6G17G30G21G16                     
  23570156.43704 132758786.01114      3818.03104        38.200  

  19614444.46905 111971381.99105       424.76605        39.600  

  20417861.00005 116193363.76515     -1547.84805        39.200  

  22176800.49744 125436660.51154     -3349.76244        38.600  

  22008560.81904 124552546.31714      -748.75404        38.600  

  22292211.26004 126043135.64814     -2506.26204        38.500  

  22389337.84104 126553543.84404      3019.00804        38.400  

  20776052.66905 118075675.51815      1893.51605        39.100  

  24088768.34404 135484112.50814      2342.95704        37.600  

 06 10 29 01 44 19.0000000  0  9G10G 1G26G22G 6G17G30G21G16                     
  23569429.83804 132754967.97614      3818.10504        37.900  

  19614363.70545 111970957.39855       424.25045        39.600  

  20418155.54145 116194911.61655     -1547.86745        39.200  

  22177437.97144 125440010.46044     -3350.03544        38.600  

  22008703.39304 124553295.60314      -749.56304        38.700  

  22292688.25404 126045642.14914     -2506.63704        38.400  

  22388763.39004 126550524.99814      3018.71104        38.400  

  20775692.40105 118073782.38015      1892.82005        39.100  

  24088322.52704 135481769.72614      2342.65204        37.900  

 06 10 29 01 44 20.0000000  0  9G10G 1G26G22G 6G17G30G21G16                     
  23568703.34344 132751150.00854      3818.12544        38.000  

  19614283.02645 111970533.45845       423.79345        39.600  

  20418450.15945 116196459.81945     -1548.31345        39.300  

  22178075.51144 125443360.71244     -3350.61744        38.600  

  22008846.12044 124554045.60254      -750.41044        38.600  

  22293165.34044 126048149.10154     -2507.01244        38.500  

  22388188.99344 126547506.34454      3018.58644        38.400  

  20775332.23745 118071889.70955      1892.48445        39.100  

  24087876.84944 135479427.45154      2342.04344        37.900  

 06 10 29 01 44 21.0000000  0  9G10G 1G26G22G 6G17G30G21G16                     
  23567976.90404 132747332.15904      3817.70704        38.000  

  19614202.48705 111970110.18905       422.78105        39.400  

  20418744.80845 116198008.37445     -1548.58645        39.100  

  22178713.08644 125446711.23744     -3350.61744        38.500  

  22008988.98244 124554796.33544      -751.06344        38.800  

  22293642.48104 126050656.54704     -2507.84404        38.600  

  22387614.57504 126544487.85804      3018.60504        38.300  

  20774972.17605 118069997.55405      1892.03905        39.300  

  24087431.23004 135477085.69504      2341.59004        37.900  

 06 10 29 01 44 22.0000000  0  9G10G 1G26G22G 6G17G30G21G16                     
  23567250.44344 132743514.35454      3817.75444        38.100  

  19614122.07645 111969687.52455       422.38745        39.400  

  20419039.58145 116199557.25345     -1549.11745        39.000  

  22179350.75844 125450062.05444     -3350.71144        38.500  

  22009131.96904 124555547.80304      -751.95704        38.700  

  22294119.72204 126053164.41414     -2507.96904        38.600  

  22387040.18904 126541469.55014      3018.46504        38.500  

  20774612.20005 118068105.87215      1891.44105        39.100  

  24086985.71804 135474744.43814      2341.27004        38.000  

 06 10 29 01 44 23.0000000  0  9G10G 1G26G22G 6G17G30G21G16                     
  23566523.95404 132739696.57704      3817.61304        37.900  

  19614041.78305 111969265.47105       421.77305        39.700  

  20419334.38405 116201106.39105     -1549.16405        39.000  

  22179988.36904 125453413.12104     -3351.12904        38.400  

  22009275.07404 124556299.93314      -752.62104        38.700  

  22294597.05944 126055672.70854     -2508.61344        38.500  

  22386465.88104 126538451.36514      3017.99204        38.600  

  20774252.31905 118066214.62015      1891.17605        39.000  

  24086540.27904 135472403.64314      2340.49204        38.000  

 06 10 29 01 44 24.0000000  0  9G10G 1G26G22G 6G17G30G21G16                     
  23565797.50604 132735878.84314      3817.76204        38.000  

  19613961.60205 111968844.05715       420.93805        39.800  

  20419629.23705 116202655.82815     -1549.56305        39.200  

  22180626.05604 125456764.43714     -3351.39804        38.800  

  22009418.32004 124557052.76814      -753.26204        38.600  

  22295074.49744 126058181.40544     -2508.74244        38.600  

  22385891.60404 126535433.30914      3017.97304        38.400  

  20773892.49205 118064323.85415      1890.60205        39.200  

  24086094.84204 135470063.30914      2340.07804        37.800  

 06 10 29 01 44 25.0000000  0  9G10G 1G26G22G 6G17G30G21G16                     
  23565071.01904 132732061.28914      3817.41004        38.300  

  19613881.55505 111968423.35015       420.48005        39.400  

  20419924.17505 116204205.70415     -1550.10505        39.400  

  22181263.91504 125460116.15114     -3351.98804        38.400  

  22009561.74205 124557806.39915      -754.10205        38.900  

  22295552.00744 126060690.68644     -2509.77044        38.600  

  22385317.29904 126532415.52814      3017.71104        38.500  

  20773532.79005 118062433.66215      1889.95305        39.100  

  24085649.56904 135467723.59314      2339.41804        37.600  

 06 10 29 01 44 26.0000000  0  9G10G 1G26G22G 6G17G30G21G16                     
  23564344.61144 132728243.88754      3817.66044        38.000  

  19613801.61245 111968003.37555       419.77345        39.700  

  20420219.17545 116205755.95155     -1550.46945        39.300  

  22181901.80044 125463468.20454     -3352.06344        38.400  

  22009705.32844 124558560.85254      -754.78144        38.600  

  22296029.59244 126063200.45944     -2509.80144        38.400  

  22384743.03744 126529397.99054      3017.51644        38.500  

  20773173.20745 118060544.03155      1889.17645        39.400  

  24085204.43344 135465384.46054      2338.88744        37.900  

 06 10 29 01 44 27.0000000  0  9G10G 1G26G22G 6G17G30G21G16                     
  23563618.26604 132724426.63004      3817.10904        37.900  

  19613721.82905 111967584.12605       419.09805        39.600  

  20420514.26905 116207306.62505     -1550.75005        39.400  

  22182539.81404 125466820.63004     -3352.35204        38.300  

  22009849.06804 124559316.09804      -755.51204        38.500  

  22296507.27404 126065710.79904     -2510.66804        38.600  

  22384168.91404 126526380.70204      3017.06304        38.600  

  20772813.71905 118058654.95105      1889.02705        39.200  

  24084759.46644 135463045.89444      2338.30944        38.000  

 06 10 29 01 44 28.0000000  0  9G10G 1G26G22G 6G17G30G21G16                     
  23562891.90804 132720609.46014      3817.54304        38.000  

  19613642.16505 111967165.53215       418.20705        39.700  

  20420809.40705 116208857.63615     -1551.05905        39.300  

  22183177.78604 125470173.36514     -3352.93004        38.400  

  22009992.90104 124560072.09714      -756.34004        38.600  

  22296985.03204 126068221.57814     -2511.01604        38.600  

  22383594.78904 126523363.58514      3017.15204        38.500  

  20772454.36045 118056766.38555      1888.40245        39.000  

  24084314.57044 135460707.83244      2337.71144        38.000  

 06 10 29 01 44 29.0000000  0  9G10G 1G26G22G 6G17G30G21G16                     
  23562165.51304 132716792.27914      3817.39504        38.200  

  19613562.61645 111966747.48055       417.59845        39.700  

  20421104.61805 116210408.87315     -1551.26605        39.300  

  22183815.80904 125473526.28914     -3353.03104        38.400  

  22010136.86104 124560828.71614      -757.01604        38.800  

  22297462.88204 126070732.71514     -2511.13304        38.400  

  22383020.63104 126520346.54914      3016.94104        38.500  

  20772095.04804 118054878.21904      1887.78904        38.800  

  24083869.76044 135458370.20344      2337.23444        37.800  

 06 10 29 01 44 30.0000000  0  9G10G 1G26G22G 6G17G30G21G16                     
  23561439.21204 132712975.23014      3816.76604        38.000  

  19613483.14705 111966330.11305       416.86305        39.700  

  20421399.91045 116211960.47955     -1551.90645        39.500  

  22184453.91504 125476879.54014     -3353.40604        38.400  

  22010280.99204 124561586.08514      -757.69904        38.500  

  22297940.83904 126073244.37414     -2512.15604        38.700  

  22382446.55404 126517329.73014      3016.72704        38.400  

  20771735.84045 118052990.57455      1887.28545        39.100  

  24083424.93004 135456033.11404      2336.73004        37.900  

 06 10 29 01 44 31.0000000  0  9G10G 1G26G22G 6G17G30G21G16                     
  23560712.94104 132709158.42514      3816.55504        38.200  

  19613403.88145 111965913.56955       415.82845        39.700  

  20421695.24845 116213512.57745     -1552.54345        39.400  

  22185092.11204 125480233.25014     -3353.94104        38.700  

  22010425.29444 124562344.36554      -758.80144        38.700  

  22298418.92404 126075756.63514     -2512.55104        38.500  

  22381872.54304 126514313.26214      3016.10904        38.600  

  20771376.75445 118051103.58045      1886.76645        39.200  

  24082980.36404 135453696.71514      2335.87104        38.000  

 06 10 29 01 44 32.0000000  0  9G10G 1G26G22G 6G17G30G21G16                     
  23559986.57204 132705341.68714      3816.87104        37.900  

  19613324.71745 111965497.66645       415.69945        39.800  

  20421990.66445 116215065.02745     -1552.71145        39.200  

  22185730.31944 125483587.26154     -3354.32444        38.500  

  22010569.72244 124563103.38144      -759.12144        38.600  

  22298897.07304 126078269.36514     -2512.90604        38.300  

  22381298.56904 126511296.94214      3016.53904        38.700  

  20771017.77645 118049217.11445      1886.30545        39.100  

  24082535.83204 135451360.79714      2335.81304        37.900  

 06 10 29 01 44 33.0000000  0  9G10G 1G26G22G 6G17G30G21G16                     
  23559260.33104 132701524.97614      3816.47304        38.000  

  19613245.70945 111965082.35945       415.05545        39.700  

  20422286.12205 116216617.74005     -1553.09405        39.200  

  22186368.61104 125486941.48604     -3354.27704        38.400  

  22010714.27644 124563863.07344      -760.18844        38.600  

  22299375.35004 126080782.52714     -2513.49204        38.500  

  22380724.56904 126508280.78514      3015.94904        38.500  

  20770658.86745 118047331.05445      1885.91445        39.300  

  24082091.40404 135449025.37614      2335.25404        37.900  

 06 10 29 01 44 34.0000000  0  9G10G 1G26G22G 6G17G30G21G16                     
  23558534.09604 132697708.40514      3816.53904        37.800  

  19613166.82045 111964667.76545       414.18445        39.700  

  20422581.67605 116218170.83015     -1553.19105        39.300  

  22187006.94504 125490296.08814     -3354.79304        38.600  

  22010858.96444 124564623.54444      -760.88344        38.600  

  22299853.69744 126083296.14854     -2513.74644        38.500  

  22380150.66904 126505264.83714      3015.82004        38.400  

  20770300.09745 118045445.56545      1885.09445        39.000  

  24081647.06504 135446690.51414      2334.27304        38.000  

 06 10 29 01 44 35.0000000  0  9G10G 1G26G22G 6G17G30G21G16                     
  23557807.85904 132693892.03814      3816.34004        37.900  

  19613088.07905 111964253.91605       413.50405        39.600  

  20422877.29745 116219724.36255     -1553.96545        39.400  

  22187645.38204 125493651.05514     -3355.15604        38.600  

  22011003.82744 124565384.85644      -761.83644        38.600  

  22300332.08804 126085810.37804     -2514.69904        38.700  

  22379576.82544 126502249.17954      3015.36344        38.500  

  20769941.39605 118043560.64905      1884.76605        39.000  

  24081202.87404 135444356.25014      2333.75804        38.000  

 06 10 29 01 44 36.0000000  0  9G10G 1G26G22G 6G17G30G21G16                     
  23557081.68404 132690075.85914      3815.98804        38.100  

  19613009.44305 111963840.81115       413.00805        39.700  

  20423173.01645 116221278.33245     -1554.21945        39.300  

  22188283.90704 125497006.44414     -3355.74204        38.700  

  22011148.87644 124566146.98144      -762.60244        38.600  

  22300810.58704 126088325.12614     -2514.89504        38.600  

  22379003.03004 126499233.77504      3015.27004        38.600  

  20769582.85105 118041676.35015      1883.96505        39.000  

  24080758.77404 135442022.59014      2333.55104        37.900  

 06 10 29 01 44 37.0000000  0  9G10G 1G26G22G 6G17G30G21G16                     
  23556355.48944 132686259.77654      3816.01244        37.700  

  19612930.98605 111963428.42315       411.94105        39.600  

  20423468.82305 116222832.67605     -1554.78105        39.200  

  22188922.48104 125500362.15414     -3356.05104        38.700  

  22011294.05304 124566909.88304      -763.32404        38.500  

  22301289.21504 126090840.42314     -2515.61304        38.300  

  22378429.29304 126496218.60114      3015.16404        38.600  

  20769224.37105 118039792.59115      1883.52005        39.100  

  24080314.81204 135439689.49514      2332.51604        37.800  

 06 10 29 01 44 38.0000000  0  9G10G 1G26G22G 6G17G30G21G16                     
  23555629.35944 132682443.89944      3815.75844        37.800  

  19612852.65645 111963016.78955       411.30545        39.600  

  20423764.67845 116224387.48855     -1555.19145        39.300  

  22189561.13544 125503718.27154     -3356.23044        38.500  

  22011439.40444 124567673.66154      -764.22344        38.700  

  22301767.93744 126093356.28754     -2516.21144        38.500  

  22377855.56044 126493203.74054      3014.89544        38.500  

  20768866.01945 118037909.44955      1882.87945        39.300  

  24079870.99744 135437357.04354      2332.15244        37.800  

 06 10 29 01 44 39.0000000  0  9G10G 1G26G22G 6G17G30G21G16                     
  23554903.27344 132678628.19944      3815.76644        37.900  

  19612774.41805 111962605.86005       410.63305        39.600  

  20424060.61905 116225942.67005     -1555.40605        39.300  

  22190199.89044 125507074.74944     -3356.53544        38.700  

  22011584.87504 124568438.19304      -764.82404        38.600  

  22302246.78204 126095872.65804     -2516.62104        38.300  

  22377281.94604 126490189.11204      3014.66804        38.500  

  20768507.76445 118036026.85545      1882.46145        39.100  

  24079427.27204 135435025.15704      2331.61704        37.700  

 06 10 29 01 44 40.0000000  0  9G10G 1G26G22G 6G17G30G21G16                     
  23554177.16844 132674812.54144      3815.48444        38.000  

  19612696.33805 111962195.57615       410.07405        39.600  

  20424356.60805 116227498.17915     -1555.58605        39.300  

  22190838.67304 125510431.50604     -3356.93004        38.400  

  22011730.48704 124569203.46614      -765.59804        38.600  

  22302725.71404 126098389.48014     -2516.77704        38.500  

  22376708.34004 126487174.65514      3014.35504        38.200  

  20768149.59805 118034144.75405      1881.60205        39.200  

  24078983.63104 135432693.76914      2330.97704        37.900  

 06 10 29 01 44 41.0000000  0  9G10G 1G26G22G 6G17G30G21G16                     
  23553451.05744 132670996.84444      3815.59044        38.100  

  19612618.36545 111961785.81355       409.53545        39.600  

  20424652.63105 116229053.87315     -1555.95705        39.200  

  22191477.48704 125513788.44114     -3357.10904        38.500  

  22011876.23204 124569969.33914      -766.24604        38.600  

  22303204.70304 126100906.62414     -2517.27004        38.500  

  22376134.69444 126484160.21954      3014.53944        38.400  

  20767791.51205 118032263.00015      1881.31305        39.100  

  24078540.08204 135430362.75414      2330.98004        37.800  

 06 10 29 01 44 42.0000000  0  9G10G 1G26G22G 6G17G30G21G16                     
  23552724.98144 132667181.25444      3815.55944        38.100  

  19612540.51605 111961376.70305       408.66005        39.700  

  20424948.73405 116230609.92815     -1556.14805        39.400  

  22192116.29804 125517145.64614     -3357.35904        38.700  

  22012022.09204 124570735.95314      -767.19504        38.600  

  22303683.84704 126103424.24814     -2517.59404        38.500  

  22375561.13644 126481146.00044      3014.05544        38.200  

  20767433.53545 118030381.74855      1880.96145        39.000  

  24078096.61004 135428032.27614      2330.08604        38.000  

 06 10 29 01 44 43.0000000  0  9G10G 1G26G22G 6G17G30G21G16                     
  23551998.92344 132663365.83444      3815.46144        38.200  

  19612462.80105 111960968.35415       407.89505        39.800  

  20425244.93705 116232166.42515     -1556.75805        39.200  

  22192755.21504 125520503.27814     -3357.93804        38.600  

  22012168.13204 124571503.40114      -767.98004        38.700  

  22304163.04504 126105942.44514     -2518.55104        38.400  

  22374987.60044 126478132.05344      3013.72744        38.600  

  20767075.66605 118028501.13505      1880.20705        39.100  

  24077653.22004 135425702.43314      2329.31304        37.800  

 06 10 29 01 44 44.0000000  0  9G10G 1G26G22G 6G17G30G21G16                     
  23551272.91444 132659550.53844      3815.48044        38.300  

  19612385.22045 111960560.67055       407.58245        39.700  

  20425541.19245 116233723.26255     -1556.95745        39.400  

  22193394.19344 125523861.19154     -3357.91444        38.600  

  22012314.30044 124572271.58754      -768.48844        38.700  

  22304642.34744 126108461.09454     -2518.77744        38.500  

  22374414.09044 126475118.28244      3013.78944        38.500  

  20766717.90145 118026620.98855      1880.05545        39.000  

  24077209.95144 135423373.08154      2329.20344        37.800  

 06 10 29 01 44 45.0000000  0  9G10G 1G26G22G 6G17G30G21G16                     
  23550546.87304 132655735.33904      3815.19904        38.100  

  19612307.76405 111960153.69205       406.38705        39.700  

  20425837.52005 116235280.47105     -1557.39105        39.100  

  22194033.25804 125527219.46004     -3358.58604        38.400  

  22012460.64204 124573040.56204      -769.28904        38.600  

  22305121.72904 126110980.27104     -2519.58604        38.500  

  22373840.64044 126472104.77344      3013.25444        38.500  

  20766360.23505 118024741.40905      1879.26605        39.000  

  24076766.80904 135421044.29904      2328.35504        37.900  

 06 10 29 01 44 46.0000000  0  9G10G 1G26G22G 6G17G30G21G16                     
  23549820.90804 132651920.16514      3815.30104        38.000  

  19612230.41605 111959747.25715       406.34405        39.600  

  20426133.89105 116236837.93515     -1557.50005        39.200  

  22194672.36904 125530577.93114     -3358.46104        38.500  

  22012607.07104 124573810.16414      -769.73404        38.600  

  22305601.15304 126113499.80714     -2519.64804        38.800  

  22373267.22404 126469091.32704      3013.56604        38.700  

  20766002.64705 118022862.22015      1879.26205        39.200  

  24076323.70904 135418715.94814      2328.13304        38.000  

 06 10 29 01 44 47.0000000  0  9G10G 1G26G22G 6G17G30G21G16                     
  23549094.93904 132648105.07714      3814.96904        38.100  

  19612153.20605 111959341.47115       405.57405        39.500  

  20426430.33005 116238395.71315     -1557.95305        39.100  

  22195311.51804 125533936.68914     -3358.98004        38.400  

  22012753.65104 124574580.49414      -770.65204        38.600  

  22306080.70404 126116019.79514     -2520.38304        38.700  

  22372693.80204 126466078.05914      3013.04704        38.400  

  20765645.13205 118020983.55415      1878.41405        39.200  

  24075880.75644 135416388.10454      2327.71544        37.900  

 06 10 29 01 44 48.0000000  0  9G10G 1G26G22G 6G17G30G21G16                     
  23548368.99204 132644290.15114      3814.99204        38.100  

  19612076.13305 111958936.43615       404.62505        39.500  

  20426726.84245 116239953.93455     -1558.40645        39.300  

  22195950.79704 125537295.82914     -3359.21504        38.700  

  22012900.40004 124575351.65114      -771.62504        38.600  

  22306560.36404 126118540.33314     -2520.79704        38.500  

  22372120.45504 126463065.07314      3012.60504        38.400  

  20765287.73505 118019105.46715      1877.58205        39.300  

  24075437.89004 135414060.85404      2326.93404        37.700  

 06 10 29 01 44 49.0000000  0  9G10G 1G26G22G 6G17G30G21G16                     
  23547643.01304 132640475.26014      3814.75004        37.900  

  19611999.16905 111958532.01715       403.94505        39.600  

  20427023.41345 116241512.43945     -1558.64845        39.300  

  22196590.06944 125540655.20354     -3359.19944        38.600  

  22013047.24704 124576123.51214      -772.29304        38.700  

  22307040.10704 126121061.30014     -2521.09804        38.500  

  22371547.11904 126460052.19714      3012.93404        38.500  

  20764930.44105 118017227.81815      1877.37105        39.200  

  24074995.15704 135411734.10714      2326.57404        37.600  

 06 10 29 01 44 50.0000000  0  9G10G 1G26G22G 6G17G30G21G16                     
  23546917.08744 132636660.45354      3814.65244        37.800  

  19611922.34605 111958128.21415       403.50405        39.700  

  20427320.03445 116243071.24345     -1559.06645        39.200  

  22197229.37944 125544014.89844     -3359.94544        38.600  

  22013194.28804 124576896.08014      -773.00004        38.600  

  22307519.91544 126123582.71254     -2521.88344        38.400  

  22370973.82104 126457039.50714      3012.45304        38.400  

  20764573.23205 118015350.65215      1876.79705        39.000  

  24074552.45644 135409407.84054      2325.85944        37.700  

 06 10 29 01 44 51.0000000  0  9G10G 1G26G22G 6G17G30G21G16                     
  23546191.18404 132632845.85104      3814.64104        38.100  

  19611845.66905 111957725.18515       402.65605        39.500  

  20427616.75605 116244630.52105     -1559.49605        39.100  

  22197868.79944 125547374.97744     -3360.32444        38.700  

  22013341.45704 124577669.49114      -773.99204        38.600  

  22307999.82904 126126104.66404     -2522.13304        38.600  

  22370400.56204 126454027.09814      3012.31304        38.400  

  20764216.12105 118013474.11315      1876.27705        39.100  

  24074109.88704 135407082.19604      2325.53904        38.300  

 06 10 29 01 44 52.0000000  0  9G10G 1G26G22G 6G17G30G21G16                     
  23545465.34104 132629031.56414      3813.94104        37.800  

  19611769.13705 111957323.04215       401.53905        39.500  

  20427913.59805 116246190.34815     -1559.97305        39.100  

  22198508.26244 125550735.56744     -3360.83244        38.700  

  22013488.82904 124578443.85414      -774.90604        38.600  

  22308479.88844 126128627.33054     -2522.89844        38.400  

  22369827.36804 126451015.10414      3011.69504        38.400  

  20763859.18505 118011598.29615      1875.47705        39.200  

  24073667.47604 135404757.31414      2324.39804        38.000  

 06 10 29 01 44 53.0000000  0  9G10G 1G26G22G 6G17G30G21G16                     
  23544739.54604 132625217.44514      3813.94504        38.200  

  19611692.77405 111956921.62215       401.00005        39.500  

  20428210.48305 116247750.59215     -1560.16805        39.200  

  22199147.85744 125554096.54444     -3361.04744        38.500  

  22013636.31904 124579219.04414      -775.61304        38.600  

  22308960.06344 126131150.54844     -2523.47744        38.300  

  22369254.27504 126448003.36014      3011.86304        38.500  

  20763502.31605 118009723.06415      1874.90205        39.200  

  24073225.15404 135402433.00814      2324.09804        37.900  

 06 10 29 01 44 54.0000000  0  9G10G 1G26G22G 6G17G30G21G16                     
  23544013.71004 132621403.35214      3814.38704        38.000  

  19611616.50605 111956520.80815       400.65205        39.700  

  20428507.43905 116249311.12115     -1560.56605        39.400  

  22199787.46404 125557457.76604     -3361.45304        38.600  

  22013783.97104 124579994.89614      -775.98004        38.600  

  22309440.28944 126133674.16444     -2523.87144        38.600  

  22368681.16704 126444991.77014      3011.55504        38.600  

  20763145.55905 118007848.27415      1874.81305        39.000  

  24072782.91104 135400109.17914      2323.33204        37.800  

 06 10 29 01 44 55.0000000  0  9G10G 1G26G22G 6G17G30G21G16                     
  23543287.93704 132617589.29014      3814.04704        38.200  

  19611540.33005 111956120.56115       400.12905        39.600  

  20428804.44105 116250871.90115     -1560.84005        39.200  

  22200427.11944 125560819.20254     -3361.81644        38.600  

  22013931.77104 124580771.43314      -776.97304        38.700  

  22309920.59744 126136198.15644     -2524.21144        38.500  

  22368108.07204 126441980.27414      3011.21504        38.600  

  20762788.86805 118005973.91915      1874.00005        39.100  

  24072340.82704 135397785.77014      2323.13304        37.900  

 06 10 29 01 44 56.0000000  0  9G10G 1G26G22G 6G17G30G21G16                     
  23542562.16244 132613775.22654      3814.36744        37.900  

  19611464.27545 111955720.91255       399.43445        39.600  

  20429101.48545 116252432.96255     -1561.11745        39.200  

  22201066.83344 125564180.83644     -3361.57844        38.400  

  22014079.69644 124581548.61154      -777.46544        38.600  

  22310401.00944 126138722.55444     -2524.61344        38.600  

  22367535.04744 126438968.88254      3011.34044        38.300  

  20762432.27545 118004099.97455      1873.83245        38.900  

  24071898.76304 135395462.83714      2322.63704        37.800  

 06 10 29 01 44 57.0000000  0  9G10G 1G26G22G 6G17G30G21G16                     
  23541836.31404 132609961.17704      3814.07004        37.900  

  19611388.34405 111955321.83505       398.66805        39.600  

  20429398.58505 116253994.27405     -1561.53105        39.300  

  22201706.53904 125567542.71004     -3361.82004        38.500  

  22014227.72604 124582326.45804      -778.39804        38.500  

  22310881.46544 126141247.31744     -2524.88744        38.600  

  22366962.03104 126435957.58304      3011.18404        38.300  

  20762075.76805 118002226.46005      1873.25405        39.000  

  24071456.81304 135393140.32004      2322.13304        37.800  

 06 10 29 01 44 58.0000000  0  9G10G 1G26G22G 6G17G30G21G16                     
  23541110.54504 132606147.36114      3813.79304        38.100  

  19611312.54905 111954923.56715       397.53505        39.600  

  20429695.77105 116255556.06715     -1562.19105        39.400  

  22202346.39004 125570905.05014     -3362.72304        38.600  

  22014375.89704 124583105.18014      -779.24604        38.600  

  22311362.01504 126143772.70404     -2525.65204        38.600  

  22366389.06944 126432946.64154      3010.60944        38.400  

  20761719.37705 118000353.60215      1872.52305        39.200  

  24071014.95404 135390818.47804      2321.56604        37.900  

 06 10 29 01 44 59.0000000  0  9G10G 1G26G22G 6G17G30G21G16                     
  23540384.84804 132602333.83114      3813.37504        37.900  

  19611236.91505 111954526.08715       397.07005        39.700  

  20429993.06145 116257118.35155     -1562.75045        39.100  

  22202986.29204 125574267.80814     -3362.98804        38.600  

  22014524.25844 124583884.77054      -779.91444        38.600  

  22311842.68104 126146298.69314     -2526.30104        38.700  

  22365816.16504 126429936.01504      3010.57804        38.300  

  20761363.12945 117998481.37955      1871.98445        39.100  

  24070573.26304 135388497.31104      2320.84804        38.000  

 06 10 29 01 45  0.0000000  0  9G10G 1G26G22G 6G17G30G21G16                     
  23539659.14904 132598520.44514      3812.98804        38.000  

  19611161.41545 111954129.33055       396.47345        39.600  

  20430290.44805 116258681.03705     -1562.98005        39.200  

  22203626.22604 125577630.92614     -3363.25404        38.700  

  22014672.75004 124584665.18804      -780.59404        38.600  

  22312323.46704 126148825.22114     -2526.87904        38.500  

  22365243.28204 126426925.64514      3010.32004        38.500  

  20761006.95145 117996609.75345      1871.30545        39.100  

  24070131.67804 135386176.74404      2320.37104        37.700  

 06 10 29 01 45  1.0000000  0  9G10G 1G26G22G 6G17G30G21G16                     
  23538933.49704 132594707.15414      3813.30104        38.200  

  19611086.02705 111953733.27905       395.70705        39.500  

  20430587.88805 116260244.09015     -1563.20305        39.200  

  22204266.26904 125580994.40814     -3363.58604        38.600  

  22014821.43804 124585446.38514      -781.50404        38.800  

  22312804.35304 126151352.24514     -2527.01204        38.600  

  22364670.46704 126423915.50814      3010.09004        38.500  

  20760650.88005 117994738.65705      1870.77705        38.900  

  24069690.25304 135383856.71304      2319.90604        38.000  

 06 10 29 01 45  2.0000000  0  9G10G 1G26G22G 6G17G30G21G16                     
  23538207.89544 132590894.04054      3813.05944        37.900  

  19611010.78445 111953337.96355       395.05545        39.600  

  20430885.39345 116261807.56055     -1563.79745        39.400  

  22204906.37944 125584358.24454     -3364.02744        38.500  

  22014970.24544 124586228.39054      -782.41444        38.600  

  22313285.34544 126153879.82754     -2527.90644        38.600  

  22364097.72644 126420905.62554      3009.73844        38.400  

  20760294.94545 117992868.14755      1870.14145        39.100  

  24069248.84844 135381537.29844      2318.95344        38.000  

 06 10 29 01 45  3.0000000  0  9G10G 1G26G22G 6G17G30G21G16                     
  23537482.29304 132587081.07704      3812.81304        37.900  

  19610935.69305 111952943.32705       394.22705        39.600  

  20431182.96205 116263371.40105     -1563.98405        39.100  

  22205546.55404 125587722.39504     -3364.12104        38.700  

  22015119.19104 124587011.15204      -783.05104        38.800  

  22313766.38804 126156407.87004     -2528.03504        38.500  

  22363525.03604 126417895.95404      3009.64104        38.300  

  20759939.08405 117990998.16605      1869.40605        39.100  

  24068807.57604 135379218.40504      2318.41404        37.900  

 06 10 29 01 45  4.0000000  0  9G10G 1G26G22G 6G17G30G21G16                     
  23536756.70544 132583268.09554      3813.01244        38.000  

  19610860.69605 111952549.25415       393.71905        39.700  

  20431480.56805 116264935.49415     -1564.19505        39.400  

  22206186.79104 125591086.76514     -3364.31304        38.600  

  22015268.27304 124587794.56314      -783.69104        38.500  

  22314247.56404 126158936.29714     -2528.34004        38.700  

  22362952.34204 126414886.38214      3009.50804        38.500  

  20759583.30305 117989128.57515      1869.57405        39.200  

  24068366.39004 135376899.95314      2318.15604        37.900  

 06 10 29 01 45  5.0000000  0  9G10G 1G26G22G 6G17G30G21G16                     
  23536031.13304 132579455.12204      3812.96904        37.900  

  19610785.80905 111952155.73315       393.39805        39.600  

  20431778.26005 116266499.82615     -1564.35905        39.400  

  22206827.07104 125594451.34514     -3364.72704        38.400  

  22015417.46244 124588578.60854      -784.23844        38.700  

  22314728.75404 126161465.10914     -2529.10504        38.500  

  22362379.64204 126411876.89314      3009.26604        38.500  

  20759227.61145 117987259.41855      1868.95745        39.200  

  24067925.26204 135374581.93714      2317.78504        37.900  

 06 10 29 01 45  6.0000000  0  9G10G 1G26G22G 6G17G30G21G16                     
  23535305.55904 132575642.15814      3812.99204        38.100  

  19610711.04705 111951762.78915       392.65205        39.600  

  20432075.99005 116268064.41515     -1564.61705        39.200  

  22207467.35404 125597816.12214     -3364.75004        38.700  

  22015566.77344 124589363.31144      -784.89844        38.600  

  22315210.04904 126163994.29314     -2529.43004        38.600  

  22361806.97704 126408867.51014      3009.26204        38.600  

  20758871.99945 117985390.68045      1868.34845        39.200  

  24067484.23804 135372264.34114      2317.63704        38.000  

 06 10 29 01 45  7.0000000  0  9G10G 1G26G22G 6G17G30G21G16                     
  23534579.99904 132571829.30814      3812.86304        38.000  

  19610636.41145 111951370.55455       391.89545        39.600  

  20432373.79805 116269629.38015     -1565.20305        39.200  

  22208107.68904 125601181.25614     -3365.46504        38.600  

  22015716.23544 124590148.78844      -785.74644        38.600  

  22315691.44404 126166523.97914     -2530.07404        38.400  

  22361234.37644 126405858.34354      3009.11344        38.400  

  20758516.52045 117983522.46545      1867.92645        39.000  

  24067043.30204 135369947.33614      2316.74604        38.000  

 06 10 29 01 45  8.0000000  0  9G10G 1G26G22G 6G17G30G21G16                     
  23533854.45104 132568016.62814      3812.41404        38.100  

  19610561.88105 111950979.01005       391.26205        39.700  

  20432671.67805 116271194.73215     -1565.48805        39.000  

  22208748.11804 125604546.70714     -3365.46504        38.600  

  22015865.87344 124590935.06544      -786.77344        38.600  

  22316172.92504 126169054.16514     -2530.47304        38.600  

  22360661.83444 126402849.42644      3008.78544        38.500  

  20758161.12445 117981654.82545      1867.48445        39.200  

  24066602.48404 135367630.86814      2316.36704        37.800  

 06 10 29 01 45  9.0000000  0  9G10G 1G26G22G 6G17G30G21G16                     
  23533128.93604 132564204.07714      3812.27004        38.100  

  19610487.50405 111950588.17015       390.48005        39.600  

  20432969.62105 116272760.47615     -1565.92605        39.400  

  22209388.62304 125607912.53614     -3366.17604        38.500  

  22016015.65804 124591722.10004      -787.52704        38.700  

  22316654.48104 126171584.86014     -2531.03504        38.600  

  22360089.31644 126399840.73844      3008.46544        38.400  

  20757805.83005 117979787.74305      1866.74205        39.100  

  24066161.81404 135365314.98414      2315.64504        38.000  

 06 10 29 01 45 10.0000000  0  9G10G 1G26G22G 6G17G30G21G16                     
  23532403.47644 132560391.68054      3812.55144        38.000  

  19610413.26645 111950198.08355       389.60945        39.800  

  20433267.65705 116274326.62115     -1566.46905        39.300  

  22210029.20944 125611278.71054     -3366.27344        38.600  

  22016165.59504 124592509.95414      -788.23004        38.600  

  22317136.15904 126174116.10314     -2531.59404        38.400  

  22359516.81244 126396832.29244      3008.47744        38.500  

  20757450.63205 117977921.22215      1865.95705        39.000  

  24065721.26604 135362999.71014      2314.78504        38.000  

 06 10 29 01 45 11.0000000  0  9G10G 1G26G22G 6G17G30G21G16                     
  23531678.06244 132556579.43144      3812.21944        38.300  

  19610339.13245 111949808.65145       388.98445        39.600  

  20433565.75905 116275893.12615     -1566.72705        39.100  

  22210669.85204 125614645.19504     -3366.36704        38.500  

  22016315.65504 124593298.57314      -788.82804        38.700  

  22317617.88704 126176647.81714     -2531.68004        38.500  

  22358944.37544 126393824.07444      3008.22744        38.200  

  20757095.54805 117976055.25815      1865.67205        39.200  

  24065280.76504 135360684.97414      2314.35504        37.900  

 06 10 29 01 45 12.0000000  0  9G10G 1G26G22G 6G17G30G21G16                     
  23530952.58244 132552767.18144      3812.12144        38.000  

  19610265.13945 111949419.79145       388.48445        39.600  

  20433863.88605 116277459.87315     -1566.91005        39.300  

  22211310.52504 125618011.92514     -3366.88304        38.700  

  22016465.84304 124594087.84914      -789.54304        38.700  

  22318099.72404 126179179.91114     -2532.19104        38.600  

  22358371.95304 126390815.93704      3008.04304        38.700  

  20756740.50805 117974189.67615      1865.36305        39.200  

  24064840.37204 135358370.65514      2314.07804        38.100  

 06 10 29 01 45 13.0000000  0  9G10G 1G26G22G 6G17G30G21G16                     
  23530227.13444 132548954.97444      3812.07444        38.100  

  19610191.28345 111949031.56245       387.63745        39.700  

  20434162.08705 116279026.93315     -1567.20305        39.100  

  22211951.21304 125621378.87914     -3366.80504        38.600  

  22016616.18704 124594877.84014      -790.73004        38.700  

  22318581.64104 126181712.44814     -2532.95304        38.500  

  22357799.55304 126387807.96714      3007.93404        38.500  

  20756385.59405 117972324.57715      1864.88305        39.100  

  24064400.03544 135356056.83654      2313.61744        38.000  

 06 10 29 01 45 14.0000000  0  9G10G 1G26G22G 6G17G30G21G16                     
  23529501.77244 132545142.95744      3811.87544        37.900  

  19610117.54845 111948644.05545       387.09445        39.600  

  20434460.38445 116280594.43455     -1567.74245        39.400  

  22212592.00144 125624746.27554     -3367.75444        38.300  

  22016766.67044 124595668.61454      -791.17244        38.800  

  22319063.67844 126184245.52354     -2533.21944        38.400  

  22357227.20004 126384800.26614      3007.70704        38.600  

  20756030.77945 117970460.07255      1864.14845        39.100  

  24063959.87344 135353743.61544      2312.71944        37.900  

 06 10 29 01 45 15.0000000  0  9G10G 1G26G22G 6G17G30G21G16                     
  23528776.42404 132541331.12904      3811.96504        38.200  

  19610043.94705 111948257.31905       386.31605        39.600  

  20434758.75805 116282162.33205     -1568.07805        39.200  

  22213232.87204 125628114.00104     -3368.04704        38.700  

  22016917.31604 124596460.22304      -791.93804        38.700  

  22319545.80304 126186779.14004     -2533.91404        38.400  

  22356654.93204 126381792.83804      3007.21504        38.500  

  20755676.09345 117968596.14445      1863.80545        39.300  

  24063519.84244 135351431.02644      2312.14144        37.700  

 06 10 29 01 45 16.0000000  0  9G10G 1G26G22G 6G17G30G21G16                     
  23528051.10104 132537519.45214      3811.62104        37.900  

  19609970.48705 111947871.26815       385.67605        39.700  

  20435057.19845 116283730.65355     -1568.57845        39.300  

  22213873.79404 125631482.07614     -3367.96504        38.600  

  22017068.10104 124597252.62614      -792.67604        38.600  

  22320028.03444 126189313.28854     -2534.53944        38.600  

  22356082.67304 126378785.63304      3007.31604        38.400  

  20755321.50005 117966732.79405      1863.21105        39.100  

  24063079.88144 135349118.98444      2311.69944        37.900  

 06 10 29 01 45 17.0000000  0  9G10G 1G26G22G 6G17G30G21G16                     
  23527325.78504 132533707.88614      3811.12504        38.100  

  19609897.16705 111947485.89915       385.05905        39.700  

  20435355.69545 116285299.31045     -1568.83645        39.400  

  22214514.78244 125634850.49454     -3368.63344        38.400  

  22017219.03504 124598045.79214      -793.71904        38.800  

  22320510.36544 126191847.92544     -2535.32044        38.600  

  22355510.48904 126375778.66904      3006.68404        38.600  

  20754967.00805 117964869.97815      1862.49205        39.200  

  24062639.99944 135346807.52344      2311.24644        37.700  

 06 10 29 01 45 18.0000000  0  9G10G 1G26G22G 6G17G30G21G16                     
  23526600.50604 132529896.47714      3811.30504        38.100  

  19609823.98505 111947101.26915       384.43005        39.600  

  20435654.29645 116286868.39745     -1569.21545        39.100  

  22215155.82744 125638219.26044     -3368.73444        38.500  

  22017370.10004 124598839.76114      -794.34804        38.700  

  22320992.80844 126194383.06444     -2535.40644        38.300  

  22354938.33604 126372771.94104      3006.57404        38.600  

  20754612.60205 117963007.73715      1862.08605        39.200  

  24062200.29604 135344496.60404      2310.71904        37.700  

 06 10 29 01 45 19.0000000  0  9G10G 1G26G22G 6G17G30G21G16                     
  23525875.24804 132526085.14514      3811.17604        38.000  

  19609750.90805 111946717.25815       383.68405        39.600  

  20435952.96345 116288437.77045     -1569.57445        39.000  

  22215796.94944 125641588.32744     -3369.23044        38.500  

  22017521.31404 124599634.43814      -794.97304        38.600  

  22321475.30644 126196918.66144     -2535.91044        38.200  

  22354366.22504 126369765.38304      3006.39504        38.500  

  20754258.34805 117961145.96815      1861.63705        39.000  

  24061760.65804 135342186.22714      2310.48804        38.000  

 06 10 29 01 45 20.0000000  0  9G10G 1G26G22G 6G17G30G21G16                     
  23525149.96144 132522273.90354      3811.16044        38.100  

  19609677.96045 111946333.90455       382.95745        39.700  

  20436251.68345 116290007.46045     -1569.68045        39.400  

  22216438.11144 125644957.63644     -3369.38744        38.500  

  22017672.67244 124600429.83154      -795.63344        38.700  

  22321957.88544 126199454.69444     -2536.42244        38.600  

  22353794.08944 126366758.97444      3006.16444        38.500  

  20753904.14645 117959284.69055      1860.94545        39.000  

  24061321.10244 135339876.33054      2309.57844        37.800  

 06 10 29 01 45 21.0000000  0  9G10G 1G26G22G 6G17G30G21G16                     
  23524424.71544 132518462.82344      3810.91044        38.000  

  19609605.16805 111945951.27705       382.09805        39.700  

  20436550.47545 116291577.58445     -1570.28145        39.200  

  22217079.32544 125648327.34244     -3369.87944        38.700  

  22017824.18604 124601226.05504      -796.84804        38.700  

  22322440.58844 126201991.27444     -2537.17244        38.600  

  22353222.06904 126363752.84604      3005.92204        38.500  

  20753550.05205 117957423.98005      1860.28505        39.300  

  24060881.67504 135337567.05304      2309.21904        38.000  

 06 10 29 01 45 22.0000000  0  9G10G 1G26G22G 6G17G30G21G16                     
  23523699.50804 132514651.92804      3810.44104        38.100  

  19609532.51805 111945569.38515       381.45705        39.600  

  20436849.32505 116293148.14705     -1570.98405        39.100  

  22217720.63804 125651697.42904     -3370.32804        38.600  

  22017975.85804 124602023.08814      -797.60504        38.700  

  22322923.39204 126204528.39204     -2537.38304        38.600  

  22352650.05404 126360746.97614      3005.65604        38.700  

  20753196.09105 117955563.86615      1859.86305        39.200  

  24060442.37704 135335258.36914      2308.47704        37.600  

 06 10 29 01 45 23.0000000  0  9G10G 1G26G22G 6G17G30G21G16                     
  23522974.36604 132510841.22214      3810.44904        38.300  

  19609459.98905 111945188.22915       380.96505        39.500  

  20437148.26805 116294719.12115     -1571.14505        39.200  

  22218361.99705 125655067.89215     -3370.70705        38.900  

  22018127.66104 124602820.94814      -798.35504        38.500  

  22323406.30804 126207066.07214     -2538.02304        38.700  

  22352078.09844 126357741.39054      3005.40644        38.500  

  20752842.24005 117953704.35215      1859.30105        39.000  

  24060003.13404 135332950.33014      2307.28904        37.800  

 06 10 29 01 45 24.0000000  0  9G10G 1G26G22G 6G17G30G21G16                     
  23522249.24004 132507030.60414      3810.64804        38.200  

  19609387.57445 111944807.75755       380.17245        39.900  

  20437447.27205 116296290.42715     -1571.53105        39.200  

  22219003.44704 125658438.66114     -3371.03904        38.600  

  22018279.64104 124603619.54614      -798.76604        38.600  

  22323889.28704 126209604.19514     -2538.34004        38.600  

  22351506.16304 126354735.99204      3005.26604        38.600  

  20752488.48605 117951845.35815      1858.71505        39.100  

  24059564.04304 135330642.75614      2307.40604        38.000  

 06 10 29 01 45 25.0000000  0  9G10G 1G26G22G 6G17G30G21G16                     
  23521524.09004 132503220.01414      3810.71504        37.800  

  19609315.29605 111944427.85305       379.66405        39.500  

  20437746.31405 116297862.02215     -1571.87105        39.400  

  22219644.93204 125661809.63414     -3370.85204        38.600  

  22018431.73104 124604418.79614      -799.19504        38.600  

  22324372.35744 126212142.72354     -2538.71144        38.300  

  22350934.27804 126351730.72114      3005.18804        38.600  

  20752134.81805 117949986.80415      1858.24205        39.000  

  24059125.01404 135328335.69214      2307.05904        37.800  

 06 10 29 01 45 26.0000000  0  9G10G 1G26G22G 6G17G30G21G16                     
  23520798.98544 132499409.50254      3810.52044        38.000  

  19609243.11245 111944048.59855       378.83645        39.700  

  20438045.42145 116299433.91355     -1572.09445        39.200  

  22220286.47444 125665180.92454     -3371.46144        38.600  

  22018583.98344 124605218.77954      -800.26244        38.700  

  22324855.50544 126214681.68144     -2539.08244        38.700  

  22350362.42344 126348725.58654      3005.05544        38.400  

  20751781.23445 117948128.68655      1858.07445        39.000  

  24058686.08244 135326029.10454      2306.32044        38.000  

 06 10 29 01 45 27.0000000  0  9G10G 1G26G22G 6G17G30G21G16                     
  23520073.88244 132495599.07644      3810.46544        38.100  

  19609171.05945 111943669.98645       378.34845        39.600  

  20438344.62945 116301006.13445     -1572.32445        39.400  

  22220928.08404 125668552.46804     -3371.77304        38.600  

  22018736.35704 124606019.49504      -801.00404        38.600  

  22325338.71504 126217221.11604     -2539.79304        38.700  

  22349790.57904 126345720.65604      3004.78104        38.600  

  20751427.73805 117946271.13005      1857.46505        38.900  

  24058247.24904 135323723.03604      2305.66004        37.900  

 06 10 29 01 45 28.0000000  0  9G10G 1G26G22G 6G17G30G21G16                     
  23519348.83104 132491788.74904      3810.13304        38.000  

  19609099.14005 111943292.02705       377.33605        39.700  

  20438643.86305 116302578.70805     -1572.96105        39.300  

  22221569.70904 125671924.30914     -3371.92204        38.600  

  22018888.85644 124606820.94054      -801.65244        38.600  

  22325822.05604 126219760.99914     -2540.26604        38.600  

  22349218.80104 126342715.91414      3004.50404        38.600  

  20751074.35405 117944414.07415      1856.40205        38.900  

  24057808.55604 135321417.48714      2305.40604        37.900  

 06 10 29 01 45 29.0000000  0  9G10G 1G26G22G 6G17G30G21G16                     
  23518623.76604 132487978.50614      3810.09004        37.900  

  19609027.33405 111942914.69615       376.88705        39.700  

  20438943.16605 116304151.58915     -1572.96505        39.000  

  22222211.40004 125675296.45314     -3372.48404        38.500  

  22019041.49844 124607623.10744      -802.62944        38.700  

  22326305.44204 126222301.30714     -2540.57804        38.500  

  22348647.02404 126339711.32214      3004.43004        38.200  

  20750721.06505 117942557.45715      1856.34805        39.400  

  24057369.93004 135319112.43014      2304.84004        37.700  

 06 10 29 01 45 30.0000000  0  9G10G 1G26G22G 6G17G30G21G16                     
  23517898.69904 132484168.29614      3810.16404        37.900  

  19608955.62905 111942537.97615       376.47705        39.700  

  20439242.52305 116305724.75315     -1573.36305        39.300  

  22222853.13704 125678668.80114     -3372.40204        38.600  

  22019194.28604 124608425.93804      -803.14504        38.600  

  22326788.93004 126224842.03714     -2540.93404        38.300  

  22348075.30604 126336706.86914      3004.45704        38.600  

  20750367.84905 117940701.33015      1855.89805        39.300  

  24056931.37804 135316807.88714      2304.16004        37.800  

 06 10 29 01 45 31.0000000  0  9G10G 1G26G22G 6G17G30G21G16                     
  23517173.67804 132480358.24914      3809.85904        38.000  

  19608884.08205 111942161.96515       375.62505        39.700  

  20439541.96805 116307298.30615     -1573.82405        39.300  

  22223494.93904 125682041.50114     -3372.80104        38.300  

  22019347.20344 124609229.55554      -803.77744        38.700  

  22327272.53804 126227383.28314     -2541.64804        38.700  

  22347503.60704 126333702.65014      3004.02004        38.600  

  20750014.73305 117938845.75515      1855.18405        39.300  

  24056492.92004 135314503.88114      2303.81604        37.700  

 06 10 29 01 45 32.0000000  0  9G10G 1G26G22G 6G17G30G21G16                     
  23516448.67544 132476548.45154      3809.83244        38.000  

  19608812.69145 111941786.79355       374.66845        39.800  

  20439841.50645 116308872.37455     -1574.20345        39.100  

  22224136.82044 125685414.71154     -3373.43444        38.500  

  22019500.27044 124610034.10844      -804.96144        38.700  

  22327756.24244 126229925.16154     -2542.16044        38.700  

  22346931.99444 126330698.80454      3003.73044        38.500  

  20749661.75745 117936990.86055      1854.65645        39.100  

  24056054.63644 135312200.58754      2302.90644        37.800  

 06 10 29 01 45 33.0000000  0  9G10G 1G26G22G 6G17G30G21G16                     
  23515723.72704 132472738.91304      3809.51604        38.100  

  19608741.46305 111941412.39505       374.00405        39.600  

  20440141.13305 116310446.92005     -1574.76605        39.300  

  22224778.78844 125688788.30044     -3373.53944        38.600  

  22019653.54144 124610839.51844      -805.77044        38.700  

  22328240.04604 126232467.62104     -2542.71104        38.500  

  22346360.44544 126327695.27244      3003.32844        38.600  

  20749308.91905 117935136.61805      1853.88305        39.000  

  24055616.48304 135309897.95904      2302.06304        37.800  

 06 10 29 01 45 34.0000000  0  9G10G 1G26G22G 6G17G30G21G16                     
  23514998.81504 132468929.52814      3809.41004        38.000  

  19608670.35205 111941038.73515       373.51205        39.600  

  20440440.84005 116312021.88515     -1575.14805        39.400  

  22225420.85244 125692162.29344     -3374.03944        38.300  

  22019806.98644 124611645.75344      -806.64144        38.600  

  22328723.97504 126235010.63814     -2543.41004        38.200  

  22345788.94544 126324692.01244      3003.14544        38.600  

  20748956.19805 117933282.95515      1853.34405        39.300  

  24055178.41204 135307595.91914      2301.83604        38.100  

 06 10 29 01 45 35.0000000  0  9G10G 1G26G22G 6G17G30G21G16                     
  23514273.90204 132465120.14014      3809.30104        37.900  

  19608599.35805 111940665.63315       372.79705        39.400  

  20440740.61105 116313597.06815     -1575.31305        39.500  

  22226062.93304 125695536.48504     -3374.45304        38.800  

  22019960.50604 124612452.60304      -807.31304        38.400  

  22329207.92904 126237553.99314     -2543.46104        38.300  

  22345217.46044 126321688.83744      3002.98844        38.500  

  20748603.53205 117931429.66515      1853.28505        39.300  

  24054740.40604 135305294.30214      2301.39104        37.600  

 06 10 29 01 45 36.0000000  0  9G10G 1G26G22G 6G17G30G21G16                     
  23513549.00404 132461310.72614      3809.55904        38.200  

  19608528.46905 111940293.03815       372.25805        39.500  

  20441040.39405 116315172.46315     -1575.72705        39.100  

  22226705.06004 125698910.80314     -3374.50004        38.500  

  22020114.14644 124613260.04854      -808.01244        38.600  

  22329691.97904 126240097.65014     -2543.76204        38.400  

  22344645.98244 126318685.66844      3003.23044        38.500  

  20748250.92505 117929576.77315      1852.69505        39.000  

  24054302.48904 135302993.06814      2300.93804        37.800  

 06 10 29 01 45 37.0000000  0  9G10G 1G26G22G 6G17G30G21G16                     
  23512824.14004 132457501.45814      3809.03504        37.800  

  19608457.71245 111939921.16855       371.48845        39.600  

  20441340.24605 116316748.23415     -1576.03905        39.200  

  22227347.24904 125702285.50114     -3375.01604        38.600  

  22020267.95704 124614068.30704      -808.73804        38.600  

  22330176.12444 126242641.88254     -2544.71144        38.500  

  22344074.55204 126315682.78604      3002.99604        38.400  

  20747898.43905 117927724.43415      1852.01605        39.200  

  24053864.68704 135300692.41814      2300.27004        37.900  

 06 10 29 01 45 38.0000000  0  9G10G 1G26G22G 6G17G30G21G16                     
  23512099.31744 132453692.39454      3809.08244        38.100  

  19608387.09645 111939550.06145       370.51245        39.600  

  20441640.20145 116318324.47755     -1576.62545        39.400  

  22227989.51444 125705660.58654     -3375.51244        38.600  

  22020421.92644 124614877.38154      -809.33244        38.700  

  22330660.39244 126245186.63344     -2544.83244        38.500  

  22343503.22344 126312680.19254      3002.40644        38.400  

  20747546.07145 117925872.73555      1851.39545        38.900  

  24053426.99744 135298392.39054      2299.86344        38.000  

 06 10 29 01 45 39.0000000  0  9G10G 1G26G22G 6G17G30G21G16                     
  23511374.50604 132449883.54604      3808.77704        38.100  

  19608316.62805 111939179.72405       369.77705        39.700  

  20441940.21005 116319901.13205     -1577.00405        39.000  

  22228631.85804 125709036.07804     -3375.73404        38.600  

  22020576.05704 124615687.33304      -810.28504        38.400  

  22331144.74344 126247731.96744     -2545.59044        38.500  

  22342931.89504 126309677.88904      3002.22704        38.500  

  20747193.81905 117924021.63105      1850.55905        39.400  

  24052989.41204 135296093.01204      2298.98004        37.900  

 06 10 29 01 45 40.0000000  0  9G10G 1G26G22G 6G17G30G21G16                     
  23510649.74204 132446074.89914      3808.48004        38.100  

  19608246.31305 111938810.12715       369.37905        39.600  

  20442240.33605 116321478.27415     -1577.39105        39.200  

  22229274.27104 125712411.97214     -3375.96904        38.600  

  22020730.35104 124616498.12414      -811.39804        38.800  

  22331629.20304 126250277.88304     -2546.31604        38.500  

  22342360.61604 126306675.89014      3001.93004        38.700  

  20746841.69305 117922171.16215      1850.01605        39.200  

  24052551.93404 135293794.28114      2298.45704        37.900  

 06 10 29 01 45 41.0000000  0  9G10G 1G26G22G 6G17G30G21G16                     
  23509924.98204 132442266.30214      3808.55504        37.900  

  19608176.10505 111938441.17115       368.76605        39.600  

  20442540.49105 116323055.70115     -1577.60905        39.400  

  22229916.72104 125715788.14614     -3376.39104        38.500  

  22020884.77004 124617309.58814      -811.98004        38.600  

  22332113.75644 126252824.21454     -2546.53944        38.700  

  22341789.36704 126303674.04814      3001.81604        38.400  

  20746489.63705 117920321.12515      1849.93005        39.100  

  24052114.57604 135291496.02014      2297.81604        38.100  

 06 10 29 01 45 42.0000000  0  9G10G 1G26G22G 6G17G30G21G16                     
  23509200.24204 132438457.83914      3808.41404        38.000  

  19608106.03305 111938072.90015       367.90605        39.600  

  20442840.72405 116324633.48115     -1578.13705        39.200  

  22230559.23704 125719164.60114     -3376.58604        38.400  

  22021039.30204 124618121.83214      -812.74204        38.700  

  22332598.40644 126255371.00844     -2547.12144        38.200  

  22341218.15104 126300672.39314      3001.52004        38.700  

  20746137.69805 117918471.64115      1849.30905        39.200  

  24051677.36304 135289198.30614      2297.28904        38.100  

 06 10 29 01 45 43.0000000  0  9G10G 1G26G22G 6G17G30G21G16                     
  23508475.54204 132434649.48714      3808.24604        38.000  

  19608036.06345 111937705.28355       367.09445        39.700  

  20443141.04505 116326211.60115     -1578.41405        39.200  

  22231201.79304 125722541.36014     -3376.62504        38.700  

  22021193.98004 124618934.79614      -813.20304        38.600  

  22333083.12544 126257918.29744     -2547.84444        38.800  

  22340647.00004 126297670.94314      3001.15604        38.500  

  20745785.83305 117916622.67615      1848.75805        39.200  

  24051240.23944 135286901.10854      2296.87144        37.700  

 06 10 29 01 45 44.0000000  0  9G10G 1G26G22G 6G17G30G21G16                     
  23507750.84504 132430841.28914      3808.06304        38.100  

  19607966.25045 111937338.36245       366.60245        39.600  

  20443441.42905 116327790.12815     -1578.64805        39.400  

  22231844.42604 125725918.49614     -3377.35204        38.600  

  22021348.81004 124619748.57514      -814.30504        38.800  

  22333567.96544 126260466.07244     -2547.93844        38.300  

  22340075.87004 126294669.72114      3001.04704        38.500  

  20745434.11205 117914774.28415      1847.98405        39.000  

  24050803.22944 135284604.51244      2296.25844        37.700  

 06 10 29 01 45 45.0000000  0  9G10G 1G26G22G 6G17G30G21G16                     
  23507026.18704 132427033.23714      3807.83204        38.100  

  19607896.57445 111936972.17945       365.79345        39.700  

  20443741.89105 116329369.04215     -1579.04705        39.200  

  22232487.14904 125729295.97014     -3377.58604        38.400  

  22021503.83704 124620563.15214      -815.19904        38.600  

  22334052.88704 126263014.38504     -2548.61304        38.500  

  22339504.81104 126291668.78214      3000.69104        38.500  

  20745082.49205 117912926.43615      1847.33205        38.900  

  24050366.32844 135282308.50844      2295.49644        37.900  

 06 10 29 01 45 46.0000000  0  9G10G 1G26G22G 6G17G30G21G16                     
  23506301.58904 132423225.34114      3807.96104        37.900  

  19607827.03145 111936606.69445       365.22345        39.600  

  20444042.42045 116330948.35355     -1579.50045        39.300  

  22233129.92644 125732673.78754     -3377.80544        38.700  

  22021658.99004 124621378.49314      -815.85504        38.700  

  22334537.90004 126265563.19914     -2549.10504        38.600  

  22338933.78404 126288668.05014      3000.55904        38.300  

  20744730.96205 117911079.15615      1846.98005        39.000  

  24049929.50344 135280013.06144      2295.12144        38.000  

 06 10 29 01 45 47.0000000  0  9G10G 1G26G22G 6G17G30G21G16                     
  23505576.95304 132419417.48514      3807.80504        38.200  

  19607757.60445 111936241.79145       364.80545        39.600  

  20444343.02345 116332527.92945     -1579.64545        39.200  

  22233772.75844 125736051.82844     -3377.95744        38.700  

  22021814.29844 124622194.51054      -816.39844        38.600  

  22335023.00404 126268112.42414     -2549.55104        38.600  

  22338362.77744 126285667.44554      3000.41044        38.600  

  20744379.51005 117909232.32715      1846.56605        39.200  

  24049492.80444 135277718.09244      2294.47344        38.000  

 06 10 29 01 45 48.0000000  0  9G10G 1G26G22G 6G17G30G21G16                     
  23504852.35944 132415609.56354      3808.05944        38.100  

  19607688.28605 111935877.42105       363.93005        39.700  

  20444643.62545 116334107.68845     -1579.78545        39.300  

  22234415.60444 125739430.03244     -3378.18444        38.400  

  22021969.68904 124623011.10304      -816.76604        38.600  

  22335508.14404 126270661.94614     -2550.06604        38.500  

  22337791.76504 126282666.88604      3000.60204        38.600  

  20744028.12405 117907385.85915      1846.11705        39.000  

  24049056.15944 135275423.48544      2294.48444        37.900  

 06 10 29 01 45 49.0000000  0  9G10G 1G26G22G 6G17G30G21G16                     
  23504127.73204 132411801.69104      3808.01604        38.100  

  19607619.04105 111935513.61915       363.65205        39.600  

  20444944.30745 116335687.74145     -1580.17245        39.300  

  22235058.51744 125742808.47344     -3378.41444        38.400  

  22022125.19304 124623828.40414      -817.62904        38.800  

  22335993.36304 126273211.86614     -2550.40604        38.300  

  22337220.81404 126279666.44614      3000.38704        38.300  

  20743676.80605 117905539.82915      1845.57805        39.100  

  24048619.62404 135273129.36304      2293.88304        37.900  

 06 10 29 01 45 50.0000000  0  9G10G 1G26G22G 6G17G30G21G16                     
  23503403.14744 132407993.97354      3807.75044        38.200  

  19607549.95845 111935150.54955       362.64845        39.700  

  20445245.03745 116337268.18545     -1580.66445        39.400  

  22235701.46344 125746187.25844     -3378.86744        38.500  

  22022280.86744 124624646.48254      -818.52744        38.700  

  22336478.67544 126275762.28054     -2550.81644        38.600  

  22336649.89444 126276666.26154      3000.03144        38.500  

  20743325.64945 117903694.36555      1845.21145        39.200  

  24048183.16544 135270835.78954      2293.32444        38.000  

 06 10 29 01 45 51.0000000  0  9G10G 1G26G22G 6G17G30G21G16                     
  23502678.60944 132404186.52544      3807.39844        37.900  

  19607481.02805 111934788.29505       361.86305        39.700  

  20445545.87205 116338849.14305     -1581.40205        39.000  

  22236344.51044 125749566.50744     -3379.61744        38.600  

  22022436.71704 124625465.46004      -819.44104        38.600  

  22336964.11504 126278313.33404     -2551.60204        38.300  

  22336079.03404 126273666.43604      2999.34804        38.500  

  20742974.58845 117901849.57545      1844.35945        39.300  

  24047746.85604 135268542.93904      2292.48404        37.900  

 06 10 29 01 45 52.0000000  0  9G10G 1G26G22G 6G17G30G21G16                     
  23501954.13344 132400379.26744      3807.16844        37.900  

  19607412.25345 111934426.76555       361.24645        39.600  

  20445846.79405 116340430.47115     -1581.37505        39.300  

  22236987.63144 125752946.11844     -3379.76244        38.400  

  22022592.71904 124626285.23814      -820.10504        38.600  

  22337449.65004 126280864.92914     -2551.93404        38.500  

  22335508.24344 126270666.83654      2999.55144        38.500  

  20742623.65705 117900005.36605      1843.72305        39.200  

  24047310.64504 135266250.66514      2291.94904        37.900  

 06 10 29 01 45 53.0000000  0  9G10G 1G26G22G 6G17G30G21G16                     
  23501229.62944 132396572.02244      3807.37944        38.300  

  19607343.55545 111934065.83845       360.78545        39.600  

  20446147.76605 116342012.10615     -1581.56605        39.100  

  22237630.79604 125756325.95804     -3379.89504        38.600  

  22022748.84304 124627105.70414      -820.53104        38.500  

  22337935.29304 126283416.91114     -2551.96904        38.400  

  22334937.48204 126267667.40504      2999.38304        38.600  

  20742272.82005 117898161.60015      1843.70305        39.200  

  24046874.52704 135263958.88114      2291.48804        37.900  

 06 10 29 01 45 54.0000000  0  9G10G 1G26G22G 6G17G30G21G16                     
  23500505.12704 132392764.79304      3807.34004        37.900  

  19607274.96705 111933705.49405       359.98805        39.700  

  20446448.79605 116343594.02515     -1582.24205        39.300  

  22238273.97704 125759706.04114     -3380.48404        38.500  

  22022905.08904 124627926.83114      -821.39804        38.700  

  22338420.98404 126285969.28014     -2552.48004        38.500  

  22334366.72904 126264668.05314      2999.44104        38.500  

  20741922.05745 117896318.29755      1842.96945        39.000  

  24046438.51544 135261667.52554      2290.75844        38.000  

 06 10 29 01 45 55.0000000  0  9G10G 1G26G22G 6G17G30G21G16                     
  23499780.67104 132388957.66714      3807.07004        38.100  

  19607206.52005 111933345.76815       359.32805        39.600  

  20446749.86005 116345176.20215     -1582.42605        39.100  

  22238917.22704 125763086.33614     -3380.08204        38.600  

  22023061.49104 124628748.66414      -822.25804        38.500  

  22338906.76404 126288522.07514     -2552.93404        38.600  

  22333795.99504 126261668.87714      2999.25404        38.400  

  20741571.36145 117894475.45945      1842.34045        38.900  

  24046002.61444 135259376.66844      2290.68044        38.000  

 06 10 29 01 45 56.0000000  0  9G10G 1G26G22G 6G17G30G21G16                     
  23499056.21044 132385150.55554      3806.87544        38.100  

  19607138.17445 111932986.63955       358.74645        39.600  

  20447050.99545 116346758.68755     -1582.73045        39.300  

  22239560.50244 125766466.90254     -3380.66044        38.400  

  22023217.99244 124629571.17554      -823.11344        38.700  

  22339392.62844 126291075.27954     -2553.70344        38.500  

  22333225.27844 126258669.81754      2999.01244        38.500  

  20741220.75844 117892633.06144      1841.94144        38.800  

  24045566.74644 135257086.29544      2290.01644        37.900  

 06 10 29 01 45 57.0000000  0  9G10G 1G26G22G 6G17G30G21G16                     
  23498331.79604 132381343.66604      3806.73404        38.000  

  19607069.97605 111932628.27005       358.06605        39.700  

  20447352.19745 116348341.61945     -1583.17645        39.400  

  22240203.87404 125769847.89204     -3381.45304        38.700  

  22023374.68604 124630394.50904      -823.60504        38.800  

  22339878.58504 126293629.02604     -2554.12104        38.200  

  22332654.64904 126255671.07504      2998.69904        38.500  

  20740870.26945 117890791.27645      1841.46145        39.300  

  24045131.01904 135254796.54404      2289.17604        37.800  

 06 10 29 01 45 58.0000000  0  9G10G 1G26G22G 6G17G30G21G16                     
  23497607.40904 132377536.92614      3806.60904        38.000  

  19607001.89505 111932270.61215       357.37105        39.600  

  20447653.51605 116349924.92705     -1583.34405        39.000  

  22240847.32504 125773229.16514     -3381.53104        38.400  

  22023531.51344 124631218.65654      -824.58644        38.600  

  22340364.63404 126296183.29814     -2554.64804        38.500  

  22332084.04644 126252672.55654      2998.51244        38.600  

  20740519.88545 117888950.06445      1840.78545        39.200  

  24044695.41604 135252507.37314      2289.14804        37.900  

 06 10 29 01 45 59.0000000  0  9G10G 1G26G22G 6G17G30G21G16                     
  23496883.04704 132373730.29114      3806.46904        38.000  

  19606933.95005 111931913.64115       356.53905        39.400  

  20447954.86105 116351508.58215     -1583.96905        39.300  

  22241490.82504 125776610.78214     -3381.72704        38.600  

  22023688.48504 124632043.52704      -825.07404        38.700  

  22340850.76704 126298738.02614     -2554.93804        38.200  

  22331513.50744 126249674.23944      2998.19544        38.300  

  20740169.60545 117887109.35945      1840.44545        39.300  

  24044259.90604 135250218.73214      2288.33204        37.800  

 06 10 29 01 46  0.0000000  0  9G10G 1G26G22G 6G17G30G21G16                     
  23496158.71104 132369923.80514      3806.41004        38.000  

  19606866.15205 111931557.33615       355.94105        39.600  

  20448256.27805 116353092.60815     -1584.28105        39.200  

  22242134.36504 125779992.72214     -3382.24604        38.600  

  22023845.60004 124632869.16714      -825.98404        38.400  

  22341337.00604 126301293.25214     -2555.30104        38.700  

  22330942.98744 126246676.15344      2997.91044        38.500  

  20739819.45345 117885269.20145      1840.06345        39.200  

  24043824.48504 135247930.65114      2287.66404        38.000  

 06 10 29 01 46  1.0000000  0  9G10G 1G26G22G 6G17G30G21G16                     
  23495434.41004 132366117.50214      3805.93404        38.000  

  19606798.48505 111931201.77615       355.08205        39.700  

  20448557.78105 116354677.06315     -1584.80505        39.200  

  22242777.97704 125783375.03714     -3382.48804        38.700  

  22024002.87044 124633695.64754      -826.89844        38.600  

  22341823.34504 126303849.02614     -2556.01204        38.500  

  22330372.50944 126243678.31944      2997.80144        38.200  

  20739469.40405 117883429.65905      1839.26605        39.100  

  24043389.19344 135245643.19354      2287.37144        37.900  

 06 10 29 01 46  2.0000000  0  9G10G 1G26G22G 6G17G30G21G16                     
  23494710.12544 132362311.30554      3806.51244        37.900  

  19606730.94745 111930846.90755       354.64845        39.700  

  20448859.33445 116356261.88455     -1584.92645        39.100  

  22243421.69344 125786757.68854     -3382.71944        38.500  

  22024160.30244 124634522.87844      -827.27044        38.500  

  22342309.77544 126306405.27454     -2556.23844        38.300  

  22329802.06944 126240680.72744      2997.62144        38.200  

  20739119.44145 117881590.62855      1838.88745        39.200  

  24042954.03444 135243356.30044      2286.60544        37.900  

 06 10 29 01 46  3.0000000  0  9G10G 1G26G22G 6G17G30G21G16                     
  23493985.87004 132358505.17104      3805.96904        38.000  

  19606663.52405 111930492.62305       353.98005        39.600  

  20449160.99005 116357846.97505     -1585.31605        39.100  

  22244065.43304 125790140.54504     -3382.87904        38.400  

  22024317.85044 124635350.80044      -828.30544        38.600  

  22342796.29804 126308961.92704     -2556.98404        38.500  

  22329231.64544 126237683.23644      2997.66044        38.500  

  20738769.57405 117879752.06005      1838.30505        39.000  

  24042518.93504 135241069.85204      2286.19904        37.700  

 06 10 29 01 46  4.0000000  0  9G10G 1G26G22G 6G17G30G21G16                     
  23493261.56104 132354699.06314      3806.24604        38.300  

  19606596.22605 111930138.95415       353.13305        39.900  

  20449462.68845 116359432.34155     -1585.49645        39.100  

  22244709.22504 125793523.65014     -3383.32804        38.700  

  22024475.50444 124636179.36944      -828.93044        38.500  

  22343282.88904 126311518.97114     -2557.11704        38.400  

  22328661.26604 126234685.88804      2997.49204        38.400  

  20738419.79745 117877913.93055      1837.95745        39.100  

  24042083.95904 135238783.88814      2285.66804        38.000  

 06 10 29 01 46  5.0000000  0  9G10G 1G26G22G 6G17G30G21G16                     
  23492537.33004 132350893.14414      3805.92604        37.900  

  19606529.04205 111929785.97315       352.45705        39.500  

  20449764.46205 116361018.11905     -1586.07005        39.300  

  22245353.06444 125796907.10754     -3383.59844        38.200  

  22024633.34604 124637008.74104      -829.70704        38.600  

  22343769.56644 126314076.53754     -2557.71144        38.600  

  22328090.93904 126231688.79314      2996.94904        38.500  

  20738070.11805 117876076.36805      1837.39505        39.200  

  24041649.05504 135236498.48614      2285.08604        37.800  

 06 10 29 01 46  6.0000000  0  9G10G 1G26G22G 6G17G30G21G16                     
  23491813.13304 132347087.38714      3805.69504        38.200  

  19606462.01445 111929433.76355       351.85245        39.700  

  20450066.31005 116362604.33115     -1586.48405        39.300  

  22245997.00444 125800290.94744     -3383.96144        38.600  

  22024791.30604 124637838.94914      -830.56304        38.600  

  22344256.35804 126316634.65204     -2558.24604        38.500  

  22327520.65844 126228691.97754      2996.52744        38.400  

  20737720.57305 117874239.43715      1836.65205        39.300  

  24041214.31704 135234213.69914      2284.81304        37.800  

 06 10 29 01 46  7.0000000  0  9G10G 1G26G22G 6G17G30G21G16                     
  23491088.97904 132343281.91414      3805.24604        38.000  

  19606395.14805 111929082.34505       351.07805        39.800  

  20450368.25845 116364191.00755     -1586.87545        39.200  

  22246641.01004 125803675.23604     -3384.43404        38.400  

  22024949.47704 124638670.04514      -831.59004        38.400  

  22344743.24904 126319193.34914     -2558.96104        38.300  

  22326950.43744 126225695.49144      2996.37144        38.600  

  20737371.14205 117872403.13315      1836.03105        38.900  

  24040779.64604 135231929.64114      2283.60504        37.700  

 06 10 29 01 46  8.0000000  0  9G10G 1G26G22G 6G17G30G21G16                     
  23490364.85544 132339476.64954      3805.16844        38.200  

  19606328.39845 111928731.70255       350.38345        39.600  

  20450670.29845 116365778.14145     -1587.38745        39.300  

  22247285.07744 125807059.93054     -3384.96944        38.700  

  22025107.80044 124639501.96154      -832.10944        38.600  

  22345230.28444 126321752.64454     -2559.68044        38.600  

  22326380.28644 126222699.31044      2996.05144        38.400  

  20737021.80245 117870567.47855      1835.29745        39.000  

  24040345.11944 135229646.18154      2283.14844        37.600  

 06 10 29 01 46  9.0000000  0  9G10G 1G26G22G 6G17G30G21G16                     
  23489640.76004 132335671.55504      3804.95304        37.900  

  19606261.82505 111928381.81505       349.62905        39.700  

  20450972.40305 116367365.70905     -1588.02305        39.100  

  22247929.23604 125810445.00504     -3385.30904        38.300  

  22025266.27004 124640334.74704      -833.21504        38.600  

  22345717.41404 126324312.46804     -2559.82004        38.400  

  22325810.17604 126219703.40104      2995.87104        38.400  

  20736672.59305 117868732.41405      1834.68005        39.400  

  24039910.64904 135227363.35804      2282.32404        38.000  

 06 10 29 01 46 10.0000000  0  9G10G 1G26G22G 6G17G30G21G16                     
  23488916.68604 132331866.64314      3804.90604        38.000  

  19606195.36605 111928032.64115       348.83605        39.600  

  20451274.60405 116368953.67715     -1588.17605        39.600  

  22248573.47604 125813830.44414     -3385.69504        38.500  

  22025424.91104 124641168.31314      -833.98804        38.600  

  22346204.63204 126326872.84414     -2560.60204        38.400  

  22325240.09204 126216707.75614      2995.68404        38.600  

  20736323.47405 117866897.91615      1834.17205        39.100  

  24039476.33904 135225081.12614      2281.66804        37.600  

 06 10 29 01 46 11.0000000  0  9G10G 1G26G22G 6G17G30G21G16                     
  23488192.62504 132328061.78814      3804.92604        37.800  

  19606129.02505 111927684.07115       348.34005        39.700  

  20451576.83445 116370541.94455     -1588.43045        39.400  

  22249217.75204 125817216.13314     -3385.75404        38.500  

  22025583.67804 124642002.57214      -834.44104        38.600  

  22346691.91204 126329433.61314     -2560.68404        38.700  

  22324670.08404 126213712.27314      2995.50404        38.600  

  20735974.48845 117865063.90755      1833.85945        39.100  

  24039042.12504 135222799.36814      2281.27704        38.000  

 06 10 29 01 46 12.0000000  0  9G10G 1G26G22G 6G17G30G21G16                     
  23487468.58844 132324257.00654      3804.68444        38.000  

  19606062.80205 111927336.13215       347.68805        39.600  

  20451879.11645 116372130.50545     -1588.83645        39.200  

  22249862.06504 125820602.05614     -3386.10204        38.400  

  22025742.55704 124642837.51414      -835.19504        38.700  

  22347179.26704 126331994.81614     -2561.51204        38.400  

  22324100.09404 126210716.90814      2995.32404        38.500  

  20735625.58045 117863230.35645      1832.96145        39.100  

  24038608.00304 135220518.10814      2280.92204        37.800  

 06 10 29 01 46 13.0000000  0  9G10G 1G26G22G 6G17G30G21G16                     
  23486744.52344 132320452.21944      3804.87544        38.100  

  19605996.72405 111926988.76915       346.97705        39.600  

  20452181.45845 116373719.31845     -1588.92245        39.300  

  22250506.45804 125823988.22914     -3386.37904        38.300  

  22025901.55804 124643673.13614      -835.91004        38.600  

  22347666.71604 126334556.36914     -2561.61704        38.400  

  22323530.12004 126207721.66614      2995.26604        38.300  

  20735276.72645 117861397.23745      1832.76245        39.100  

  24038173.95744 135218237.27054      2280.75844        37.700  

 06 10 29 01 46 14.0000000  0  9G10G 1G26G22G 6G17G30G21G16                     
  23486020.49744 132316647.53144      3804.37544        38.100  

  19605930.72445 111926641.99255       346.47745        39.600  

  20452483.86145 116375308.42345     -1589.30945        39.200  

  22251150.89644 125827374.61054     -3386.50044        38.500  

  22026060.69944 124644509.43454      -836.75444        38.500  

  22348154.25344 126337118.32954     -2562.11344        38.300  

  22322960.17344 126204726.56554      2994.93844        38.300  

  20734927.96845 117859564.55845      1832.54345        39.000  

  24037740.01644 135215956.95544      2280.14144        37.900  

 06 10 29 01 46 15.0000000  0  9G10G 1G26G22G 6G17G30G21G16                     
  23485296.50744 132312842.96944      3804.42244        37.900  

  19605864.89705 111926295.96705       345.62905        39.700  

  20452786.31905 116376897.92905     -1589.57405        39.200  

  22251795.38504 125830761.35504     -3386.94104        38.200  

  22026219.99504 124645346.51404      -837.18404        38.300  

  22348641.88604 126339680.81104     -2562.78104        38.400  

  22322390.25104 126201731.71304      2994.71104        38.500  

  20734579.34505 117857732.48205      1831.90205        39.000  

  24037306.17204 135213677.19904      2279.58204        37.800  

 06 10 29 01 46 16.0000000  0  9G10G 1G26G22G 6G17G30G21G16                     
  23484572.53844 132309038.52644      3804.26244        38.200  

  19605799.18005 111925950.55515       345.06305        39.700  

  20453088.85005 116378487.76015     -1590.13705        38.900  

  22252439.90104 125834148.39514     -3387.31604        38.600  

  22026379.41404 124646184.32614      -838.02304        38.500  

  22349129.58944 126342243.75254     -2563.12144        38.500  

  22321820.41004 126198737.02714      2994.63704        38.500  

  20734230.80705 117855900.90815      1831.28905        39.200  

  24036872.45104 135211397.96514      2279.14104        37.700  

 06 10 29 01 46 17.0000000  0  9G10G 1G26G22G 6G17G30G21G16                     
  23483848.60644 132305234.22644      3804.20344        38.200  

  19605733.60205 111925605.88815       344.34405        39.500  

  20453391.45805 116380077.98815     -1590.37905        39.200  

  22253084.51404 125837535.77814     -3387.69904        38.200  

  22026538.99504 124647022.95814      -839.13704        38.500  

  22349617.36244 126344807.17044     -2563.46144        38.600  

  22321250.58344 126195742.61054      2994.30144        38.400  

  20733882.36805 117854069.89215      1830.93405        39.100  

  24036438.84704 135209119.32214      2278.52004        37.700  

 06 10 29 01 46 18.0000000  0  9G10G 1G26G22G 6G17G30G21G16                     
  23483124.69004 132301430.02604      3804.09004        38.100  

  19605668.12405 111925261.84715       343.59405        39.700  

  20453694.12845 116381668.54055     -1590.53945        39.200  

  22253729.17704 125840923.43014     -3387.75804        38.600  

  22026698.69704 124647862.29414      -839.72304        38.700  

  22350105.26444 126347371.09044     -2564.43844        38.500  

  22320680.80704 126192748.36404      2994.29704        38.700  

  20733534.02105 117852239.36715      1830.33205        39.200  

  24036005.29944 135206841.22254      2277.72744        37.900  

 06 10 29 01 46 19.0000000  0  9G10G 1G26G22G 6G17G30G21G16                     
  23482400.76104 132297625.90814      3804.12104        38.000  

  19605602.77905 111924918.45615       342.86705        39.600  

  20453996.87645 116383259.39945     -1590.80945        39.300  

  22254373.84904 125844311.36114     -3388.00404        38.300  

  22026858.56104 124648702.34514      -840.56304        38.600  

  22350593.22544 126349935.41244     -2564.62144        38.300  

  22320111.06804 126189754.28414      2993.93004        38.500  

  20733185.77605 117850409.35615      1829.66805        39.200  

  24035571.91544 135204563.60344      2277.29344        38.000  

 06 10 29 01 46 20.0000000  0  9G10G 1G26G22G 6G17G30G21G16                     
  23481676.86544 132293821.83554      3804.01244        38.200  

  19605537.53245 111924575.63755       342.46945        39.800  

  20454299.65345 116384850.57245     -1591.39845        39.000  

  22255018.58744 125847699.54354     -3388.52344        38.400  

  22027018.56544 124649543.06954      -841.21144        38.600  

  22351081.27944 126352500.12744     -2564.91844        38.600  

  22319541.37344 126186760.35054      2993.71544        38.600  

  20732837.62145 117848579.80155      1829.09045        39.100  

  24035138.55444 135202286.46444      2276.95344        38.000  

 06 10 29 01 46 21.0000000  0  9G10G 1G26G22G 6G17G30G21G16                     
  23480953.01604 132290017.96104      3804.24204        38.200  

  19605472.44105 111924233.58305       341.88705        39.600  

  20454602.53305 116386442.13205     -1591.48805        39.200  

  22255663.41344 125851088.09344     -3388.63344        38.500  

  22027178.71004 124650384.60204      -841.68404        38.700  

  22351569.43704 126355065.42304     -2565.67604        38.500  

  22318971.70004 126183766.69104      2993.48804        38.300  

  20732489.58245 117846750.83345      1828.67645        39.100  

  24034705.38144 135200009.95044      2276.06644        38.000  

 06 10 29 01 46 22.0000000  0  9G10G 1G26G22G 6G17G30G21G16                     
  23480229.16204 132286214.14714      3803.60504        37.900  

  19605407.44405 111923892.13915       341.03505        39.600  

  20454905.48105 116388033.99215     -1592.03505        39.100  

  22256308.28044 125854476.87544     -3388.94144        38.200  

  22027338.99204 124651226.85314      -842.55904        38.500  

  22352057.67004 126357631.06014     -2565.84004        38.500  

  22318402.02904 126180773.14914      2993.39504        38.500  

  20732141.63345 117844922.32345      1828.14145        39.100  

  24034272.28744 135197733.88344      2275.94544        38.100  

 06 10 29 01 46 23.0000000  0  9G10G 1G26G22G 6G17G30G21G16                     
  23479505.33604 132282410.48114      3803.37904        37.900  

  19605342.59005 111923551.38115       340.60205        39.600  

  20455208.48205 116389626.25115     -1592.61305        39.300  

  22256953.22544 125857866.03944     -3389.53944        38.700  

  22027499.41404 124652069.89514      -843.69504        38.400  

  22352545.97304 126360197.25914     -2566.66004        38.600  

  22317832.44144 126177779.85654      2993.44144        38.500  

  20731793.76445 117843094.36845      1827.56345        39.100  

  24033839.29204 135195458.44704      2275.14104        38.000  

 06 10 29 01 46 24.0000000  0  9G10G 1G26G22G 6G17G30G21G16                     
  23478781.57804 132278606.99714      3803.58604        38.000  

  19605277.90005 111923211.40015       339.61705        39.600  

  20455511.57905 116391218.94415     -1592.89105        39.300  

  22257598.23044 125861255.55544     -3389.78544        38.400  

  22027659.99204 124652913.73214      -844.36704        38.700  

  22353034.39244 126362763.97654     -2566.93444        38.500  

  22317262.89844 126174786.86844      2992.85244        38.500  

  20731446.03505 117841267.05605      1826.83605        39.200  

  24033406.39804 135193183.59714      2274.61304        37.900  

 06 10 29 01 46 25.0000000  0  9G10G 1G26G22G 6G17G30G21G16                     
  23478057.85304 132274803.68314      3803.40204        37.900  

  19605213.33245 111922872.10255       338.94145        39.700  

  20455814.75105 116392811.99815     -1593.18805        39.300  

  22258243.28644 125864645.41344     -3390.32844        38.500  

  22027820.72504 124653758.36714      -845.05504        38.700  

  22353522.90344 126365331.19544     -2567.58244        38.200  

  22316693.38344 126171794.08844      2992.42244        38.500  

  20731098.42005 117839440.25515      1826.53905        39.100  

  24032973.62004 135190909.33014      2273.92204        37.900  

 06 10 29 01 46 26.0000000  0  9G10G 1G26G22G 6G17G30G21G16                     
  23477334.13744 132271000.47254      3803.17644        38.200  

  19605148.89845 111922533.48845       338.31345        39.600  

  20456117.98245 116394405.42255     -1593.71145        39.200  

  22258888.45144 125868035.56744     -3390.27044        38.500  

  22027981.59644 124654603.74054      -845.62544        38.600  

  22354011.53044 126367898.88844     -2567.79744        38.200  

  22316123.92444 126168801.52444      2992.44544        38.600  

  20730750.88945 117837614.01655      1826.09845        39.000  

  24032540.94244 135188635.60754      2273.51644        37.800  

 06 10 29 01 46 27.0000000  0  9G10G 1G26G22G 6G17G30G21G16                     
  23476610.43504 132267197.36104      3803.13704        38.300  

  19605084.57345 111922195.50345       337.50845        39.800  

  20456421.22805 116395999.14705     -1594.00805        39.300  

  22259533.64004 125871426.00604     -3390.46904        38.400  

  22028142.60304 124655449.82804      -846.30104        38.600  

  22354500.23444 126370467.02944     -2568.33244        38.600  

  22315554.47644 126165809.13144      2992.28144        38.500  

  20730403.46405 117835788.24305      1825.39505        38.900  

  24032108.35404 135186362.39404      2273.08604        37.800  

 06 10 29 01 46 28.0000000  0  9G10G 1G26G22G 6G17G30G21G16                     
  23475886.73504 132263394.35914      3802.87904        38.000  

  19605020.37345 111921858.16545       337.13345        39.700  

  20456724.57305 116397593.22915     -1594.36305        39.300  

  22260178.88744 125874816.73454     -3390.79744        38.500  

  22028303.76004 124656296.68714      -847.44904        38.500  

  22354989.00904 126373035.61604     -2568.96504        38.500  

  22314985.06404 126162816.91504      2992.08204        38.700  

  20730056.11905 117833963.00215      1824.95705        39.100  

  24031675.87244 135184089.72654      2272.20344        38.000  

 06 10 29 01 46 29.0000000  0  9G10G 1G26G22G 6G17G30G21G16                     
  23475163.05304 132259591.52614      3802.85904        38.000  

  19604956.34705 111921521.59505       336.26205        39.400  

  20457028.01205 116399187.72015     -1594.58205        39.400  

  22260824.19944 125878207.85544     -3391.16844        38.600  

  22028465.07504 124657144.33814      -848.16404        38.600  

  22355477.89944 126375604.73654     -2569.44544        38.300  

  22314415.73004 126159824.99714      2991.80504        38.500  

  20729708.91805 117832138.35415      1824.45305        39.100  

  24031243.53004 135181817.63804      2272.07004        38.000  

 06 10 29 01 46 30.0000000  0  9G10G 1G26G22G 6G17G30G21G16                     
  23474439.45404 132255788.87514      3802.88704        38.300  

  19604892.42305 111921185.71615       335.64105        39.700  

  20457331.50545 116400782.59955     -1594.87945        39.200  

  22261469.56144 125881599.31744     -3391.73044        38.600  

  22028626.51004 124657992.76214      -848.54704        38.500  

  22355966.89644 126378174.36444     -2569.55144        38.500  

  22313846.42204 126156833.30614      2991.56304        38.500  

  20729361.80245 117830314.27655      1824.03545        39.000  

  24030811.31144 135179546.16354      2271.41844        37.900  

 06 10 29 01 46 31.0000000  0  9G10G 1G26G22G 6G17G30G21G16                     
  23473715.84204 132251986.28414      3802.73404        37.900  

  19604828.62305 111920850.46315       335.00005        39.600  

  20457635.05605 116402377.77705     -1595.13705        39.200  

  22262114.96844 125884991.00144     -3391.66844        38.400  

  22028788.08544 124658841.91854      -849.51644        38.700  

  22356455.95244 126380744.40844     -2570.16044        38.700  

  22313277.11904 126153841.78214      2991.39504        38.300  

  20729014.78645 117828490.66245      1823.39545        39.000  

  24030379.13204 135177275.18604      2270.75004        37.700  

 06 10 29 01 46 32.0000000  0  9G10G 1G26G22G 6G17G30G21G16                     
  23472992.25344 132248183.81254      3802.25044        37.800  

  19604764.97245 111920515.88255       334.08645        39.400  

  20457938.67945 116403973.34955     -1595.85545        39.400  

  22262760.47944 125888383.03544     -3392.09044        38.600  

  22028949.81644 124659691.80844      -850.28544        38.800  

  22356945.08044 126383314.93744     -2570.71944        38.600  

  22312707.88744 126150850.44454      2991.30544        38.500  

  20728667.88545 117826667.59345      1822.54745        39.100  

  24029947.08144 135175004.73454      2270.23844        37.900  

 06 10 29 01 46 33.0000000  0  9G10G 1G26G22G 6G17G30G21G16                     
  23472268.70804 132244381.56304      3802.22704        38.200  

  19604701.44905 111920182.06205       333.32005        39.600  

  20458242.36045 116405569.32145     -1596.23845        39.300  

  22263406.04304 125891775.45904     -3392.54304        38.500  

  22029111.69804 124660542.53504      -850.96104        38.600  

  22357434.34804 126385886.02104     -2571.32004        38.500  

  22312138.73804 126147859.42704      2990.93004        38.500  

  20728321.08505 117824845.13605      1822.25005        39.300  

  24029515.16604 135172734.93604      2269.52004        37.900  

 06 10 29 01 46 34.0000000  0  9G10G 1G26G22G 6G17G30G21G16                     
  23471545.19444 132240579.43554      3802.07844        38.100  

  19604638.04605 111919848.91515       332.78905        39.700  

  20458546.15705 116407165.67605     -1596.54305        39.400  

  22264051.64604 125895168.17514     -3392.67604        38.400  

  22029273.74004 124661394.03714      -851.83604        38.600  

  22357923.71604 126388457.58114     -2571.91004        38.400  

  22311569.62004 126144868.60514      2990.68004        38.400  

  20727974.37305 117823023.21515      1821.58605        39.100  

  24029083.34604 135170465.66414      2269.46104        38.000  

 06 10 29 01 46 35.0000000  0  9G10G 1G26G22G 6G17G30G21G16                     
  23470821.68144 132236777.46644      3801.86744        38.000  

  19604574.78705 111919516.48615       332.03905        39.600  

  20458850.00145 116408762.40955     -1596.94945        39.400  

  22264697.31304 125898561.27014     -3393.40604        38.500  

  22029435.92504 124662246.31214      -852.59004        38.400  

  22358413.17204 126391029.65414     -2572.53904        38.600  

  22311000.54644 126141878.04754      2990.31344        38.500  

  20727627.78105 117821201.84615      1821.16005        39.200  

  24028651.62604 135168197.00014      2268.20704        37.900  

 06 10 29 01 46 36.0000000  0  9G10G 1G26G22G 6G17G30G21G16                     
  23470098.19004 132232975.60304      3801.67604        37.900  

  19604511.64845 111919184.72055       331.42645        39.500  

  20459153.90645 116410359.50245     -1597.43045        39.300  

  22265343.06204 125901954.64214     -3393.55904        38.600  

  22029598.27204 124663099.34114      -853.48004        38.600  

  22358902.69304 126393602.16514     -2572.64104        38.600  

  22310431.53044 126138887.65744      2990.37144        38.600  

  20727281.28005 117819381.01815      1820.63705        39.200  

  24028220.01704 135165928.88614      2268.04304        37.900  

 06 10 29 01 46 37.0000000  0  9G10G 1G26G22G 6G17G30G21G16                     
  23469374.76944 132229173.84854      3801.49244        38.000  

  19604448.63705 111918853.58505       330.65605        39.600  

  20459457.88845 116411956.87845     -1597.42645        39.200  

  22265988.84404 125905348.27614     -3393.68404        38.600  

  22029760.72744 124663953.06754      -854.09844        38.700  

  22359392.30304 126396175.12114     -2572.99604        38.400  

  22309862.52104 126135897.43904      2990.19504        38.400  

  20726934.89005 117817560.67415      1820.10205        39.100  

  24027788.53204 135163661.25214      2267.40604        38.200  

 06 10 29 01 46 38.0000000  0  9G10G 1G26G22G 6G17G30G21G16                     
  23468651.29444 132225372.06844      3801.59444        38.000  

  19604385.71705 111918523.02315       330.02005        39.800  

  20459761.89245 116413554.50245     -1597.93445        39.300  

  22266634.66604 125908742.10714     -3393.76204        38.200  

  22029923.30844 124664807.45744      -854.90644        38.500  

  22359881.97104 126398748.43814     -2573.66004        38.500  

  22309293.51204 126132907.34714      2989.78504        38.300  

  20726588.53905 117815740.73315      1819.82005        38.900  

  24027357.10304 135161394.07814      2266.84404        37.900  

 06 10 29 01 46 39.0000000  0  9G10G 1G26G22G 6G17G30G21G16                     
  23467927.87544 132221570.44644      3801.54744        38.300  

  19604322.93005 111918193.15215       329.41405        39.700  

  20460065.97405 116415152.52205     -1598.10905        39.100  

  22267280.56604 125912136.30514     -3394.44104        38.500  

  22030086.03044 124665662.60644      -855.68044        38.500  

  22360371.74204 126401322.26214     -2574.16804        38.600  

  22308724.55404 126129917.44914      2989.74604        38.300  

  20726242.33305 117813921.37515      1818.89505        39.000  

  24026925.78844 135159127.45654      2266.45344        38.000  

 06 10 29 01 46 40.0000000  0  9G10G 1G26G22G 6G17G30G21G16                     
  23467204.46744 132217768.99544      3801.47344        38.100  

  19604260.28305 111917863.98515       328.55905        39.500  

  20460370.13905 116416750.93015     -1598.65605        39.400  

  22267926.52004 125915530.81214     -3394.78904        38.600  

  22030248.93144 124666518.54144      -856.35544        38.700  

  22360861.61504 126403896.58014     -2574.49604        38.700  

  22308155.67704 126126927.83314      2989.37904        38.500  

  20725896.21705 117812102.57015      1818.54705        39.100  

  24026494.58004 135156861.44004      2265.64104        37.800  

 06 10 29 01 46 41.0000000  0  9G10G 1G26G22G 6G17G30G21G16                     
  23466481.07344 132213967.71844      3801.01244        38.000  

  19604197.78105 111917535.52815       328.07805        39.800  

  20460674.38645 116418349.72555     -1599.00445        39.300  

  22268572.56904 125918925.67914     -3395.11704        38.600  

  22030411.98244 124667375.27344      -857.04344        38.600  

  22361351.61004 126406471.39114     -2575.00004        38.400  

  22307586.81804 126123938.43914      2989.32004        38.300  

  20725550.21545 117810284.33155      1818.10945        39.100  

  24026063.48404 135154595.99114      2265.24604        37.900  

 06 10 29 01 46 42.0000000  0  9G10G 1G26G22G 6G17G30G21G16                     
  23465757.74244 132210166.54644      3801.19944        38.000  

  19604135.40905 111917207.74115       327.45305        39.500  

  20460978.69505 116419948.87905     -1599.42205        39.300  

  22269218.64604 125922320.84114     -3395.31604        38.400  

  22030575.15944 124668232.74844      -857.73444        38.600  

  22361841.65504 126409046.68814     -2575.38704        38.500  

  22307017.98004 126120949.24814      2989.15604        38.500  

  20725204.31505 117808466.63605      1817.50805        39.000  

  24025632.51204 135152331.10414      2264.70304        38.000  

 06 10 29 01 46 43.0000000  0  9G10G 1G26G22G 6G17G30G21G16                     
  23465034.42204 132206365.49504      3801.07804        38.000  

  19604073.16505 111916880.61115       326.82005        39.600  

  20461283.08505 116421548.37615     -1599.78905        39.100  

  22269864.80044 125925716.30454     -3395.43844        38.500  

  22030738.46704 124669090.96904      -858.68804        38.600  

  22362331.80604 126411622.43214     -2575.82804        38.600  

  22306449.18904 126117960.25914      2989.10904        38.300  

  20724858.49305 117806649.44115      1816.90605        39.100  

  24025201.60404 135150066.73414      2264.15604        37.900  

 06 10 29 01 46 44.0000000  0  9G10G 1G26G22G 6G17G30G21G16                     
  23464311.11544 132202564.47554      3800.78944        38.100  

  19604011.01645 111916554.04955       326.31645        39.700  

  20461587.51245 116423148.11555     -1600.07445        39.100  

  22270510.98944 125929111.97444     -3395.82044        38.600  

  22030901.90044 124669949.84254      -859.37144        38.600  

  22362822.03744 126414198.55454     -2576.35544        38.600  

  22305880.41844 126114971.37854      2988.81644        38.400  

  20724512.77645 117804832.68155      1816.66445        38.900  

  24024770.77344 135147802.80354      2263.59844        37.800  

 06 10 29 01 46 45.0000000  0  9G10G 1G26G22G 6G17G30G21G16                     
  23463587.82904 132198763.55204      3800.95304        37.900  

  19603949.02505 111916228.18905       325.48005        39.600  

  20461891.99805 116424748.19505     -1600.00805        39.000  

  22271157.20604 125932507.94804     -3396.05104        38.700  

  22031065.47644 124670809.44944      -859.91444        38.600  

  22363312.34404 126416775.14204     -2576.76204        38.600  

  22305311.67104 126111982.69904      2988.61304        38.300  

  20724167.15605 117803016.46005      1815.94505        39.000  

  24024340.03344 135145539.45144      2263.04344        37.800  

 06 10 29 01 46 46.0000000  0  9G10G 1G26G22G 6G17G30G21G16                     
  23462864.51004 132194962.56414      3800.68804        38.100  

  19603887.09605 111915902.75115       325.10205        39.600  

  20462196.52705 116426348.44115     -1600.32405        39.300  

  22271803.43344 125935904.02954     -3396.18444        38.500  

  22031229.16004 124671669.61804      -860.64504        38.500  

  22363802.70304 126419351.97014     -2577.22304        38.500  

  22304742.93744 126108994.01754      2988.55544        38.400  

  20723821.57305 117801200.53915      1815.57405        39.000  

  24023909.38244 135143276.41744      2262.82844        38.000  

 06 10 29 01 46 47.0000000  0  9G10G 1G26G22G 6G17G30G21G16                     
  23462141.26704 132191161.90814      3800.30904        38.000  

  19603825.33705 111915578.23715       323.97305        39.600  

  20462501.14905 116427949.25815     -1601.28105        39.000  

  22272449.79944 125939300.62544     -3396.92644        38.600  

  22031393.01204 124672530.73814      -861.72704        38.700  

  22364293.19244 126421929.50454     -2577.80144        38.600  

  22304174.27344 126106005.75444      2988.25044        38.300  

  20723476.15005 117799385.37315      1814.89105        39.000  

  24023478.88744 135141014.15644      2261.70344        37.900  

 06 10 29 01 46 48.0000000  0  9G10G 1G26G22G 6G17G30G21G16                     
  23461418.10104 132187361.51114      3800.37104        38.200  

  19603763.72905 111915254.54515       323.28505        39.700  

  20462805.86605 116429550.57815     -1601.46905        39.300  

  22273096.23044 125942697.70844     -3397.33644        38.200  

  22031557.05404 124673392.78714      -862.33204        38.800  

  22364783.80344 126424507.67244     -2578.34044        38.500  

  22303605.67544 126103017.88844      2987.69944        38.600  

  20723130.87605 117797570.91315      1814.14505        39.200  

  24023048.51344 135138752.60944      2261.31644        37.600  

 06 10 29 01 46 49.0000000  0  9G10G 1G26G22G 6G17G30G21G16                     
  23460694.91904 132183561.27714      3800.05504        37.900  

  19603702.24705 111914931.52515       322.55505        39.700  

  20463110.66705 116431152.25715     -1601.58205        39.200  

  22273742.73944 125946095.07444     -3397.71144        38.200  

  22031721.21004 124674255.57714      -863.28104        38.500  

  22365274.50444 126427086.29844     -2578.72344        38.500  

  22303037.14144 126100030.18844      2987.76244        38.300  

  20722785.68805 117795756.96415      1813.51605        39.000  

  24022618.23244 135136491.57444      2261.00844        38.000  

 06 10 29 01 46 50.0000000  0  9G10G 1G26G22G 6G17G30G21G16                     
  23459971.78444 132179761.25554      3799.93844        38.100  

  19603640.93445 111914609.27855       321.78145        39.600  

  20463415.53045 116432754.39355     -1602.46545        39.400  

  22274389.31444 125949492.84244     -3397.94944        38.500  

  22031885.58444 124675119.21254      -863.89844        38.300  

  22365765.31544 126429665.50344     -2579.78144        38.300  

  22302468.63344 126097042.82444      2987.26244        38.500  

  20722440.62445 117793943.65555      1813.01645        39.100  

  24022188.09144 135134231.25344      2260.08644        37.900  

 06 10 29 01 46 51.0000000  0  9G10G 1G26G22G 6G17G30G21G16                     
  23459248.73644 132175961.54244      3799.59844        38.100  

  19603579.78305 111914287.88605       321.16405        39.800  

  20463720.51345 116434357.05145     -1602.75445        39.300  

  22275035.97304 125952891.11904     -3397.97304        38.300  

  22032050.13544 124675983.79244      -864.84444        38.600  

  22366256.22844 126432245.34844     -2579.96944        38.600  

  22301900.20844 126094055.86344      2986.75444        38.400  

  20722095.69505 117792131.05705      1812.29705        39.100  

  24021758.09004 135131971.63104      2259.54304        37.700  

 06 10 29 01 46 52.0000000  0  9G10G 1G26G22G 6G17G30G21G16                     
  23458525.70804 132172161.98504      3799.56604        38.100  

  19603518.76505 111913967.16415       320.60905        39.700  

  20464025.56445 116435960.10045     -1602.95345        39.100  

  22275682.74304 125956289.73814     -3398.64104        38.700  

  22032214.82204 124676849.15904      -865.83204        38.700  

  22366747.26104 126434825.69004     -2580.49204        38.600  

  22301331.82244 126091069.09644      2986.78544        38.400  

  20721750.88605 117790319.02415      1811.91405        39.300  

  24021328.19904 135129712.57214      2258.78904        37.900  

 06 10 29 01 46 53.0000000  0  9G10G 1G26G22G 6G17G30G21G16                     
  23457802.65804 132168362.36314      3799.59404        38.000  

  19603457.85305 111913646.99215       319.76205        39.700  

  20464330.67705 116437563.32505     -1603.52305        39.300  

  22276329.48044 125959688.45054     -3398.75044        38.800  

  22032379.60104 124677715.07314      -866.32404        38.700  

  22367238.34104 126437406.31514     -2580.67204        38.500  

  22300763.49804 126088082.37704      2986.60904        38.600  

  20721406.14005 117788507.33915      1811.48805        39.100  

  24020898.40604 135127453.87514      2258.21904        37.900  

 06 10 29 01 46 54.0000000  0  9G10G 1G26G22G 6G17G30G21G16                     
  23457079.60404 132164562.77014      3799.38304        38.100  

  19603397.04405 111913327.36215       319.54705        39.600  

  20464635.81605 116439166.80215     -1603.68005        39.000  

  22276976.28004 125963087.40104     -3399.04304        38.600  

  22032544.52804 124678581.64414      -866.85904        38.600  

  22367729.49204 126439987.31914     -2580.90604        38.300  

  22300195.15804 126085095.77814      2986.45304        38.500  

  20721061.45205 117786696.07915      1811.20305        39.200  

  24020468.69204 135125195.66214      2257.93004        37.800  

 06 10 29 01 46 55.0000000  0  9G10G 1G26G22G 6G17G30G21G16                     
  23456356.56044 132160763.31554      3799.28144        38.200  

  19603336.35005 111913008.41215       318.64505        39.700  

  20464941.01405 116440770.64215     -1604.02005        39.300  

  22277623.13704 125966486.66314     -3399.53504        38.600  

  22032709.56704 124679448.99614      -867.82804        38.700  

  22368220.70304 126442568.82614     -2582.08204        38.500  

  22299626.87844 126082109.38254      2986.23844        38.700  

  20720716.88905 117784885.39015      1810.28105        39.300  

  24020039.06504 135122937.98614      2257.53504        37.800  

 06 10 29 01 46 56.0000000  0  9G10G 1G26G22G 6G17G30G21G16                     
  23455633.55444 132156963.91444      3799.41844        37.900  

  19603275.78045 111912690.08155       318.28145        39.800  

  20465246.26445 116442374.76255     -1603.93045        39.300  

  22278270.05944 125969886.16354     -3399.56344        38.500  

  22032874.76844 124680317.02954      -868.37544        38.700  

  22368712.01144 126445150.69054     -2582.04744        38.600  

  22299058.63144 126079123.12344      2986.43444        38.600  

  20720372.38745 117783075.12355      1810.10545        39.100  

  24019609.53444 135120680.80654      2257.00844        38.000  

 06 10 29 01 46 57.0000000  0  9G10G 1G26G22G 6G17G30G21G16                     
  23454910.56144 132153164.67644      3799.08244        38.000  

  19603215.33705 111912372.45305       317.24205        39.800  

  20465551.59605 116443979.28605     -1604.74605        39.300  

  22278917.03004 125973285.99204     -3400.18404        38.400  

  22033040.09944 124681185.81144      -869.05944        38.600  

  22369203.44604 126447733.06704     -2582.59804        38.600  

  22298490.42644 126076137.11344      2986.00044        38.500  

  20720028.00505 117781265.44405      1809.42205        39.200  

  24019180.11044 135118424.18744      2256.42244        37.900  

 06 10 29 01 46 58.0000000  0  9G10G 1G26G22G 6G17G30G21G16                     
  23454187.60304 132149365.55004      3798.98004        38.100  

  19603155.00205 111912055.49715       316.55905        39.800  

  20465856.99105 116445584.13315     -1605.02705        39.200  

  22279564.05904 125976686.14314     -3400.28504        38.600  

  22033205.59244 124682055.38844      -869.88344        38.700  

  22369694.94004 126450315.92214     -2583.05504        38.600  

  22297922.26404 126073151.31204      2985.80104        38.400  

  20719683.73005 117779456.31215      1808.80105        39.200  

  24018750.79144 135116168.14344      2255.64144        38.000  

 06 10 29 01 46 59.0000000  0  9G10G 1G26G22G 6G17G30G21G16                     
  23453464.67904 132145566.45514      3798.91004        38.100  

  19603094.80045 111911739.10855       316.17645        39.600  

  20466162.44505 116447189.26415     -1605.19505        39.000  

  22280211.13304 125980086.49214     -3400.53104        38.400  

  22033371.15304 124682925.58404      -870.27004        38.600  

  22370186.52904 126452899.15014     -2583.68404        38.400  

  22297354.08604 126070165.61914      2985.68804        38.700  

  20719339.53005 117777647.59415      1808.34005        39.400  

  24018321.58104 135113912.52304      2255.41004        38.000  

 06 10 29 01 47  0.0000000  0  9G10G 1G26G22G 6G17G30G21G16                     
  23452741.76804 132141767.45614      3799.18004        38.000  

  19603034.68805 111911423.36905       315.25405        39.700  

  20466467.95905 116448794.69315     -1605.59005        39.300  

  22280858.23704 125983487.10214     -3400.60504        38.200  

  22033536.89804 124683796.52014      -871.29304        38.600  

  22370678.15604 126455482.80714     -2584.33204        38.600  

  22296785.95904 126067180.11414      2985.30904        38.700  

  20718995.43905 117775839.34915      1807.99205        39.200  

  24017892.47104 135111657.42914      2254.93404        38.000  

 06 10 29 01 47  1.0000000  0  9G10G 1G26G22G 6G17G30G21G16                     
  23452018.85644 132137968.58754      3798.86344        38.000  

  19602974.72645 111911108.28455       314.73845        39.700  

  20466773.51605 116450400.48815     -1605.77705        39.100  

  22281505.42404 125986888.04714     -3401.21104        38.700  

  22033702.76104 124684668.19414      -871.87104        38.300  

  22371169.90704 126458066.92614     -2584.53504        38.200  

  22296217.85804 126064194.78814      2985.37104        38.500  

  20718651.46105 117774031.69715      1807.34405        39.100  

  24017463.43104 135109402.89414      2254.22304        37.700  

 06 10 29 01 47  2.0000000  0  9G10G 1G26G22G 6G17G30G21G16                     
  23451296.01544 132134169.90044      3798.33644        38.100  

  19602914.89945 111910793.93145       313.96545        39.700  

  20467079.18805 116452006.69015     -1606.38305        39.300  

  22282152.63804 125990289.32514     -3401.69504        38.600  

  22033868.77344 124685540.67454      -873.12144        38.600  

  22371661.72604 126460651.53514     -2584.83604        38.500  

  22295649.82304 126061209.74214      2984.85504        38.700  

  20718307.57845 117772224.57055      1806.95345        39.000  

  24017034.50904 135107148.95314      2253.73004        37.800  

 06 10 29 01 47  3.0000000  0  9G10G 1G26G22G 6G17G30G21G16                     
  23450573.20844 132130371.35144      3798.23844        38.400  

  19602855.22645 111910480.25845       313.37545        39.800  

  20467384.89845 116453613.24155     -1606.82845        39.300  

  22282799.94344 125993690.91854     -3401.78144        38.500  

  22034034.94144 124686413.92344      -873.76244        38.400  

  22372153.67504 126463236.66314     -2585.55504        38.500  

  22295081.82744 126058224.89954      2984.73444        38.500  

  20717963.78845 117770418.00945      1806.31345        39.100  

  24016605.70104 135104895.57014      2252.91004        37.600  

 06 10 29 01 47  4.0000000  0  9G10G 1G26G22G 6G17G30G21G16                     
  23449850.42644 132126573.01744      3798.31644        38.000  

  19602795.70545 111910167.39745       312.40245        39.700  

  20467690.71645 116455220.27245     -1607.24645        39.300  

  22283447.30604 125997092.94904     -3402.31604        38.500  

  22034201.27944 124687288.01644      -874.33244        38.500  

  22372645.70704 126465822.35414     -2586.07004        38.600  

  22294513.90204 126055240.39704      2984.38704        38.600  

  20717620.12945 117768612.09945      1805.70345        39.200  

  24016177.03504 135102642.85014      2252.45304        38.100  

 06 10 29 01 47  5.0000000  0  9G10G 1G26G22G 6G17G30G21G16                     
  23449127.63544 132122774.73644      3798.39844        38.200  

  19602736.26945 111909855.10345       311.86345        39.700  

  20467996.57245 116456827.56745     -1607.41445        39.300  

  22284094.72204 126000495.19514     -3402.34804        38.500  

  22034367.73944 124688162.79844      -874.96544        38.600  

  22373137.80704 126468408.44714     -2586.31604        38.400  

  22293945.97904 126052256.00614      2984.33204        38.500  

  20717276.58145 117766806.62845      1805.30545        39.400  

  24015748.43304 135100390.60614      2251.75804        38.000  

 06 10 29 01 47  6.0000000  0  9G10G 1G26G22G 6G17G30G21G16                     
  23448404.87344 132118976.60144      3797.94144        38.200  

  19602676.97845 111909543.46045       311.41445        39.600  

  20468302.49645 116458435.19845     -1607.87145        39.400  

  22284742.21504 126003897.73314     -3402.68804        38.700  

  22034534.33444 124689038.31644      -875.94944        38.600  

  22373629.98404 126470994.96714     -2586.68804        38.500  

  22293378.14044 126049271.82154      2984.08244        38.700  

  20716933.10945 117765001.68745      1804.71145        39.000  

  24015319.94504 135098138.90614      2251.21504        38.000  

 06 10 29 01 47  7.0000000  0  9G10G 1G26G22G 6G17G30G21G16                     
  23447682.15704 132115178.70204      3797.87104        38.100  

  19602617.83305 111909232.65605       310.47705        39.600  

  20468608.52945 116460043.33845     -1608.28145        39.100  

  22285389.76104 126007300.72214     -3403.31604        38.500  

  22034701.10444 124689914.72144      -876.81344        38.700  

  22374122.32444 126473582.11954     -2587.37144        38.800  

  22292810.32704 126046287.98404      2983.95304        38.500  

  20716589.76245 117763197.42145      1804.22745        39.200  

  24014891.58504 135095887.86814      2250.69904        38.000  

 06 10 29 01 47  8.0000000  0  9G10G 1G26G22G 6G17G30G21G16                     
  23446959.50044 132111381.04054      3797.56344        38.000  

  19602558.81745 111908922.60955       309.70345        39.600  

  20468914.62745 116461651.92545     -1608.94945        39.300  

  22286037.41844 126010704.13154     -3403.83244        38.500  

  22034868.04444 124690791.97444      -877.66844        38.700  

  22374614.73944 126476169.82844     -2588.06344        38.300  

  22292242.57644 126043304.45654      2983.32044        38.400  

  20716246.56045 117761393.77545      1803.52045        39.000  

  24014463.37844 135093637.50754      2249.99644        38.000  

 06 10 29 01 47  9.0000000  0  9G10G 1G26G22G 6G17G30G21G16                     
  23446236.83204 132107583.55804      3797.27704        38.300  

  19602499.95605 111908613.27505       309.13305        39.800  

  20469220.80505 116463260.90205     -1609.23805        39.000  

  22286685.12444 126014107.85244     -3403.85244        38.600  

  22035035.12804 124691670.02704      -878.40204        38.700  

  22375107.28344 126478758.04644     -2588.51244        38.400  

  22291674.85204 126040321.15804      2983.32804        38.700  

  20715903.44105 117759590.70405      1803.00005        39.300  

  24014035.25504 135091387.72704      2249.46104        37.900  

 06 10 29 01 47 10.0000000  0  9G10G 1G26G22G 6G17G30G21G16                     
  23445514.22904 132103786.16714      3797.38304        38.100  

  19602441.23405 111908304.61115       308.38705        39.700  

  20469527.06705 116464870.23015     -1609.57805        39.200  

  22287332.89944 126017511.86744     -3403.88344        38.300  

  22035202.36004 124692548.81014      -879.26604        38.600  

  22375599.87304 126481346.72004     -2588.93804        38.600  

  22291107.21004 126037338.07714      2983.02004        38.400  

  20715560.42905 117757788.14915      1802.48805        39.200  

  24013607.21144 135089138.48754      2248.74644        37.800  

 06 10 29 01 47 11.0000000  0  9G10G 1G26G22G 6G17G30G21G16                     
  23444791.63444 132099988.78954      3797.36744        38.100  

  19602382.59005 111907996.47115       307.99205        39.500  

  20469833.36705 116466479.77815     -1609.41405        39.100  

  22287980.69444 126020916.08844     -3404.24244        38.400  

  22035369.69804 124693428.21814      -879.55104        38.600  

  22376092.50544 126483935.71354     -2588.89144        38.500  

  22290539.55344 126034355.08554      2982.90244        38.600  

  20715217.50105 117755986.02015      1802.25405        39.100  

  24013179.27044 135086889.68744      2248.35544        37.800  

 06 10 29 01 47 12.0000000  0  9G10G 1G26G22G 6G17G30G21G16                     
  23444069.00404 132096191.35104      3797.52704        38.300  

  19602324.04905 111907688.85015       307.31305        39.700  

  20470139.70405 116468089.49315     -1609.79705        39.300  

  22288628.51044 126024320.43144     -3404.49244        38.500  

  22035537.18744 124694308.19454      -880.17244        38.700  

  22376585.24144 126486525.01544     -2589.43444        38.300  

  22289971.89944 126031372.09544      2983.08244        38.600  

  20714874.63305 117754184.21815      1801.77705        39.100  

  24012751.40344 135084641.21944      2248.16044        38.100  

 06 10 29 01 47 13.0000000  0  9G10G 1G26G22G 6G17G30G21G16                     
  23443346.39404 132092393.95414      3797.37104        38.200  

  19602265.62945 111907381.80955       306.79345        39.600  

  20470446.08005 116469699.47615     -1610.06605        39.100  

  22289276.35944 126027724.99744     -3404.97344        38.400  

  22035704.77544 124695188.85344      -881.01244        38.500  

  22377078.03444 126489114.69344     -2589.78944        38.600  

  22289404.32044 126028389.26144      2982.77344        38.700  

  20714531.86245 117752382.90755      1801.09845        39.000  

  24012323.63244 135082393.24344      2247.58644        37.800  

 06 10 29 01 47 14.0000000  0  9G10G 1G26G22G 6G17G30G21G16                     
  23442623.80044 132088596.68754      3797.32044        37.900  

  19602207.31845 111907075.42345       306.07045        39.600  

  20470752.51345 116471309.81255     -1610.62145        39.300  

  22289924.27144 126031129.84344     -3405.00044        38.500  

  22035872.47644 124696070.22044      -881.50444        38.400  

  22377570.90644 126491704.82744     -2590.26244        38.400  

  22288836.75644 126025406.59444      2982.77044        38.600  

  20714189.18245 117750582.09345      1800.59845        39.000  

  24011895.99144 135080145.83144      2247.04744        37.800  

 06 10 29 01 47 15.0000000  0  9G10G 1G26G22G 6G17G30G21G16                     
  23441901.23904 132084799.53604      3797.16004        38.100  

  19602149.16105 111906769.70605       305.61305        39.600  

  20471059.01305 116472920.49705     -1611.08205        39.000  

  22290572.26804 126034534.99204     -3405.38304        38.400  

  22036040.35704 124696952.36004      -882.51604        38.600  

  22378063.87644 126494295.41244     -2590.78944        38.300  

  22288269.21044 126022424.14844      2982.39544        38.600  

  20713846.61345 117748781.80445      1800.12945        39.400  

  24011468.43104 135077898.92404      2246.52004        37.900  

 06 10 29 01 47 16.0000000  0  9G10G 1G26G22G 6G17G30G21G16                     
  23441178.71504 132081002.58814      3796.70704        38.300  

  19602091.13805 111906464.73615       304.57005        39.600  

  20471365.58005 116474531.59015     -1611.40605        39.200  

  22291220.32904 126037940.50814     -3405.56304        38.300  

  22036208.37644 124697835.31854      -883.37544        38.800  

  22378556.94404 126496886.53604     -2591.41804        38.700  

  22287701.73904 126019441.98504      2982.02704        38.400  

  20713504.12705 117746982.11005      1799.23805        39.300  

  24011041.02704 135075652.65114      2245.76604        37.900  

 06 10 29 01 47 17.0000000  0  9G10G 1G26G22G 6G17G30G21G16                     
  23440456.22604 132077205.90714      3796.26204        38.300  

  19602033.22205 111906160.56715       303.85505        39.700  

  20471672.24645 116476143.17655     -1611.76645        39.300  

  22291868.48104 126041346.49614     -3406.34004        38.600  

  22036376.57004 124698719.14904      -884.19904        38.600  

  22379050.13644 126499478.28054     -2591.87544        38.500  

  22287134.32404 126016460.16814      2981.55104        38.500  

  20713161.79005 117745183.10015      1798.60905        39.100  

  24010613.69904 135073407.07114      2245.41004        37.700  

 06 10 29 01 47 18.0000000  0  9G10G 1G26G22G 6G17G30G21G16                     
  23439733.78844 132073409.45954      3796.25444        38.200  

  19601975.47605 111905857.20515       302.96505        39.500  

  20471979.00345 116477755.24045     -1612.34845        39.300  

  22292516.68844 126044752.87854     -3406.41044        38.500  

  22036544.92704 124699603.87314      -885.28104        38.500  

  22379543.41904 126502070.58004     -2592.34004        38.500  

  22286566.94404 126013478.66114      2981.41804        38.600  

  20712819.56505 117743384.76015      1797.93405        38.900  

  24010186.49004 135071162.14514      2244.68004        37.500  

 06 10 29 01 47 19.0000000  0  9G10G 1G26G22G 6G17G30G21G16                     
  23439011.37744 132069613.16844      3796.62944        38.100  

  19601917.89105 111905554.53415       302.37905        39.600  

  20472285.84505 116479367.70305     -1612.59405        39.000  

  22293164.98304 126048159.61004     -3406.77304        38.200  

  22036713.44104 124700489.36714      -886.09004        38.600  

  22380036.81604 126504663.40214     -2593.11704        38.500  

  22285999.64104 126010497.40914      2981.13304        38.500  

  20712477.44445 117741586.95155      1797.25445        39.000  

  24009759.40104 135068917.82014      2243.96104        37.900  

 06 10 29 01 47 20.0000000  0  9G10G 1G26G22G 6G17G30G21G16                     
  23438288.96444 132065816.98744      3796.09044        38.100  

  19601860.42845 111905252.52055       301.66445        39.600  

  20472592.74045 116480980.45755     -1612.71945        39.100  

  22293813.31744 126051566.61854     -3407.12944        38.500  

  22036882.09144 124701375.57754      -886.76644        38.700  

  22380530.30244 126507256.65554     -2593.29344        38.300  

  22285432.35944 126007516.34454      2980.80544        38.400  

  20712135.44745 117739789.66345      1797.05945        39.100  

  24009332.41944 135066674.02354      2243.44544        37.900  

 06 10 29 01 47 21.0000000  0  9G10G 1G26G22G 6G17G30G21G16                     
  23437566.60104 132062020.94504      3796.12104        38.000  

  19601803.08505 111904951.18005       301.00805        39.700  

  20472899.71305 116482593.59705     -1613.14805        39.200  

  22294461.72104 126054973.93804     -3407.49204        38.400  

  22037050.85204 124702262.52904      -887.13304        38.500  

  22381023.86804 126509850.38604     -2593.95704        38.600  

  22284865.13504 126004535.47304      2980.64804        38.600  

  20711793.50105 117737992.89605      1796.56305        39.000  

  24008905.55444 135064430.75844      2242.74244        37.900  

 06 10 29 01 47 22.0000000  0  9G10G 1G26G22G 6G17G30G21G16                     
  23436844.27804 132058225.09114      3795.93804        38.400  

  19601745.87205 111904650.55315       300.53105        39.500  

  20473206.77005 116484207.14315     -1613.64805        39.300  

  22295110.19404 126058381.63314     -3407.82004        38.500  

  22037219.81204 124703150.31614      -888.09404        38.700  

  22381517.52544 126512444.63854     -2594.75844        38.600  

  22284297.93704 126001554.87714      2980.47704        38.300  

  20711451.71405 117736196.73915      1795.96905        39.300  

  24008478.76544 135062188.10544      2242.62544        37.800  

 06 10 29 01 47 23.0000000  0  9G10G 1G26G22G 6G17G30G21G16                     
  23436121.99504 132054429.38214      3795.68004        38.000  

  19601688.80705 111904350.64715       299.57805        39.600  

  20473513.88305 116485821.05615     -1614.02305        39.100  

  22295758.70104 126061789.62414     -3408.02704        38.500  

  22037388.88844 124704038.87654      -888.93844        38.600  

  22382011.28604 126515039.36904     -2595.12104        38.300  

  22283730.78604 125998574.52414      2980.27704        38.600  

  20711110.03405 117734401.15115      1795.49605        39.300  

  24008052.11704 135059946.06004      2241.87104        37.900  

 06 10 29 01 47 24.0000000  0  9G10G 1G26G22G 6G17G30G21G16                     
  23435399.71604 132050633.79514      3795.64804        38.000  

  19601631.87305 111904051.40415       298.83205        39.800  

  20473821.07705 116487435.32515     -1614.40205        39.300  

  22296407.29304 126065197.93414     -3408.21504        38.300  

  22037558.10804 124704928.16304      -889.58204        38.700  

  22382505.12204 126517634.55014     -2595.51204        38.700  

  22283163.67704 125995594.37514      2980.06304        38.600  

  20710768.45605 117732606.07015      1795.00805        39.000  

  24007625.56904 135057704.53414      2241.37904        38.100  

 06 10 29 01 47 25.0000000  0  9G10G 1G26G22G 6G17G30G21G16                     
  23434677.46604 132046838.33214      3795.09804        38.100  

  19601575.02445 111903752.79255       298.30145        39.600  

  20474128.33405 116489049.93215     -1614.88305        39.200  

  22297055.94204 126068606.52814     -3408.73404        38.400  

  22037727.48504 124705818.18214      -890.36304        38.600  

  22382999.01244 126520230.18854     -2595.97344        38.200  

  22282596.56604 125992614.38914      2980.02004        38.300  

  20710426.97705 117730811.50015      1794.40205        39.300  

  24007199.09904 135055463.54114      2240.68004        37.800  

 06 10 29 01 47 26.0000000  0  9G10G 1G26G22G 6G17G30G21G16                     
  23433955.22944 132043042.91754      3795.52344        38.000  

  19601518.30345 111903454.81045       297.77345        39.700  

  20474435.62745 116490664.82955     -1615.05545        39.100  

  22297704.59944 126072015.37854     -3408.88344        38.300  

  22037896.99544 124706708.93954      -891.26244        38.800  

  22383493.01944 126522826.24044     -2596.24644        38.600  

  22282029.50144 125989634.59154      2979.90644        38.500  

  20710085.58445 117729017.42955      1794.21545        38.900  

  24006772.74444 135053223.06754      2240.24244        37.900  

 06 10 29 01 47 27.0000000  0  9G10G 1G26G22G 6G17G30G21G16                     
  23433233.04204 132039247.69404      3794.88704        38.100  

  19601461.74345 111903157.54245       296.92245        39.600  

  20474743.01805 116492280.13205     -1615.78505        39.300  

  22298353.32804 126075424.57104     -3409.39504        38.500  

  22038066.65704 124707600.41704      -891.89804        38.800  

  22383987.12604 126525422.78504     -2596.78904        38.700  

  22281462.51344 125986655.02844      2979.16444        38.600  

  20709744.31205 117727223.92205      1793.12905        39.000  

  24006346.51344 135050983.16044      2239.47344        38.000  

 06 10 29 01 47 28.0000000  0  9G10G 1G26G22G 6G17G30G21G16                     
  23432510.85804 132035452.59114      3794.97704        38.000  

  19601405.32405 111902860.93305       296.57805        39.700  

  20475050.44905 116493895.76315     -1615.82805        39.200  

  22299002.14304 126078834.04314     -3409.60904        38.400  

  22038236.44144 124708492.68654      -892.73844        38.400  

  22384481.32804 126528019.79714     -2597.49604        38.300  

  22280895.55604 125983675.65904      2979.32004        38.200  

  20709403.11305 117725430.96215      1792.62905        39.200  

  24005920.36404 135048743.80804      2239.12104        37.900  

 06 10 29 01 47 29.0000000  0  9G10G 1G26G22G 6G17G30G21G16                     
  23431788.69804 132031657.59414      3794.73404        38.100  

  19601349.01105 111902564.99515       295.66405        39.700  

  20475357.97005 116495511.74215     -1616.30105        39.400  

  22299651.00444 126082243.82754     -3409.99244        38.400  

  22038406.37644 124709385.67744      -893.40644        38.500  

  22384975.61804 126530617.27014     -2597.90604        38.600  

  22280328.63844 125980696.50954      2978.93044        38.500  

  20709062.01505 117723638.50215      1792.10205        39.300  

  24005494.35104 135046505.00814      2238.65204        37.900  

 06 10 29 01 47 30.0000000  0  9G10G 1G26G22G 6G17G30G21G16                     
  23431066.56504 132027862.69314      3794.91804        38.500  

  19601292.80205 111902269.69715       295.05105        39.700  

  20475665.53905 116497128.03315     -1616.34405        39.400  

  22300299.90844 126085653.89044     -3410.30944        38.400  

  22038576.43944 124710279.39544      -893.96144        38.700  

  22385469.98304 126533215.14814     -2597.98804        38.500  

  22279761.74704 125977717.52504      2978.94504        38.500  

  20708720.99505 117721846.56615      1791.51605        39.300  

  24005068.41804 135044266.71514      2238.00804        38.000  

 06 10 29 01 47 31.0000000  0  9G10G 1G26G22G 6G17G30G21G16                     
  23430344.41104 132024067.93914      3794.83604        38.100  

  19601236.72705 111901975.05915       294.23405        39.500  

  20475973.18605 116498744.67615     -1616.90605        39.300  

  22300948.86244 126089064.22244     -3410.43444        38.600  

  22038746.63244 124711173.84644      -894.96944        38.600  

  22385964.43804 126535813.50314     -2598.59404        38.600  

  22279194.89104 125974738.74314      2978.54304        38.400  

  20708380.11105 117720055.11515      1791.05905        39.100  

  24004642.58104 135042028.96914      2237.26204        37.900  

 06 10 29 01 47 32.0000000  0  9G10G 1G26G22G 6G17G30G21G16                     
  23429622.27744 132020273.25854      3794.66444        38.000  

  19601180.77645 111901681.07455       293.64145        39.700  

  20476280.86545 116500361.65055     -1617.23045        39.000  

  22301597.86044 126092474.84744     -3410.72744        38.500  

  22038916.95744 124712069.01944      -895.46944        38.600  

  22386458.93844 126538412.30154     -2599.19144        38.500  

  22278628.07644 125971760.13954      2978.40244        38.700  

  20708039.31605 117718264.19515      1790.61705        39.200  

  24004216.86544 135039791.75054      2237.09044        37.800  

 06 10 29 01 47 33.0000000  0  9G10G 1G26G22G 6G17G30G21G16                     
  23428900.20944 132016478.76544      3794.27344        38.300  

  19601124.97105 111901387.80505       292.97305        39.800  

  20476588.64705 116501979.01005     -1617.51605        39.300  

  22302246.97104 126095885.81904     -3410.95304        38.300  

  22039087.45704 124712965.00104      -896.46904        38.600  

  22386953.57304 126541011.58504     -2599.67604        38.600  

  22278061.30004 125968781.79004      2978.21104        38.500  

  20707698.63105 117716473.88005      1790.09005        39.300  

  24003791.23604 135037555.14304      2236.26204        37.800  

 06 10 29 01 47 34.0000000  0  9G10G 1G26G22G 6G17G30G21G16                     
  23428178.15644 132012684.44944      3794.00444        38.300  

  19601069.29005 111901095.21315       292.28105        39.600  

  20476896.48405 116503596.74615     -1617.77005        39.100  

  22302896.14644 126099297.13254     -3411.61344        38.300  

  22039258.09004 124713861.73514      -896.91404        38.600  

  22387448.29144 126543611.36854     -2600.01244        38.600  

  22277494.56804 125965803.67114      2978.07804        38.400  

  20707358.05105 117714684.07805      1789.57005        39.200  

  24003365.73744 135035319.08854      2235.79344        37.900  

 06 10 29 01 47 35.0000000  0  9G10G 1G26G22G 6G17G30G21G16                     
  23427456.10944 132008890.13844      3794.30944        38.200  

  19601013.71005 111900803.22715       291.82005        39.700  

  20477204.36805 116505214.76015     -1618.17605        39.500  

  22303545.37144 126102708.64544     -3411.76644        38.600  

  22039428.85004 124714759.14814      -897.48404        38.700  

  22387943.06844 126546211.51944     -2600.25444        38.500  

  22276927.89104 125962825.69714      2977.91004        38.600  

  20707017.56605 117712894.77005      1789.03905        39.100  

  24002940.32844 135033083.51844      2235.30544        37.900  

 06 10 29 01 47 36.0000000  0  9G10G 1G26G22G 6G17G30G21G16                     
  23426734.12104 132005096.00504      3793.96104        38.100  

  19600958.29405 111900511.94415       290.87505        39.700  

  20477512.35205 116506833.15615     -1618.75405        39.000  

  22304194.62844 126106120.49144     -3412.00844        38.600  

  22039599.80104 124715657.36114      -898.70304        38.500  

  22388437.95044 126548812.16544     -2600.89144        38.600  

  22276361.23204 125959847.95014      2977.49204        38.600  

  20706677.16905 117711105.98905      1788.56605        39.100  

  24002515.03244 135030848.50544      2234.74244        37.900  

 06 10 29 01 47 37.0000000  0  9G10G 1G26G22G 6G17G30G21G16                     
  23426012.13744 132001301.96754      3794.15644        38.200  

  19600903.00445 111900221.29355       290.29345        39.600  

  20477820.41305 116508451.86515     -1618.76205        39.000  

  22304843.93744 126109532.61244     -3412.12144        38.600  

  22039770.84404 124716556.25714      -899.23804        38.600  

  22388932.93444 126551413.26444     -2601.52044        38.600  

  22275794.61104 125956870.35414      2977.91004        38.400  

  20706336.86605 117709317.72305      1787.94505        39.200  

  24002089.81844 135028614.03044      2234.19544        38.000  

 06 10 29 01 47 38.0000000  0  9G10G 1G26G22G 6G17G30G21G16                     
  23425290.16044 131997508.06044      3793.52344        38.100  

  19600847.81045 111899931.28845       289.83645        39.600  

  20478128.50445 116510070.89955     -1619.07045        39.200  

  22305493.30144 126112945.01844     -3412.39544        38.400  

  22039942.04844 124717455.89354      -900.09444        38.400  

  22389428.00644 126554014.79344     -2601.81344        38.400  

  22275228.03844 125953892.99054      2977.31644        38.600  

  20705996.68645 117707529.98145      1787.57845        39.100  

  24001664.71744 135026380.08744      2233.75444        37.900  

 06 10 29 01 47 39.0000000  0  9G10G 1G26G22G 6G17G30G21G16                     
  23424568.24004 131993714.33504      3793.59404        38.100  

  19600792.78605 111899642.04405       288.86705        39.600  

  20478436.71345 116511690.39345     -1619.94945        39.400  

  22306142.72204 126116357.81604     -3413.13704        38.600  

  22040113.38405 124718356.35005      -900.73405        38.900  

  22389923.14004 126556616.85404     -2602.31604        38.600  

  22274661.53744 125950915.90644      2976.68044        38.500  

  20705656.62305 117705742.85005      1786.69105        39.000  

  24001239.75404 135024146.79104      2232.89104        37.900  

 06 10 29 01 47 40.0000000  0  9G10G 1G26G22G 6G17G30G21G16                     
  23423846.37844 131989920.88954      3793.54744        38.100  

  19600737.90105 111899353.62715       288.03505        39.700  

  20478744.95345 116513310.36945     -1620.16045        39.300  

  22306792.24104 126119771.07214     -3413.68804        38.500  

  22040284.92144 124719257.72854      -901.71144        38.500  

  22390418.38804 126559219.54714     -2603.04304        38.500  

  22274095.10144 125947939.17144      2976.64144        38.600  

  20705316.70305 117703956.41215      1786.26205        39.300  

  24000814.92304 135021914.17014      2232.28104        38.000  

 06 10 29 01 47 41.0000000  0  9G10G 1G26G22G 6G17G30G21G16                     
  23423124.52044 131986127.53044      3793.40644        37.900  

  19600683.14905 111899065.81715       287.59805        39.600  

  20479053.29845 116514930.64045     -1620.34845        39.200  

  22307441.82304 126123184.55914     -3413.76604        38.500  

  22040456.56804 124720159.79304      -902.30104        38.500  

  22390913.72004 126561822.62214     -2603.18804        38.400  

  22273528.64844 125944962.60944      2976.32844        38.600  

  20704976.84505 117702170.43815      1785.66805        38.900  

  24000390.20604 135019682.07914      2231.71104        38.100  

 06 10 29 01 47 42.0000000  0  9G10G 1G26G22G 6G17G30G21G16                     
  23422402.70804 131982334.24004      3793.30104        38.000  

  19600628.50705 111898778.60715       286.85505        39.700  

  20479361.70545 116516551.19145     -1620.69945        39.500  

  22308091.43644 126126598.27254     -3413.97744        38.300  

  22040628.36304 124721062.51014      -902.91004        38.600  

  22391409.15444 126564426.10454     -2603.59444        38.600  

  22272962.23344 125941986.15344      2976.35244        38.500  

  20704637.06205 117700384.92515      1785.16005        39.000  

  23999965.51404 135017450.42914      2231.33204        37.900  

 06 10 29 01 47 43.0000000  0  9G10G 1G26G22G 6G17G30G21G16                     
  23421680.87004 131978540.99114      3792.94504        38.100  

  19600573.96405 111898491.99715       286.16805        39.600  

  20479670.15505 116518172.01505     -1621.02005        39.200  

  22308741.08444 126130012.21544     -3413.95344        38.600  

  22040800.27704 124721965.93914      -903.89104        38.500  

  22391904.65444 126567029.96944     -2603.98844        38.400  

  22272395.86504 125939009.84204      2976.10504        38.600  

  20704297.40905 117698599.88415      1784.76205        39.000  

  23999540.93904 135015219.28914      2230.90604        37.900  

 06 10 29 01 47 44.0000000  0  9G10G 1G26G22G 6G17G30G21G16                     
  23420959.06044 131974747.88054      3793.00844        38.000  

  19600519.53845 111898206.06255       285.51645        39.400  

  20479978.66945 116519793.20455     -1621.18045        39.200  

  22309390.79344 126133426.46644     -3414.40644        38.600  

  22040972.32744 124722870.08954      -904.38344        38.700  

  22392400.23744 126569634.29044     -2604.52344        38.500  

  22271829.55544 125936033.72754      2976.25044        38.400  

  20703957.81645 117696815.38955      1784.35245        39.300  

  23999116.43844 135012988.68554      2230.24244        38.000  

 06 10 29 01 47 45.0000000  0  9G10G 1G26G22G 6G17G30G21G16                     
  23420237.30104 131970954.89604      3792.73004        38.200  

  19600465.22205 111897920.79105       284.84005        39.400  

  20480287.23005 116521414.76005     -1621.93005        39.100  

  22310040.54404 126136841.02004     -3414.69104        38.300  

  22041144.53804 124723775.00804      -905.16804        38.700  

  22392895.91804 126572239.09104     -2604.81604        38.500  

  22271263.26204 125933057.86504      2975.68404        38.600  

  20703618.35845 117695031.39645      1783.92245        38.900  

  23998692.06204 135010758.64304      2229.72704        37.800  

 06 10 29 01 47 46.0000000  0  9G10G 1G26G22G 6G17G30G21G16                     
  23419515.56604 131967162.11014      3792.77004        37.900  

  19600411.07105 111897636.27315       284.00805        39.600  

  20480595.86305 116523036.70515     -1622.15205        39.400  

  22310690.38204 126140255.97414     -3415.38704        38.500  

  22041316.90904 124724680.75014      -906.28504        38.500  

  22393391.69704 126574844.41314     -2605.54304        38.600  

  22270697.02104 125930082.24714      2975.57004        38.600  

  20703279.01545 117693248.03945      1783.22345        39.100  

  23998267.83104 135008529.22914      2229.08204        37.800  

 06 10 29 01 47 47.0000000  0  9G10G 1G26G22G 6G17G30G21G16                     
  23418793.87204 131963369.45214      3792.62904        37.900  

  19600357.07705 111897352.38115       283.61305        39.600  

  20480904.57205 116524658.99215     -1622.44905        39.200  

  22311340.30704 126143671.17014     -3415.30504        38.400  

  22041489.39304 124725587.19514      -906.62504        38.700  

  22393887.55304 126577450.17714     -2606.03504        38.500  

  22270130.82804 125927106.82514      2975.46104        38.700  

  20702939.75345 117691465.18145      1782.60545        39.100  

  23997843.67204 135006300.32514      2228.69104        38.000  

 06 10 29 01 47 48.0000000  0  9G10G 1G26G22G 6G17G30G21G16                     
  23418072.17804 131959576.87114      3792.53104        37.900  

  19600303.19805 111897069.14715       282.74205        39.600  

  20481213.33505 116526281.59015     -1622.59005        39.200  

  22311990.22504 126147086.61914     -3415.32004        38.300  

  22041662.02104 124726494.35714      -907.45304        38.700  

  22394383.49504 126580056.36614     -2606.41004        38.300  

  22269564.64944 125924131.59754      2974.87144        38.500  

  20702600.60945 117689682.81845      1782.21145        38.900  

  23997419.62644 135004071.96454      2228.23844        37.800  

 06 10 29 01 47 49.0000000  0  9G10G 1G26G22G 6G17G30G21G16                     
  23417350.49104 131955784.42514      3792.32804        38.200  

  19600249.43245 111896786.58655       282.01645        39.700  

  20481522.17405 116527904.55315     -1623.20705        39.300  

  22312640.25504 126150502.42414     -3416.25004        38.500  

  22041834.79304 124727402.29014      -908.28504        38.600  

  22394879.53244 126582663.01054     -2606.84044        38.500  

  22268998.51204 125921156.53904      2975.01604        38.600  

  20702261.52045 117687900.98745      1781.62145        39.100  

  23996995.68304 135001844.14304      2227.53904        37.700  

 06 10 29 01 47 50.0000000  0  9G10G 1G26G22G 6G17G30G21G16                     
  23416628.82744 131951992.09654      3792.33244        38.300  

  19600195.77745 111896504.68045       281.68845        39.800  

  20481831.07745 116529527.85555     -1623.48445        39.000  

  22313290.32344 126153918.49754     -3416.24644        38.700  

  22042007.66944 124728310.95054      -909.06644        38.400  

  22395375.64344 126585270.12244     -2607.44144        38.400  

  22268432.42744 125918181.72354      2974.66444        38.500  

  20701922.56045 117686119.71445      1781.11345        39.000  

  23996571.85044 134999616.87954      2227.04344        37.800  

 06 10 29 01 47 51.0000000  0  9G10G 1G26G22G 6G17G30G21G16                     
  23415907.22104 131948199.99604      3791.82804        38.000  

  19600142.27945 111896223.53445       280.76245        39.600  

  20482140.06305 116531151.60705     -1623.86305        39.200  

  22313940.47704 126157334.93904     -3416.59804        38.300  

  22042180.72204 124729220.45204      -909.99604        38.700  

  22395871.89004 126587877.77204     -2608.10204        38.600  

  22267866.40144 125915207.19644      2974.34844        38.700  

  20701583.71305 117684339.04205      1780.45305        39.200  

  23996148.13704 134997390.23304      2226.35204        37.800  

 06 10 29 01 47 52.0000000  0  9G10G 1G26G22G 6G17G30G21G16                     
  23415185.63604 131944408.02014      3791.98804        38.200  

  19600088.92845 111895943.03245       280.40645        39.700  

  20482449.08605 116532775.67915     -1624.45305        39.100  

  22314590.68004 126160751.70814     -3417.08204        38.200  

  22042353.92504 124730130.67014      -910.50404        38.500  

  22396368.19344 126590485.85354     -2607.93844        38.600  

  22267300.40344 125912232.84844      2974.10944        38.400  

  20701244.94005 117682558.89015      1779.96105        39.000  

  23995724.53204 134995164.15914      2225.77304        37.700  

 06 10 29 01 47 53.0000000  0  9G10G 1G26G22G 6G17G30G21G16                     
  23414464.07004 131940616.14114      3791.65604        38.000  

  19600035.68745 111895663.19445       279.57445        39.700  

  20482758.19005 116534400.06915     -1624.73405        39.300  

  22315240.92404 126164168.71514     -3417.22304        38.400  

  22042527.27404 124731041.63014      -911.31304        38.500  

  22396864.56104 126593094.40004     -2608.66804        38.500  

  22266734.43304 125909258.68404      2974.10204        38.400  

  20700906.29305 117680779.26015      1779.37905        39.400  

  23995301.05804 134992938.58914      2225.48404        37.900  

 06 10 29 01 47 54.0000000  0  9G10G 1G26G22G 6G17G30G21G16                     
  23413742.53504 131936824.37314      3791.74204        38.100  

  19599982.53145 111895384.00245       278.87545        39.600  

  20483067.37305 116536024.79915     -1624.75405        39.100  

  22315891.24004 126167586.00614     -3417.28904        38.400  

  22042700.74304 124731953.31814      -912.15204        38.600  

  22397361.02904 126595703.34914     -2609.05104        38.400  

  22266168.53304 125906284.72614      2973.66804        38.400  

  20700567.74445 117679000.13655      1778.73045        39.200  

  23994877.64204 134990713.57114      2224.71504        37.800  

 06 10 29 01 47 55.0000000  0  9G10G 1G26G22G 6G17G30G21G16                     
  23413020.98344 131933032.68254      3791.68044        38.200  

  19599929.51845 111895105.42445       278.36345        39.800  

  20483376.60205 116537649.83215     -1625.14105        39.100  

  22316541.59004 126171003.58414     -3417.70704        38.600  

  22042874.34304 124732865.68714      -912.73804        38.600  

  22397857.55304 126598312.73914     -2609.39804        38.500  

  22265602.63904 125903310.91614      2973.83204        38.400  

  20700229.27745 117677221.49245      1778.71945        39.100  

  23994454.30604 134988489.04314      2224.22304        37.700  

 06 10 29 01 47 56.0000000  0  9G10G 1G26G22G 6G17G30G21G16                     
  23412299.44644 131929241.13544      3791.25844        38.100  

  19599876.62845 111894827.52045       277.84845        39.400  

  20483685.90945 116539275.21855     -1625.62145        39.500  

  22317191.98544 126174421.43054     -3417.90644        38.300  

  22043048.12244 124733778.81854      -913.69544        38.600  

  22398354.18444 126600922.58054     -2609.91444        38.700  

  22265036.78644 125900337.32554      2973.56644        38.600  

  20699890.92545 117675443.39145      1778.10545        39.000  

  23994031.07144 134986265.07554      2223.44544        37.900  

 06 10 29 01 47 57.0000000  0  9G10G 1G26G22G 6G17G30G21G16                     
  23411577.94604 131925449.74804      3791.33604        38.200  

  19599823.89805 111894550.35605       276.75405        39.600  

  20483995.30305 116540901.00905     -1625.91005        39.100  

  22317842.46304 126177839.64104     -3418.42204        38.600  

  22043222.04404 124734692.74604      -914.38304        38.700  

  22398850.93044 126603532.93644     -2610.53544        38.400  

  22264470.96744 125897363.97944      2973.15644        38.500  

  20699552.69205 117673665.87805      1777.52305        39.200  

  23993607.96404 134984041.70204      2222.90604        37.900  

 06 10 29 01 47 58.0000000  0  9G10G 1G26G22G 6G17G30G21G16                     
  23410856.48904 131921658.52614      3791.31604        38.000  

  19599771.29245 111894273.87255       276.02345        39.600  

  20484304.76905 116542527.17015     -1626.32005        39.400  

  22318492.98944 126181258.17854     -3418.60944        38.600  

  22043396.10904 124735607.43514      -915.01604        38.700  

  22399347.75004 126606143.77104     -2610.95304        38.400  

  22263905.23104 125894390.87704      2973.05904        38.500  

  20699214.55705 117671888.93515      1776.59005        39.200  

  23993184.97204 134981818.90314      2222.45304        37.600  

 06 10 29 01 47 59.0000000  0  9G10G 1G26G22G 6G17G30G21G16                     
  23410135.07704 131917867.46214      3790.94104        38.200  

  19599718.80645 111893998.06045       275.64145        39.600  

  20484614.29305 116544153.69915     -1626.82005        39.100  

  22319143.55544 126184677.03244     -3419.00044        38.400  

  22043570.31004 124736522.89914      -915.70304        38.500  

  22399844.67444 126608755.09454     -2611.64144        38.400  

  22263339.48604 125891417.99814      2972.71904        38.700  

  20698876.51245 117670112.51855      1776.33245        39.000  

  23992762.12004 134979596.68014      2221.75004        38.000  

 06 10 29 01 48  0.0000000  0  9G10G 1G26G22G 6G17G30G21G16                     
  23409413.66204 131914076.56414      3791.05504        37.900  

  19599666.45245 111893722.95845       274.87945        39.700  

  20484923.88105 116545780.59615     -1627.09005        39.200  

  22319794.21744 126188096.20444     -3419.16444        38.600  

  22043744.68004 124737439.13814      -916.52304        38.500  

  22400341.67344 126611366.86844     -2611.67644        38.600  

  22262773.81304 125888445.34614      2972.61704        38.600  

  20698538.57305 117668336.68905      1775.52005        39.100  

  23992339.36404 134977375.04114      2221.42604        38.200  

 06 10 29 01 48  1.0000000  0  9G10G 1G26G22G 6G17G30G21G16                     
  23408692.31104 131910285.81014      3790.50404        38.200  

  19599614.23205 111893448.56905       273.96505        39.700  

  20485233.53805 116547407.90115     -1627.54705        39.100  

  22320444.92744 126191515.72144     -3419.64544        38.400  

  22043919.18204 124738356.17414      -917.63704        38.400  

  22400838.75344 126613979.15844     -2612.30144        38.200  

  22262208.19504 125885472.95614      2972.11704        38.500  

  20698200.74805 117666561.39215      1774.91005        39.100  

  23991916.71504 134975153.96914      2220.93804        38.000  

 06 10 29 01 48  2.0000000  0  9G10G 1G26G22G 6G17G30G21G16                     
  23407971.01604 131906495.31714      3790.54704        38.000  

  19599562.16205 111893174.95015       272.95305        39.600  

  20485543.29105 116549035.63315     -1628.00405        39.100  

  22321095.72604 126194935.65204     -3420.24604        38.300  

  22044093.82204 124739274.03914      -918.48004        38.400  

  22401335.96444 126616592.02144     -2613.22744        38.300  

  22261642.63844 125882500.86554      2971.96944        38.600  

  20697863.06605 117664786.77315      1774.16005        39.100  

  23991494.17804 134972933.60514      2220.06304        38.100  

 06 10 29 01 48  3.0000000  0  9G10G 1G26G22G 6G17G30G21G16                     
  23407249.72204 131902704.92414      3790.16404        38.200  

  19599510.23405 111892901.97115       272.62105        39.600  

  20485853.10905 116550663.71015     -1628.37105        39.200  

  22321746.56104 126198355.83714     -3420.49204        38.500  

  22044268.62704 124740192.62714      -918.88704        38.500  

  22401833.27244 126619205.30444     -2613.41044        38.500  

  22261077.13744 125879528.98744      2971.68444        38.500  

  20697525.46305 117663012.65315      1773.76205        39.000  

  23991071.75244 134970713.74754      2219.57844        38.100  

 06 10 29 01 48  4.0000000  0  9G10G 1G26G22G 6G17G30G21G16                     
  23406528.42304 131898914.61614      3790.30104        38.100  

  19599458.41405 111892629.65015       271.78505        39.500  

  20486162.96905 116552292.07815     -1628.24205        39.200  

  22322397.46704 126201776.29114     -3420.73804        38.600  

  22044443.57204 124741111.94614      -919.68804        38.700  

  22402330.64244 126621819.02044     -2613.61344        38.500  

  22260511.63944 125876557.25144      2971.60944        38.600  

  20697187.95105 117661239.04515      1773.28105        39.100  

  23990649.41144 134968494.38844      2219.16444        37.800  

 06 10 29 01 48  5.0000000  0  9G10G 1G26G22G 6G17G30G21G16                     
  23405807.20504 131895124.56814      3789.90204        38.300  

  19599406.72945 111892358.06855       271.21545        39.600  

  20486472.94145 116553920.94055     -1629.11345        39.400  

  22323048.46204 126205197.17014     -3421.15204        38.600  

  22044618.66804 124742032.09714      -920.52304        38.800  

  22402828.11904 126624433.31804     -2614.63704        38.600  

  22259946.19744 125873585.85344      2971.24644        38.400  

  20696850.58605 117659466.06415      1772.68005        39.200  

  23990227.22344 134966275.70844      2218.42644        37.900  

 06 10 29 01 48  6.0000000  0  9G10G 1G26G22G 6G17G30G21G16                     
  23405086.03904 131891334.65614      3789.89504        37.900  

  19599355.20605 111892087.20105       270.39505        39.800  

  20486782.97345 116555550.15545     -1629.44545        39.200  

  22323699.50604 126208618.34814     -3421.41004        38.600  

  22044793.92504 124742953.03114      -921.30104        38.500  

  22403325.69104 126627048.05814     -2615.00404        38.600  

  22259380.78744 125870614.66644      2971.21544        38.400  

  20696513.28445 117657693.64655      1772.30145        39.100  

  23989805.13044 134964057.57844      2218.02344        37.800  

 06 10 29 01 48  7.0000000  0  9G10G 1G26G22G 6G17G30G21G16                     
  23404364.85704 131887544.88114      3789.66804        38.200  

  19599303.76205 111891816.98715       270.01605        39.500  

  20487093.07245 116557179.70745     -1629.61745        39.400  

  22324350.59544 126212039.83554     -3421.71144        38.600  

  22044969.31304 124743874.70014      -921.92204        38.700  

  22403823.34604 126629663.27114     -2615.60204        38.400  

  22258815.46544 125867643.69244      2971.03144        38.300  

  20696176.09805 117655921.75205      1771.85205        39.200  

  23989383.15604 134961840.05304      2217.29304        38.000  

 06 10 29 01 48  8.0000000  0  9G10G 1G26G22G 6G17G30G21G16                     
  23403643.69904 131883755.20814      3789.48004        38.000  

  19599252.49505 111891547.44815       268.94105        39.600  

  20487403.22845 116558809.60545     -1630.27045        38.900  

  22325001.72404 126215461.59104     -3422.07004        38.500  

  22045144.85204 124744797.11014      -922.88304        38.600  

  22404321.10204 126632278.91714     -2615.95304        38.500  

  22258250.15204 125864672.92404      2970.41804        38.700  

  20695839.01805 117654150.38015      1771.09405        39.300  

  23988961.27144 134959623.00954      2216.58644        37.900  

 06 10 29 01 48  9.0000000  0  9G10G 1G26G22G 6G17G30G21G16                     
  23402922.55804 131879965.71214      3789.25404        38.100  

  19599201.33405 111891278.60415       268.40205        39.600  

  20487713.45245 116560439.88945     -1630.48045        39.300  

  22325652.90904 126218883.68714     -3422.04704        38.700  

  22045320.51704 124745720.29114      -923.79304        38.600  

  22404818.92404 126634895.05414     -2616.26204        38.300  

  22257684.85604 125861702.38114      2970.47304        38.300  

  20695502.04305 117652379.59015      1770.41805        39.100  

  23988539.49244 134957406.57944      2215.93044        38.000  

 06 10 29 01 48 10.0000000  0  9G10G 1G26G22G 6G17G30G21G16                     
  23402201.47044 131876176.33854      3789.52044        37.900  

  19599150.30305 111891010.40615       267.87505        39.600  

  20488023.76245 116562070.51845     -1630.88745        39.400  

  22326304.16304 126222306.09014     -3422.54704        38.300  

  22045496.34204 124746644.23414      -924.59404        38.600  

  22405316.83104 126637511.66714     -2616.92204        38.400  

  22257119.62504 125858732.05014      2970.46104        38.400  

  20695165.17445 117650609.31155      1770.00445        39.200  

  23988117.81704 134955190.69104      2215.57004        38.000  

 06 10 29 01 48 11.0000000  0  9G10G 1G26G22G 6G17G30G21G16                     
  23401480.39004 131872387.02304      3789.16404        38.200  

  19599099.38145 111890742.80255       267.44945        39.400  

  20488334.10845 116563701.38545     -1630.78545        38.900  

  22326955.46904 126225728.70414     -3422.93404        38.400  

  22045672.27704 124747568.80514      -925.10504        38.800  

  22405814.83504 126640128.62414     -2617.33604        38.600  

  22256554.43904 125855761.83814      2970.21104        38.400  

  20694828.37745 117648839.50045      1769.40245        39.200  

  23987696.24904 134952975.26614      2215.35504        37.700  

 06 10 29 01 48 12.0000000  0  9G10G 1G26G22G 6G17G30G21G16                     
  23400759.31144 131868597.67854      3789.42644        38.100  

  19599048.55445 111890475.73445       266.62945        39.400  

  20488644.49405 116565332.45705     -1630.89805        39.400  

  22327606.82404 126229151.44314     -3422.89804        38.400  

  22045848.34604 124748493.97814      -925.54304        38.800  

  22406312.91344 126642745.88854     -2617.49244        38.600  

  22255989.22604 125852791.67514      2970.20704        38.600  

  20694491.67145 117647070.05945      1769.35945        39.100  

  23987274.74604 134950760.24114      2214.99204        37.800  

 06 10 29 01 48 13.0000000  0  9G10G 1G26G22G 6G17G30G21G16                     
  23400038.25844 131864808.42744      3789.15644        37.800  

  19598997.85105 111890209.26905       266.11305        39.600  

  20488954.92105 116566963.87015     -1631.56305        39.400  

  22328258.19204 126232574.44314     -3423.10504        38.600  

  22046024.52644 124749419.85954      -926.17644        38.500  

  22406811.03804 126645363.58404     -2617.96504        38.600  

  22255424.04304 125849821.70314      2969.78504        38.700  

  20694155.05345 117645301.11545      1768.71945        39.000  

  23986853.33704 134948545.74214      2214.44904        38.100  

 06 10 29 01 48 14.0000000  0  9G10G 1G26G22G 6G17G30G21G16                     
  23399317.23544 131861019.33344      3788.96144        38.000  

  19598947.26445 111889943.48655       265.62145        39.600  

  20489265.42845 116568595.60355     -1631.62145        39.300  

  22328909.61444 126235997.77454     -3423.32844        38.500  

  22046200.86244 124750346.51344      -927.02344        38.800  

  22407309.25344 126647981.73554     -2618.25844        38.200  

  22254858.89644 125846851.95154      2969.57444        38.500  

  20693818.54845 117643532.74045      1768.00845        39.000  

  23986432.05044 134946331.81954      2213.54744        37.900  

 06 10 29 01 48 15.0000000  0  9G10G 1G26G22G 6G17G30G21G16                     
  23398596.25344 131857230.37844      3788.94944        38.300  

  19598896.82245 111889678.43145       264.62945        39.600  

  20489576.02405 116570227.75605     -1632.32005        39.300  

  22329561.12404 126239421.43404     -3423.95304        38.500  

  22046377.33404 124751273.94104      -927.93004        38.500  

  22407807.59104 126650600.39304     -2619.22704        38.600  

  22254293.82904 125843882.42304      2969.02704        38.800  

  20693482.15545 117641764.89945      1767.40245        39.300  

  23986010.87904 134944118.45904      2213.28904        38.000  

 06 10 29 01 48 16.0000000  0  9G10G 1G26G22G 6G17G30G21G16                     
  23397875.25504 131853441.64004      3788.54704        38.000  

  19598846.49945 111889414.09245       263.94145        39.600  

  20489886.67605 116571860.29315     -1632.66405        39.300  

  22330212.70204 126242845.43114     -3424.26204        38.600  

  22046553.97204 124752202.14514      -928.20304        38.300  

  22408305.98904 126653219.53214     -2619.27704        38.600  

  22253728.79604 125840913.18014      2968.78904        38.500  

  20693145.86105 117639997.68505      1766.87905        39.300  

  23985589.81004 134941905.73614      2212.43404        38.100  

 06 10 29 01 48 17.0000000  0  9G10G 1G26G22G 6G17G30G21G16                     
  23397154.31904 131849653.08914      3788.57404        38.000  

  19598796.34945 111889150.48845       263.28545        39.600  

  20490197.40605 116573493.26115     -1633.34005        39.200  

  22330864.32644 126246269.81654     -3424.42644        38.700  

  22046730.76404 124753131.21314      -929.31604        38.400  

  22408804.50504 126655839.24314     -2620.30504        38.500  

  22253163.81304 125837944.19614      2968.86304        38.400  

  20692809.67605 117638231.05515      1766.39505        39.000  

  23985168.87104 134939693.62914      2211.82004        37.900  

 06 10 29 01 48 18.0000000  0  9G10G 1G26G22G 6G17G30G21G16                     
  23396433.38104 131845864.72814      3788.27704        38.200  

  19598746.32245 111888887.61045       262.34845        39.800  

  20490508.23345 116575126.62755     -1633.63345        39.000  

  22331516.02444 126249694.54844     -3424.84844        38.700  

  22046907.71504 124754061.06214      -930.22304        38.700  

  22409303.12804 126658459.42014     -2620.52704        38.200  

  22252598.90804 125834975.47314      2968.64104        38.500  

  20692473.60005 117636465.02515      1765.79705        39.100  

  23984748.01744 134937482.11354      2211.27044        38.100  

 06 10 29 01 48 19.0000000  0  9G10G 1G26G22G 6G17G30G21G16                     
  23395712.49704 131842076.53514      3787.96904        38.000  

  19598696.42745 111888625.39145       261.91445        39.500  

  20490819.09305 116576760.35305     -1633.98805        39.300  

  22332167.78604 126253119.57804     -3425.32804        38.600  

  22047084.80404 124754991.64814      -931.00404        38.600  

  22409801.82204 126661080.06414     -2620.81604        38.400  

  22252034.01544 125832006.97054      2968.52744        38.600  

  20692137.62705 117634699.52615      1765.19105        39.300  

  23984327.29544 134935271.14844      2210.84844        37.800  

 06 10 29 01 48 20.0000000  0  9G10G 1G26G22G 6G17G30G21G16                     
  23394991.63244 131838288.41854      3788.18844        38.100  

  19598646.66745 111888363.87945       261.05545        39.700  

  20491130.04645 116578394.44355     -1634.34445        39.100  

  22332819.61244 126256544.92654     -3425.59044        38.400  

  22047262.02844 124755922.99954      -931.63344        38.600  

  22410300.59444 126663701.20354     -2621.33244        38.500  

  22251469.18944 125829038.70944      2968.27744        38.400  

  20691801.76345 117632934.58655      1764.76245        39.200  

  23983906.65444 134933060.78344      2210.20344        37.900  

 06 10 29 01 48 21.0000000  0  9G10G 1G26G22G 6G17G30G21G16                     
  23394270.80044 131834500.46644      3787.87544        38.000  

  19598597.01545 111888102.96145       260.72745        39.600  

  20491441.05505 116580028.82005     -1634.75005        39.300  

  22333471.44104 126259970.51004     -3425.66404        38.400  

  22047439.40904 124756855.06904      -932.45304        38.700  

  22410799.44204 126666322.72004     -2621.67204        38.600  

  22250904.39304 125826070.60204      2968.23804        38.600  

  20691466.00105 117631170.14405      1764.37505        39.300  

  23983486.10704 134930850.91804      2209.75404        37.800  

 06 10 29 01 48 22.0000000  0  9G10G 1G26G22G 6G17G30G21G16                     
  23393549.99444 131830712.52344      3788.21544        38.300  

  19598547.44705 111887842.66405       260.14505        39.700  

  20491752.09705 116581663.47315     -1634.96105        39.200  

  22334123.35604 126263396.31914     -3425.84804        38.300  

  22047616.90504 124757787.79114      -933.11704        38.500  

  22411298.36604 126668944.64714     -2622.09004        38.500  

  22250339.61604 125823102.64014      2967.78904        38.500  

  20691130.31105 117629406.14815      1763.60505        39.000  

  23983065.68904 134928641.51414      2209.22704        38.000  

 06 10 29 01 48 23.0000000  0  9G10G 1G26G22G 6G17G30G21G16                     
  23392829.19144 131826924.70644      3787.88344        38.100  

  19598498.03505 111887583.00115       259.31305        39.600  

  20492063.23205 116583298.46715     -1635.30905        39.200  

  22334775.31604 126266822.41514     -3426.16804        38.300  

  22047794.55404 124758721.22414      -933.63704        38.500  

  22411797.36844 126671566.97854     -2622.39844        38.600  

  22249774.84444 125820134.83854      2967.69944        38.800  

  20690794.72105 117627642.67815      1763.43805        39.200  

  23982645.39804 134926432.67214      2208.54704        37.800  

 06 10 29 01 48 24.0000000  0  9G10G 1G26G22G 6G17G30G21G16                     
  23392108.41644 131823137.00744      3787.49644        38.000  

  19598448.73305 111887323.97115       258.85205        39.500  

  20492374.42205 116584933.76315     -1635.34805        39.300  

  22335427.32704 126270248.80014     -3426.81604        38.400  

  22047972.32944 124759655.41554      -934.63344        38.600  

  22412296.45904 126674189.77004     -2623.03504        38.600  

  22249210.13944 125817167.22644      2967.47344        38.500  

  20690459.22705 117625879.68815      1762.81305        39.200  

  23982225.19104 134924224.33914      2208.14104        37.800  

 06 10 29 01 48 25.0000000  0  9G10G 1G26G22G 6G17G30G21G16                     
  23391387.71044 131819349.52944      3787.48444        38.100  

  19598399.58405 111887065.73315       257.85905        39.800  

  20492685.70705 116586569.53715     -1636.04705        39.200  

  22336079.41804 126273675.55114     -3426.89504        38.300  

  22048150.23604 124760590.41504      -935.37104        38.700  

  22412795.62604 126676813.08814     -2623.33604        38.400  

  22248645.48444 125814199.93044      2967.17644        38.600  

  20690123.87745 117624117.37155      1762.28945        39.000  

  23981805.05404 134922016.65414      2207.31304        37.700  

 06 10 29 01 48 26.0000000  0  9G10G 1G26G22G 6G17G30G21G16                     
  23390667.02844 131815562.19444      3787.30144        38.100  

  19598350.57645 111886808.15555       257.03945        39.400  

  20492997.02145 116588205.61455     -1636.19545        39.100  

  22336731.55744 126277102.59754     -3427.15644        38.500  

  22048328.29644 124761526.18754      -936.31644        38.600  

  22413294.91644 126679436.88154     -2624.16444        38.600  

  22248080.86344 125811232.83444      2966.95744        38.500  

  20689788.59645 117622355.56845      1761.35245        39.300  

  23981385.04704 134919809.50814      2207.11304        37.800  

 06 10 29 01 48 27.0000000  0  9G10G 1G26G22G 6G17G30G21G16                     
  23389946.30504 131811774.88804      3786.96504        38.100  

  19598301.67105 111886551.12005       256.93405        39.700  

  20493308.40005 116589841.97005     -1636.53505        39.200  

  22337383.72904 126280529.86004     -3427.53104        38.500  

  22048506.45104 124762462.56704      -936.57804        38.600  

  22413794.26404 126682061.00004     -2624.03504        38.600  

  22247516.26304 125808265.83504      2966.98404        38.500  

  20689453.42105 117620594.21605      1761.16405        39.200  

  23980965.13444 134917602.86344      2206.31644        38.000  

 06 10 29 01 48 28.0000000  0  9G10G 1G26G22G 6G17G30G21G16                     
  23389225.62604 131807987.62814      3787.18004        38.100  

  19598252.88905 111886294.73215       256.13305        39.400  

  20493619.84305 116591478.60615     -1636.60205        39.300  

  22338035.96404 126283957.33014     -3427.36704        38.400  

  22048684.75704 124763399.65414      -937.39104        38.700  

  22414293.70704 126684685.52014     -2624.48004        38.600  

  22246951.69044 125805299.01054      2966.81644        38.600  

  20689118.33505 117618833.33415      1760.43805        39.300  

  23980545.29344 134915396.69244      2205.72344        37.900  

 06 10 29 01 48 29.0000000  0  9G10G 1G26G22G 6G17G30G21G16                     
  23388504.97404 131804200.57114      3786.81304        38.100  

  19598204.22405 111886039.02215       255.43805        39.700  

  20493931.34805 116593115.63415     -1637.29705        39.200  

  22338688.26504 126287385.16314     -3427.97704        38.300  

  22048863.24904 124764337.52814      -938.37104        38.600  

  22414793.26604 126687310.55614     -2625.19904        38.600  

  22246387.17844 125802332.43844      2966.45744        38.400  

  20688783.36305 117617073.01515      1759.91805        39.000  

  23980125.56544 134913191.10744      2205.36344        37.800  

 06 10 29 01 48 30.0000000  0  9G10G 1G26G22G 6G17G30G21G16                     
  23387784.34004 131800413.71314      3786.80104        38.000  

  19598155.70505 111885784.05115       254.64505        39.700  

  20494242.93805 116594753.06315     -1637.53105        39.300  

  22339340.63504 126290813.35914     -3428.38304        38.600  

  22049041.87444 124765276.20054      -939.04744        38.800  

  22415292.86304 126689936.10114     -2625.61304        38.400  

  22245822.72944 125799366.11344      2966.37544        38.300  

  20688448.52605 117615313.30415      1759.32005        39.000  

  23979705.97644 134910986.15144      2204.76644        37.800  

 06 10 29 01 48 31.0000000  0  9G10G 1G26G22G 6G17G30G21G16                     
  23387063.75104 131796627.04914      3786.56304        38.100  

  19598107.33305 111885529.83515       253.64805        39.800  

  20494554.59905 116596390.93915     -1638.12505        39.300  

  22339993.06604 126294241.91014     -3429.09804        38.500  

  22049220.65244 124766215.71744      -939.97344        38.400  

  22415792.63944 126692562.18154     -2626.52344        38.300  

  22245258.32544 125796400.09144      2965.72344        38.400  

  20688113.76605 117613554.21315      1758.63305        39.000  

  23979286.50244 134908781.80344      2203.95744        38.100  

 06 10 29 01 48 32.0000000  0  9G10G 1G26G22G 6G17G30G21G16                     
  23386343.21844 131792840.66354      3786.51644        38.100  

  19598059.11745 111885276.41055       253.09045        39.600  

  20494866.36945 116598029.29855     -1638.42245        39.300  

  22340645.57944 126297670.90654     -3429.05144        38.400  

  22049399.60944 124767156.10644      -940.93844        38.700  

  22416292.45644 126695188.83044     -2626.82044        38.500  

  22244693.96444 125793434.41544      2965.60244        38.400  

  20687779.16145 117611795.78555      1758.23845        39.100  

  23978867.18344 134906578.16844      2203.35544        37.800  

 06 10 29 01 48 33.0000000  0  9G10G 1G26G22G 6G17G30G21G16                     
  23385622.77944 131789054.56044      3785.99644        38.200  

  19598011.05205 111885023.80605       252.37105        39.600  

  20495178.24105 116599668.12305     -1638.91805        39.200  

  22341298.16504 126301100.32404     -3429.45304        38.500  

  22049578.70804 124768097.37404      -941.83604        38.500  

  22416792.44044 126697816.09644     -2627.55544        38.600  

  22244129.66704 125790469.07304      2965.17604        38.500  

  20687444.67205 117610038.04605      1757.47305        39.300  

  23978447.99804 134904375.21904      2202.87504        37.800  

 06 10 29 01 48 34.0000000  0  9G10G 1G26G22G 6G17G30G21G16                     
  23384902.32004 131785268.59304      3786.22704        38.100  

  19597963.10305 111884771.87215       251.77305        39.700  

  20495490.15405 116601307.29715     -1639.12505        39.100  

  22341950.81704 126304530.06414     -3429.73404        38.300  

  22049757.96704 124769039.37914      -942.21504        38.600  

  22417292.49244 126700443.81344     -2627.93844        38.600  

  22243565.44244 125787503.98154      2964.73444        38.600  

  20687110.27505 117608280.84515      1756.89505        39.200  

  23978028.87304 134902172.84014      2202.28504        37.800  

 06 10 29 01 48 35.0000000  0  9G10G 1G26G22G 6G17G30G21G16                     
  23384181.89544 131781482.75654      3785.44144        37.800  

  19597915.27545 111884520.58855       250.98445        39.500  

  20495802.16305 116602946.83015     -1639.73805        39.500  

  22342603.53404 126307960.08214     -3430.21104        38.400  

  22049937.39204 124769982.11814      -943.08604        38.600  

  22417792.63244 126703071.95944     -2628.36344        38.400  

  22243001.22144 125784539.03644      2964.83644        38.600  

  20686775.99105 117606524.15415      1756.43405        39.200  

  23977609.83804 134899970.99614      2201.75404        37.800  

 06 10 29 01 48 36.0000000  0  9G10G 1G26G22G 6G17G30G21G16                     
  23383461.42004 131777696.89704      3786.03504        38.300  

  19597867.56505 111884269.83305       250.64105        39.700  

  20496114.19305 116604586.57815     -1639.87505        39.300  

  22343256.28404 126311390.24814     -3430.25404        38.600  

  22050116.90304 124770925.48714      -943.65604        38.700  

  22418292.80744 126705700.43444     -2628.59044        38.500  

  22242437.04144 125781574.18244      2964.88744        38.500  

  20686441.81205 117604767.88315      1755.60205        39.200  

  23977190.91604 134897769.57914      2201.27004        38.000  

 06 10 29 01 48 37.0000000  0  9G10G 1G26G22G 6G17G30G21G16                     
  23382741.04204 131773911.17914      3785.80904        38.000  

  19597820.00705 111884019.77315       249.86705        39.800  

  20496426.26505 116606226.65715     -1640.14105        39.100  

  22343909.09704 126314820.72314     -3430.57804        38.500  

  22050296.55604 124771869.59914      -944.48404        38.600  

  22418793.08404 126708329.37004     -2629.21904        38.500  

  22241872.87244 125778609.56244      2964.51644        38.600  

  20686107.70905 117603012.12515      1755.60205        39.000  

  23976772.09504 134895568.70814      2200.59404        37.900  

 06 10 29 01 48 38.0000000  0  9G10G 1G26G22G 6G17G30G21G16                     
  23382020.65944 131770125.67154      3785.32044        37.900  

  19597772.57345 111883770.42855       248.80545        39.600  

  20496738.41745 116607867.15755     -1640.99245        39.100  

  22344561.99244 126318251.55854     -3431.28544        38.500  

  22050476.35644 124772814.49654      -945.39544        38.400  

  22419293.45444 126710958.80354     -2629.78544        38.500  

  22241308.74904 125775645.18204      2964.28904        38.500  

  20685773.69845 117601256.98455      1754.80945        39.100  

  23976353.38344 134893368.46754      2199.93844        38.000  

 06 10 29 01 48 39.0000000  0  9G10G 1G26G22G 6G17G30G21G16                     
  23381300.36804 131766340.42904      3785.17604        38.200  

  19597725.27405 111883521.87305       248.37105        39.700  

  20497050.71605 116609508.13105     -1641.21905        39.300  

  22345214.92604 126321682.81104     -3431.27704        38.500  

  22050656.33044 124773760.30944      -946.49244        38.500  

  22419793.94104 126713588.84104     -2630.34404        38.200  

  22240744.71804 125772681.17904      2963.91804        38.400  

  20685439.81905 117599502.53505      1754.15605        39.200  

  23975934.79504 134891168.90804      2199.15604        38.000  

 06 10 29 01 48 40.0000000  0  9G10G 1G26G22G 6G17G30G21G16                     
  23380580.09904 131762555.30614      3785.16404        38.000  

  19597678.09205 111883273.99115       247.56305        39.700  

  20497363.02705 116611149.45015     -1641.33605        39.000  

  22345867.92304 126325114.35014     -3431.40604        38.600  

  22050836.43604 124774706.82804      -946.82804        38.700  

  22420294.50504 126716219.29314     -2630.44504        38.500  

  22240180.70004 125769717.34504      2963.92604        38.300  

  20685106.06005 117597748.56315      1753.85205        39.300  

  23975516.32544 134888969.87454      2198.82844        37.900  

 06 10 29 01 48 41.0000000  0  9G10G 1G26G22G 6G17G30G21G16                     
  23379859.81404 131758770.22214      3785.00404        38.100  

  19597631.03005 111883026.67215       246.88705        39.700  

  20497675.40145 116612791.01255     -1641.47345        39.100  

  22346520.97804 126328546.09914     -3431.77704        38.400  

  22051016.69204 124775653.98814      -947.42604        38.400  

  22420795.15304 126718850.13714     -2630.98004        38.500  

  22239616.71504 125766753.64104      2963.62104        38.400  

  20684772.38805 117595995.07815      1753.34405        39.100  

  23975097.95604 134886771.33904      2198.17604        38.000  

 06 10 29 01 48 42.0000000  0  9G10G 1G26G22G 6G17G30G21G16                     
  23379139.54104 131754985.19714      3785.31304        38.000  

  19597584.07705 111882779.94915       246.49205        39.700  

  20497987.83805 116614432.85005     -1641.90205        39.300  

  22347174.05004 126331978.06814     -3432.09004        38.400  

  22051197.08605 124776601.83415      -948.02305        38.900  

  22421295.86804 126721481.33714     -2631.39804        38.500  

  22239052.78404 125763790.08004      2963.30104        38.400  

  20684438.80705 117594242.05015      1752.63705        39.100  

  23974679.68304 134884573.25014      2197.85204        38.000  

 06 10 29 01 48 43.0000000  0  9G10G 1G26G22G 6G17G30G21G16                     
  23378419.31604 131751200.33714      3784.97704        38.000  

  19597537.25505 111882533.90615       245.88305        39.400  

  20498300.34445 116616075.05155     -1642.28145        39.300  

  22347827.18804 126335410.33414     -3432.41804        38.300  

  22051377.59604 124777550.45514      -949.12504        38.600  

  22421796.64344 126724113.01854     -2632.00444        38.600  

  22238488.86904 125760826.71904      2963.40204        38.700  

  20684105.33105 117592489.54815      1752.37105        39.100  

  23974261.51404 134882375.76814      2197.27004        37.800  

 06 10 29 01 48 44.0000000  0  9G10G 1G26G22G 6G17G30G21G16                     
  23377699.11044 131747415.54354      3784.81344        38.100  

  19597490.57345 111882288.49455       245.20745        39.500  

  20498612.89045 116617717.56545     -1642.64545        39.100  

  22348480.37544 126338842.85554     -3432.40244        38.600  

  22051558.24544 124778499.74354      -949.57844        38.600  

  22422297.49744 126726745.09044     -2632.30944        38.600  

  22237925.00144 125757863.54444      2963.03944        38.500  

  20683771.95045 117590737.54355      1751.83245        39.100  

  23973843.43044 134880178.75054      2196.88744        37.900  

 06 10 29 01 48 45.0000000  0  9G10G 1G26G22G 6G17G30G21G16                     
  23376978.89404 131743630.83704      3784.62504        37.900  

  19597443.98805 111882043.68005       244.26205        39.600  

  20498925.49745 116619360.33945     -1642.74645        39.300  

  22349133.62644 126342275.61844     -3433.17244        38.500  

  22051739.01604 124779449.72104      -950.57804        38.600  

  22422798.42904 126729377.54904     -2632.85504        38.300  

  22237361.14204 125754900.48204      2962.94904        38.500  

  20683438.65745 117588986.01945      1751.17645        39.200  

  23973425.43504 134877982.25404      2196.08204        37.900  

 06 10 29 01 48 46.0000000  0  9G10G 1G26G22G 6G17G30G21G16                     
  23376258.71944 131739846.28254      3784.35944        38.200  

  19597397.51905 111881799.54215       243.80905        39.700  

  20499238.18845 116621003.50845     -1643.43445        39.400  

  22349786.94344 126345708.70144     -3433.44544        38.300  

  22051919.93304 124780400.46014      -951.02704        38.600  

  22423299.46304 126732010.49114     -2633.28904        38.500  

  22236797.34404 125751937.67314      2962.75404        38.600  

  20683105.44805 117587235.05305      1750.78105        39.100  

  23973007.57304 134875786.31814      2195.69904        38.000  

 06 10 29 01 48 47.0000000  0  9G10G 1G26G22G 6G17G30G21G16                     
  23375538.53044 131736061.89644      3784.28144        38.100  

  19597351.18305 111881556.11915       242.98405        39.700  

  20499550.91605 116622647.03005     -1643.80505        39.000  

  22350440.28844 126349142.06544     -3433.33644        38.500  

  22052100.99104 124781352.01114      -952.34004        38.500  

  22423800.58804 126734643.90414     -2633.72304        38.500  

  22236233.60004 125748975.09514      2962.27304        38.600  

  20682772.33845 117585484.63555      1750.25045        39.200  

  23972589.80404 134873590.97014      2195.10504        37.900  

 06 10 29 01 48 48.0000000  0  9G10G 1G26G22G 6G17G30G21G16                     
  23374818.43944 131732277.69944      3784.18044        38.300  

  19597304.98705 111881313.42415       242.34005        39.800  

  20499863.72805 116624290.98415     -1643.88705        39.100  

  22351093.70644 126352575.83044     -3433.69944        38.600  

  22052282.21604 124782304.32214      -952.79704        38.600  

  22424301.81604 126737277.83414     -2634.10204        38.600  

  22235669.92704 125746012.81014      2962.16004        38.600  

  20682439.36945 117583734.85445      1749.42245        39.200  

  23972172.17504 134871396.27014      2194.59404        37.900  

 06 10 29 01 48 49.0000000  0  9G10G 1G26G22G 6G17G30G21G16                     
  23374098.35444 131728493.64344      3784.11744        38.000  

  19597258.92705 111881071.37015       241.71505        39.800  

  20500176.62945 116625935.24455     -1644.37545        39.100  

  22351747.16644 126356009.84944     -3433.96144        38.500  

  22052463.58604 124783257.35014      -953.27004        38.600  

  22424803.10704 126739912.18414     -2634.39504        38.300  

  22235106.25844 125743050.68654      2962.13344        38.400  

  20682106.48545 117581985.57745      1748.88345        39.400  

  23971754.61304 134869202.08214      2193.80104        37.900  

 06 10 29 01 48 50.0000000  0  9G10G 1G26G22G 6G17G30G21G16                     
  23373378.30944 131724709.70044      3783.73444        38.000  

  19597212.99745 111880829.98455       241.13345        39.600  

  20500489.57545 116627579.84845     -1644.62145        39.300  

  22352400.69944 126359444.17344     -3434.60944        38.300  

  22052645.09444 124784211.14154      -954.17644        38.600  

  22425304.49444 126742546.98954     -2634.70344        38.600  

  22234542.61544 125740088.77044      2962.11744        38.600  

  20681773.71445 117580236.83145      1748.38745        39.200  

  23971337.17144 134867008.42954      2193.40244        37.800  

 06 10 29 01 48 51.0000000  0  9G10G 1G26G22G 6G17G30G21G16                     
  23372658.30204 131720925.96604      3783.38704        38.100  

  19597167.20505 111880589.35105       240.21505        39.700  

  20500802.61205 116629224.91705     -1645.30505        39.100  

  22353054.31104 126362878.87904     -3434.89504        38.600  

  22052826.76604 124785165.76904      -955.16004        38.600  

  22425805.99304 126745182.35004     -2635.51204        38.600  

  22233979.04404 125737127.17004      2961.50004        38.500  

  20681441.04945 117578488.71745      1747.62945        39.200  

  23970919.86744 134864815.43844      2192.71144        37.800  

 06 10 29 01 48 52.0000000  0  9G10G 1G26G22G 6G17G30G21G16                     
  23371938.30604 131717142.35714      3783.56604        38.100  

  19597121.54505 111880349.36015       239.68005        39.600  

  20501115.70305 116630870.27515     -1645.52305        39.200  

  22353707.97404 126366313.85014     -3435.43404        38.200  

  22053008.54104 124786121.09514      -955.62104        38.400  

  22426307.59604 126747818.12814     -2635.98404        38.400  

  22233415.50344 125734165.73954      2961.45744        38.500  

  20681108.48505 117576741.09505      1747.33605        39.200  

  23970502.64104 134862622.98004      2192.01204        37.900  

 06 10 29 01 48 53.0000000  0  9G10G 1G26G22G 6G17G30G21G16                     
  23371218.31044 131713358.85154      3783.39544        37.900  

  19597075.99905 111880109.99215       239.04305        39.600  

  20501428.87205 116632515.95615     -1645.95305        39.300  

  22354361.66704 126369749.06214     -3435.50004        38.600  

  22053190.47944 124787077.12854      -956.16444        38.600  

  22426809.24204 126750454.31014     -2636.53504        38.700  

  22232851.99444 125731204.48944      2960.98044        38.600  

  20680776.02005 117574993.97215      1746.64505        39.100  

  23970085.52804 134860431.05114      2191.41004        38.100  

 06 10 29 01 48 54.0000000  0  9G10G 1G26G22G 6G17G30G21G16                     
  23370498.37104 131709575.54904      3783.27304        38.000  

  19597030.59605 111879871.38815       238.13705        39.500  

  20501742.11105 116634162.07115     -1646.39505        39.400  

  22355015.45004 126373184.66714     -3435.72304        38.500  

  22053372.56744 124788034.02144      -957.38344        38.700  

  22427310.99704 126753091.03714     -2637.09404        38.400  

  22232288.53044 125728243.53444      2960.73844        38.400  

  20680443.70205 117573247.48315      1746.06305        39.300  

  23969668.58604 134858239.74114      2190.86704        37.900  

 06 10 29 01 48 55.0000000  0  9G10G 1G26G22G 6G17G30G21G16                     
  23369778.43804 131705792.43614      3782.81304        38.300  

  19596985.30505 111879633.46715       237.41005        39.600  

  20502055.43505 116635808.55015     -1646.68805        39.100  

  22355669.28904 126376620.57614     -3435.84004        38.500  

  22053554.80044 124788991.65744      -958.06344        38.600  

  22427812.83004 126755728.21414     -2637.32404        38.300  

  22231725.10204 125725282.79504      2960.51204        38.300  

  20680111.45605 117571501.55615      1745.64105        39.100  

  23969251.69144 134856049.01754      2190.49244        37.800  

 06 10 29 01 48 56.0000000  0  9G10G 1G26G22G 6G17G30G21G16                     
  23369058.54844 131702009.43554      3782.96944        38.300  

  19596940.14345 111879396.21355       236.81645        39.700  

  20502368.83045 116637455.37955     -1647.04745        39.000  

  22356323.18344 126380056.79854     -3436.44544        38.200  

  22053737.18444 124789950.05644      -959.00444        38.600  

  22428314.77844 126758365.87254     -2637.93444        38.600  

  22231161.73544 125722322.29354      2960.23044        38.600  

  20679779.30145 117569756.17255      1745.00445        39.200  

  23968834.91944 134853858.83844      2190.04344        37.700  

 06 10 29 01 48 57.0000000  0  9G10G 1G26G22G 6G17G30G21G16                     
  23368338.69104 131698226.53504      3782.96904        38.300  

  19596895.10305 111879159.58205       236.19905        39.600  

  20502682.26805 116639102.49405     -1647.20705        39.200  

  22356977.11744 126383493.26044     -3436.75044        38.300  

  22053919.68244 124790909.11544      -959.64144        38.500  

  22428816.75304 126761003.90004     -2637.98004        38.600  

  22230598.42204 125719361.93704      2960.23004        38.800  

  20679447.25605 117568011.25205      1744.70305        39.200  

  23968418.23744 134851669.16744      2189.50044        37.900  

 06 10 29 01 48 58.0000000  0  9G10G 1G26G22G 6G17G30G21G16                     
  23367618.83844 131694443.74254      3782.66444        38.100  

  19596850.21105 111878923.57615       235.92205        39.600  

  20502995.76705 116640749.95815     -1647.82005        39.200  

  22357631.08204 126386929.98904     -3436.95304        38.500  

  22054102.31904 124791868.89704      -960.20704        38.600  

  22429318.83004 126763642.37314     -2638.53104        38.300  

  22230035.12704 125716401.76514      2959.94504        38.600  

  20679115.29905 117566266.87615      1743.93405        39.000  

  23968001.69944 134849480.05344      2189.03944        38.000  

 06 10 29 01 48 59.0000000  0  9G10G 1G26G22G 6G17G30G21G16                     
  23366899.01104 131690660.99304      3782.73404        37.900  

  19596805.39805 111878688.16415       235.26205        39.700  

  20503309.34105 116642397.66915     -1647.89805        39.100  

  22358285.11204 126390366.93014     -3437.00004        38.600  

  22054285.08004 124792829.36914      -960.93004        38.700  

  22429821.00004 126766281.23414     -2639.08204        38.500  

  22229471.80504 125713441.72914      2959.89804        38.800  

  20678783.44505 117564522.94815      1743.57405        38.900  

  23967585.19604 134847291.40404      2188.46504        37.800  

 06 10 29 01 49  0.0000000  0  9G10G 1G26G22G 6G17G30G21G16                     
  23366179.23204 131686878.44914      3782.53904        38.100  

  19596760.72605 111878453.49015       234.39805        39.700  

  20503622.97805 116644045.76915     -1648.23805        39.300  

  22358939.21704 126393804.22814     -3437.68804        38.600  

  22054468.01304 124793790.62414      -961.62504        38.600  

  22430323.24804 126768920.58614     -2639.94104        38.500  

  22228908.60004 125710481.94014      2959.58604        38.500  

  20678451.65705 117562779.59715      1743.03505        39.100  

  23967168.82704 134845103.37114      2187.52304        37.900  

 06 10 29 01 49  1.0000000  0  9G10G 1G26G22G 6G17G30G21G16                     
  23365459.52604 131683096.17614      3782.44504        38.000  

  19596716.23545 111878219.61655       233.45345        39.600  

  20503936.68705 116645694.36315     -1648.82405        39.200  

  22359593.40644 126397241.94454     -3438.01644        38.400  

  22054651.10804 124794752.76614      -962.70304        38.600  

  22430825.61104 126771560.50914     -2640.29704        38.300  

  22228345.41704 125707522.51414      2959.21104        38.500  

  20678120.03005 117561036.93515      1742.32805        39.200  

  23966752.59004 134842916.01814      2187.04304        37.900  

 06 10 29 01 49  2.0000000  0  9G10G 1G26G22G 6G17G30G21G16                     
  23364739.79544 131679314.03154      3781.95744        38.300  

  19596671.86045 111877986.37345       232.92245        39.600  

  20504250.44945 116647343.30355     -1649.40645        39.300  

  22360247.62544 126400679.91644     -3437.95344        38.300  

  22054834.33444 124795715.60554      -963.20744        38.700  

  22431328.05444 126774200.84454     -2640.64144        38.500  

  22227782.30344 125704563.24054      2959.35544        38.600  

  20677788.52245 117559294.78155      1741.91445        39.200  

  23966336.42144 134840729.17954      2186.66044        38.000  

 06 10 29 01 49  3.0000000  0  9G10G 1G26G22G 6G17G30G21G16                     
  23364020.06204 131675531.91704      3782.10504        38.400  

  19596627.58905 111877753.71505       232.48405        39.600  

  20504564.30145 116648992.47045     -1649.25045        39.300  

  22360901.88404 126404118.11504     -3438.33604        38.500  

  22055017.68804 124796679.12204      -964.01204        38.600  

  22431830.55744 126776841.55544     -2640.89144        38.400  

  22227219.23304 125701604.12504      2959.20704        38.700  

  20677457.09445 117557553.08345      1741.54345        39.200  

  23965920.34804 134838542.83504      2186.20704        37.700  

 06 10 29 01 49  4.0000000  0  9G10G 1G26G22G 6G17G30G21G16                     
  23363300.35404 131671749.95614      3781.93804        38.100  

  19596583.44005 111877521.73915       231.55905        39.700  

  20504878.19205 116650641.99905     -1649.65205        39.400  

  22361556.22304 126407556.60414     -3438.62504        38.400  

  22055201.20304 124797643.36414      -964.66004        38.500  

  22432333.14004 126779482.75504     -2641.74204        38.600  

  22226656.17204 125698645.23314      2958.77704        38.600  

  20677125.77205 117555811.92605      1740.91005        39.100  

  23965504.40804 134836357.05814      2185.48804        38.100  

 06 10 29 01 49  5.0000000  0  9G10G 1G26G22G 6G17G30G21G16                     
  23362580.72504 131667968.21214      3781.75404        37.900  

  19596539.42905 111877290.48015       231.01205        39.700  

  20505192.18105 116652291.92915     -1649.79305        39.000  

  22362210.62104 126410995.45614     -3438.91004        38.500  

  22055384.85744 124798608.44354      -965.41444        38.700  

  22432835.81304 126782124.44614     -2642.13304        38.600  

  22226093.13904 125695686.59614      2958.48004        38.600  

  20676794.57705 117554071.40315      1740.24205        39.300  

  23965088.59704 134834171.92514      2184.40604        37.900  

 06 10 29 01 49  6.0000000  0  9G10G 1G26G22G 6G17G30G21G16                     
  23361861.16204 131664186.74414      3780.96904        38.200  

  19596495.57505 111877060.05915       229.86705        39.600  

  20505506.24945 116653942.38655     -1650.59845        39.000  

  22362865.10204 126414434.75314     -3439.55504        38.600  

  22055568.65504 124799574.40504      -966.27704        38.600  

  22433338.61804 126784766.71514     -2642.62904        38.400  

  22225530.18504 125692728.32314      2958.12504        38.600  

  20676463.48705 117552331.52515      1739.58605        39.100  

  23964672.91604 134831987.44614      2184.16004        38.100  

 06 10 29 01 49  7.0000000  0  9G10G 1G26G22G 6G17G30G21G16                     
  23361141.60604 131660405.55214      3781.12504        38.100  

  19596451.89245 111876830.45655       229.21145        39.600  

  20505820.40145 116655593.33245     -1651.18445        39.300  

  22363519.65904 126417874.51014     -3440.08204        38.500  

  22055752.63404 124800541.27414      -967.22304        38.600  

  22433841.55304 126787409.61414     -2643.17604        38.500  

  22224967.28644 125689770.42054      2957.64544        38.500  

  20676132.54105 117550592.38115      1738.38305        39.100  

  23964257.39004 134829803.72514      2183.19504        37.700  

 06 10 29 01 49  8.0000000  0  9G10G 1G26G22G 6G17G30G21G16                     
  23360422.11944 131656624.58354      3780.98044        38.100  

  19596408.34545 111876601.58545       228.81645        39.600  

  20506134.66745 116657244.69545     -1651.10245        39.300  

  22364174.31644 126421314.63054     -3440.05144        38.600  

  22055936.77904 124801508.95714      -967.89504        38.700  

  22434344.56944 126790053.03254     -2643.45344        38.200  

  22224404.47244 125686812.80844      2957.55944        38.400  

  20675801.70545 117548853.80855      1738.59845        39.100  

  23963841.93044 134827620.60654      2182.98844        38.000  

 06 10 29 01 49  9.0000000  0  9G10G 1G26G22G 6G17G30G21G16                     
  23359702.61944 131652843.68844      3780.96144        37.900  

  19596364.87545 111876373.30245       228.07045        39.800  

  20506448.96645 116658896.35445     -1651.74645        39.100  

  22364828.97604 126424754.95504     -3440.29304        38.400  

  22056121.06004 124802477.31104      -968.82004        38.300  

  22434847.67144 126792696.81744     -2644.04744        38.700  

  22223841.68104 125683855.33004      2957.31604        38.600  

  20675470.96805 117547115.73205      1737.80105        39.200  

  23963426.57004 134825437.99804      2182.25404        38.000  

 06 10 29 01 49 10.0000000  0  9G10G 1G26G22G 6G17G30G21G16                     
  23358983.14844 131649062.84144      3780.50844        38.100  

  19596321.55905 111876145.60005       227.39505        39.600  

  20506763.30305 116660548.23205     -1651.94905        39.100  

  22365483.69204 126428195.48614     -3440.51204        38.600  

  22056305.47504 124803446.29604      -969.26204        38.600  

  22435350.84244 126795340.95344     -2644.53144        38.300  

  22223278.93804 125680897.95714      2957.01204        38.300  

  20675140.30705 117545378.07015      1737.35505        39.100  

  23963011.31304 134823255.84014      2181.74204        38.000  

 06 10 29 01 49 11.0000000  0  9G10G 1G26G22G 6G17G30G21G16                     
  23358263.66744 131645282.00844      3780.76244        38.100  

  19596278.31905 111875918.46715       226.85505        39.700  

  20507077.72305 116662200.37215     -1652.32805        39.100  

  22366138.46304 126431636.21614     -3440.95304        38.400  

  22056489.98704 124804415.93304      -970.05504        38.600  

  22435854.11744 126797985.45344     -2644.85544        38.400  

  22222716.15004 125677940.68114      2957.35904        38.600  

  20674809.72205 117543640.89915      1736.81305        39.100  

  23962596.15104 134821074.12414      2181.28904        37.900  

 06 10 29 01 49 12.0000000  0  9G10G 1G26G22G 6G17G30G21G16                     
  23357544.19644 131641501.18344      3780.75044        38.100  

  19596235.19405 111875691.83415       226.51605        39.700  

  20507392.12145 116663852.71555     -1652.49645        39.200  

  22366793.24604 126435077.08314     -3440.97704        38.400  

  22056674.59204 124805386.18704      -970.58204        38.600  

  22436357.40644 126800630.24744     -2644.90244        38.100  

  22222153.40444 125674983.49054      2957.26644        38.600  

  20674479.20905 117541904.06515      1736.56305        39.200  

  23962181.06104 134818892.83414      2180.86704        37.800  

 06 10 29 01 49 13.0000000  0  9G10G 1G26G22G 6G17G30G21G16                     
  23356824.74144 131637720.47344      3780.57044        38.000  

  19596192.19705 111875465.86615       225.56605        39.600  

  20507706.61645 116665505.38945     -1653.19945        39.200  

  22367448.05904 126438518.22114     -3441.35204        38.600  

  22056859.33604 124806357.12704      -971.38304        38.600  

  22436860.78244 126803275.44244     -2645.25444        38.500  

  22221590.69404 125672026.48804      2956.75004        38.500  

  20674148.79805 117540167.77515      1735.97705        39.200  

  23961766.10204 134816712.06214      2180.67204        37.900  

 06 10 29 01 49 14.0000000  0  9G10G 1G26G22G 6G17G30G21G16                     
  23356105.32344 131633939.89844      3780.44944        38.000  

  19596149.32545 111875240.59455       224.79345        39.600  

  20508021.17645 116667158.40045     -1653.40245        38.900  

  22368102.95844 126441959.66854     -3441.51644        38.300  

  22057044.24644 124807328.86144      -972.33644        38.700  

  22437364.23144 126805921.14744     -2645.86744        38.500  

  22221028.08244 125669069.70254      2956.68844        38.400  

  20673818.47045 117538432.03655      1735.56645        39.300  

  23961351.23544 134814531.90354      2179.60244        37.600  

 06 10 29 01 49 15.0000000  0  9G10G 1G26G22G 6G17G30G21G16                     
  23355385.97204 131630159.60804      3780.17204        38.200  

  19596106.60705 111875016.05105       224.38305        39.700  

  20508335.81405 116668811.87005     -1653.77305        39.300  

  22368757.89804 126445401.49204     -3441.83604        38.300  

  22057229.31805 124808301.39305      -972.80505        38.900  

  22437867.78604 126808567.35804     -2646.18404        38.600  

  22220465.50104 125666113.23404      2956.22304        38.700  

  20673488.28205 117536696.93105      1734.75805        39.100  

  23960936.49404 134812352.36904      2179.10904        37.900  

 06 10 29 01 49 16.0000000  0  9G10G 1G26G22G 6G17G30G21G16                     
  23354666.59304 131626379.44514      3780.32004        38.100  

  19596064.01605 111874792.22615       223.66405        39.500  

  20508650.51405 116670465.70815     -1653.93005        39.100  

  22369412.90104 126448843.65814     -3442.08604        38.200  

  22057414.55904 124809274.71714      -973.43004        38.600  

  22438371.41804 126811214.08414     -2646.95304        38.200  

  22219902.93504 125663157.00214      2956.12104        38.500  

  20673158.20545 117534962.40355      1734.21545        39.100  

  23960521.85104 134810173.43114      2178.54304        37.700  

 06 10 29 01 49 17.0000000  0  9G10G 1G26G22G 6G17G30G21G16                     
  23353947.25444 131622599.37454      3780.21144        38.100  

  19596021.53405 111874569.05415       222.60905        39.700  

  20508965.30105 116672119.84715     -1653.90205        39.200  

  22370067.99504 126452286.09014     -3442.72304        38.500  

  22057599.92304 124810248.76014      -974.33204        38.300  

  22438875.16104 126813861.19014     -2647.37504        38.400  

  22219340.44244 125660200.95254      2955.71144        38.600  

  20672828.24905 117533228.37005      1733.88305        39.000  

  23960107.34144 134807994.99854      2178.47744        38.100  

 06 10 29 01 49 18.0000000  0  9G10G 1G26G22G 6G17G30G21G16                     
  23353227.98144 131618819.57344      3779.43444        38.100  

  19595979.19605 111874346.58215       222.13305        39.700  

  20509280.17005 116673774.45215     -1654.53505        39.100  

  22370723.13444 126455728.86454     -3442.81344        38.400  

  22057785.44404 124811223.61514      -975.34404        38.700  

  22439379.00304 126816508.82414     -2647.71504        38.700  

  22218777.96404 125657245.16304      2955.63304        38.500  

  20672498.37505 117531494.96115      1732.85205        39.100  

  23959692.88144 134805817.22444      2177.83644        38.000  

 06 10 29 01 49 19.0000000  0  9G10G 1G26G22G 6G17G30G21G16                     
  23352508.71304 131615039.85504      3779.75404        37.900  

  19595936.99105 111874124.78515       221.53505        39.600  

  20509595.09805 116675429.35715     -1655.03505        39.300  

  22371378.31904 126459171.91404     -3443.05104        38.200  

  22057971.07504 124812199.18314      -975.88704        38.700  

  22439882.91704 126819156.89214     -2648.10904        38.300  

  22218215.52504 125654289.58114      2955.44504        38.800  

  20672168.60945 117529762.06955      1732.49245        39.100  

  23959278.54204 134803639.98604      2176.87104        38.000  

 06 10 29 01 49 20.0000000  0  9G10G 1G26G22G 6G17G30G21G16                     
  23351789.47644 131611260.31254      3779.50044        38.100  

  19595894.91845 111873903.67555       220.84445        39.600  

  20509910.11445 116677084.63355     -1655.37545        39.000  

  22372033.56644 126462615.31454     -3443.64144        38.500  

  22058156.89004 124813175.53414      -976.61304        38.600  

  22440386.92544 126821805.46054     -2648.90644        38.500  

  22217653.13744 125651334.25754      2955.31344        38.600  

  20671838.96245 117528029.74945      1731.87145        39.100  

  23958864.35944 134801463.32854      2176.49244        37.800  

 06 10 29 01 49 21.0000000  0  9G10G 1G26G22G 6G17G30G21G16                     
  23351070.29904 131607480.93304      3779.28104        38.100  

  19595853.02105 111873683.26305       220.01205        39.700  

  20510225.17105 116678740.28005     -1655.84005        39.200  

  22372688.88804 126466058.98704     -3443.61704        38.300  

  22058342.81904 124814152.65104      -977.43404        38.600  

  22440891.01004 126824454.46504     -2649.21904        38.500  

  22217090.83144 125648379.14444      2955.11744        38.500  

  20671509.42445 117526297.97545      1731.56645        39.000  

  23958450.24604 134799287.25004      2175.72304        38.200  

 06 10 29 01 49 22.0000000  0  9G10G 1G26G22G 6G17G30G21G16                     
  23350351.13304 131603701.69114      3779.11704        38.300  

  19595811.19805 111873463.52515       219.22705        39.600  

  20510540.30805 116680396.27015     -1656.32805        39.200  

  22373344.26804 126469502.99514     -3444.32404        38.300  

  22058528.90004 124815130.50304      -978.28104        38.800  

  22441395.21044 126827103.93954     -2649.85944        38.500  

  22216528.53144 125645424.24344      2954.55944        38.300  

  20671180.00545 117524566.76645      1730.85245        39.100  

  23958036.27304 134797111.74514      2175.22304        37.900  

 06 10 29 01 49 23.0000000  0  9G10G 1G26G22G 6G17G30G21G16                     
  23349632.00504 131599922.58014      3779.09804        38.000  

  19595769.49705 111873244.41115       218.64805        39.600  

  20510855.48405 116682052.62715     -1656.89805        39.300  

  22373999.66804 126472947.26414     -3444.52004        38.300  

  22058715.11544 124816109.08344      -978.86344        38.600  

  22441899.44504 126829753.81304     -2650.02304        38.500  

  22215966.30244 125642469.55444      2954.51644        38.600  

  20670850.65605 117522836.08705      1729.99605        39.100  

  23957622.39904 134794936.77214      2174.66804        37.900  

 06 10 29 01 49 24.0000000  0  9G10G 1G26G22G 6G17G30G21G16                     
  23348912.91204 131596143.57314      3778.95304        38.200  

  19595727.90705 111873025.92515       218.19105        39.700  

  20511170.69505 116683709.23515     -1656.80105        39.100  

  22374655.14104 126476391.75614     -3444.50404        38.600  

  22058901.46544 124817088.36544      -979.57444        38.500  

  22442403.78804 126832404.11214     -2650.41804        38.400  

  22215404.07844 125639515.00844      2954.60944        38.700  

  20670521.40905 117521105.88015      1729.99605        39.100  

  23957208.59704 134792762.32514      2174.10904        37.900  

 06 10 29 01 49 25.0000000  0  9G10G 1G26G22G 6G17G30G21G16                     
  23348193.80604 131592364.62414      3779.09404        38.000  

  19595686.44545 111872808.04655       217.64545        39.700  

  20511485.99105 116685366.15915     -1657.25805        39.200  

  22375310.66004 126479836.50814     -3444.72704        38.500  

  22059087.94004 124818068.34704      -980.34004        38.800  

  22442908.19004 126835054.80014     -2650.74204        38.300  

  22214841.91544 125636560.62344      2954.41044        38.700  

  20670192.25005 117519376.14315      1729.60205        39.000  

  23956794.89604 134790588.35014      2173.72704        38.100  

 06 10 29 01 49 26.0000000  0  9G10G 1G26G22G 6G17G30G21G16                     
  23347474.74104 131588585.82614      3778.74604        38.100  

  19595645.10705 111872590.84805       217.07005        39.700  

  20511801.35505 116687023.43015     -1657.43805        39.300  

  22375966.23704 126483281.55914     -3445.21504        38.300  

  22059274.57104 124819049.04214      -980.94504        38.500  

  22443412.68304 126837705.92814     -2651.04704        38.500  

  22214279.76844 125633606.45944      2954.19544        38.600  

  20669863.21105 117517646.95715      1729.07805        38.900  

  23956381.31844 134788414.95754      2173.00844        38.000  

 06 10 29 01 49 27.0000000  0  9G10G 1G26G22G 6G17G30G21G16                     
  23346755.70004 131584807.18114      3778.44104        38.300  

  19595603.89105 111872374.32815       216.12905        39.700  

  20512116.81405 116688681.03815     -1657.72305        39.100  

  22376621.87004 126486726.88314     -3445.59404        38.400  

  22059461.33204 124820030.51614      -981.75004        38.600  

  22443917.25444 126840357.51754     -2651.75844        38.400  

  22213717.64504 125630652.51204      2953.73004        38.500  

  20669534.25405 117515918.33705      1728.41805        39.400  

  23955967.84244 134786242.12544      2172.41844        38.000  

 06 10 29 01 49 28.0000000  0  9G10G 1G26G22G 6G17G30G21G16                     
  23346036.69804 131581028.70314      3778.55904        38.000  

  19595562.84605 111872158.50715       215.13705        39.700  

  20512432.35705 116690339.02315     -1658.03105        39.300  

  22377277.55104 126490172.51814     -3445.36304        38.400  

  22059648.22204 124821012.73314      -982.44504        38.600  

  22444421.91344 126843009.57044     -2652.23844        38.500  

  22213155.55704 125627698.80914      2953.47704        38.600  

  20669205.38604 117514190.27804      1727.88704        38.800  

  23955554.49544 134784069.88344      2171.98844        37.800  

 06 10 29 01 49 29.0000000  0  9G10G 1G26G22G 6G17G30G21G16                     
  23345317.72404 131577250.32514      3778.19104        38.000  

  19595521.92205 111871943.29215       214.80505        39.600  

  20512747.91405 116691997.34315     -1658.66405        39.400  

  22377933.28604 126493618.44214     -3445.95704        38.600  

  22059835.25944 124821995.67654      -983.31344        38.700  

  22444926.66104 126845662.04304     -2652.49204        38.500  

  22212593.48604 125624745.26014      2953.38304        38.800  

  20668876.67005 117512462.73505      1727.38305        39.000  

  23955141.24944 134781898.14944      2171.40644        37.900  

 06 10 29 01 49 30.0000000  0  9G10G 1G26G22G 6G17G30G21G16                     
  23344598.73204 131573472.06914      3778.29304        38.100  

  19595481.09405 111871728.73715       214.33605        39.700  

  20513063.54705 116693655.95015     -1658.63705        39.400  

  22378589.07804 126497064.63014     -3446.18004        38.600  

  22060022.42944 124822979.33044      -983.69944        38.700  

  22445431.48504 126848314.96214     -2653.05904        38.300  

  22212031.49404 125621791.91914      2953.30104        38.500  

  20668548.03005 117510735.69705      1726.70305        38.900  

  23954728.08104 134779726.97604      2171.06604        37.800  

 06 10 29 01 49 31.0000000  0  9G10G 1G26G22G 6G17G30G21G16                     
  23343879.78144 131569693.99954      3778.02044        38.100  

  19595440.39505 111871514.88515       213.38705        39.600  

  20513379.22205 116695314.96815     -1659.06605        39.200  

  22379244.92244 126500511.15454     -3446.75044        38.600  

  22060209.77044 124823963.79044      -984.92244        38.700  

  22445936.37904 126850968.34314     -2653.66004        38.300  

  22211469.53844 125618838.82154      2953.01644        38.300  

  20668219.50905 117509009.24305      1726.02705        38.900  

  23954315.04404 134777556.40214      2170.06304        37.700  

 06 10 29 01 49 32.0000000  0  9G10G 1G26G22G 6G17G30G21G16                     
  23343160.86404 131565916.26204      3777.72704        38.200  

  19595399.85845 111871301.91655       212.53145        39.600  

  20513695.02545 116696974.53855     -1659.48845        39.200  

  22379900.87744 126503958.16744     -3447.23444        38.500  

  22060397.27644 124824949.16344      -985.68044        38.700  

  22446441.45444 126853622.38454     -2654.60544        38.500  

  22210907.66444 125615886.13944      2952.68844        38.500  

  20667891.11705 117507283.53905      1725.18805        39.100  

  23953902.13144 134775386.58254      2169.59044        37.900  

 06 10 29 01 49 33.0000000  0  9G10G 1G26G22G 6G17G30G21G16                     
  23342442.03104 131562138.77314      3777.65204        38.100  

  19595359.47245 111871089.68445       211.74645        39.700  

  20514010.88745 116698634.54545     -1660.32845        39.100  

  22380556.89844 126507405.56044     -3447.90644        38.200  

  22060584.97404 124825935.38704      -986.65604        38.600  

  22446946.62044 126856276.95144     -2654.97344        38.300  

  22210345.84844 125612933.76344      2952.39844        38.400  

  20667562.86005 117505558.46215      1724.94905        39.100  

  23953489.38704 134773217.40004      2168.91004        37.900  

 06 10 29 01 49 34.0000000  0  9G10G 1G26G22G 6G17G30G21G16                     
  23341723.23504 131558361.45614      3777.32804        38.100  

  19595319.22345 111870878.15545       211.18445        39.600  

  20514326.85145 116700294.92045     -1660.43445        39.000  

  22381212.98744 126510853.25744     -3447.73044        38.500  

  22060772.76244 124826922.36154      -987.13744        38.500  

  22447451.83444 126858931.98444     -2655.29344        38.400  

  22209784.09144 125609981.62744      2952.06644        38.600  

  20667234.68805 117503833.93915      1724.25405        39.300  

  23953076.73704 134771048.81914      2168.28504        37.800  

 06 10 29 01 49 35.0000000  0  9G10G 1G26G22G 6G17G30G21G16                     
  23341004.45704 131554584.28114      3777.09404        38.100  

  19595279.10345 111870667.29845       210.60245        39.800  

  20514642.87845 116701955.66445     -1660.96145        39.100  

  22381869.10544 126514301.26844     -3447.97344        38.500  

  22060960.72204 124827910.12404      -988.11704        38.700  

  22447957.18044 126861587.50644     -2655.99244        38.600  

  22209222.40104 125607029.71104      2952.03904        38.600  

  20666906.60805 117502109.98915      1723.77005        39.100  

  23952664.17804 134768880.83314      2167.75004        38.000  

 06 10 29 01 49 36.0000000  0  9G10G 1G26G22G 6G17G30G21G16                     
  23340285.68404 131550807.18114      3777.04304        38.000  

  19595239.09645 111870457.04545       210.27345        39.700  

  20514958.93145 116703616.65545     -1661.20345        39.400  

  22382525.28644 126517749.49144     -3448.21944        38.600  

  22061148.80104 124828898.53314      -988.83204        38.600  

  22448462.56944 126864243.36644     -2656.25444        38.300  

  22208660.68244 125604077.92454      2951.81644        38.700  

  20666578.63845 117500386.49855      1723.32845        39.000  

  23952251.70904 134766713.28814      2167.26604        37.700  

 06 10 29 01 49 37.0000000  0  9G10G 1G26G22G 6G17G30G21G16                     
  23339566.94304 131547030.17614      3776.78504        38.300  

  19595199.20845 111870247.42345       209.42245        39.600  

  20515275.07205 116705277.96705     -1661.42205        39.100  

  22383181.49444 126521197.98644     -3448.71944        38.300  

  22061337.04204 124829887.64114      -989.55504        38.600  

  22448968.01844 126866899.63944     -2656.48444        38.600  

  22208099.02504 125601126.31804      2951.59804        38.600  

  20666250.79245 117498663.50145      1722.90645        39.200  

  23951839.35304 134764546.30014      2166.45704        37.900  

 06 10 29 01 49 38.0000000  0  9G10G 1G26G22G 6G17G30G21G16                     
  23338848.24344 131543253.17954      3776.99644        38.200  

  19595159.42445 111870038.32945       208.75845        39.500  

  20515591.23945 116706939.48855     -1661.65645        39.100  

  22383837.74644 126524646.62544     -3448.94144        38.200  

  22061525.36244 124830877.35854      -990.02044        38.800  

  22449473.56644 126869556.23044     -2656.91844        38.500  

  22207537.36844 125598174.78254      2951.66844        38.400  

  20665923.00945 117496940.93345      1722.19145        39.200  

  23951427.06744 134762379.71154      2166.38344        37.800  

 06 10 29 01 49 39.0000000  0  9G10G 1G26G22G 6G17G30G21G16                     
  23338129.53344 131539476.33044      3776.90244        38.300  

  19595119.77705 111869829.91605       208.17605        39.500  

  20515907.48305 116708601.39605     -1662.28505        39.300  

  22384494.03844 126528095.56944     -3449.05544        38.300  

  22061713.83705 124831867.85305      -990.92605        38.900  

  22449979.19304 126872213.26604     -2657.09004        38.400  

  22206975.76904 125595223.49604      2951.33204        38.300  

  20665595.30305 117495218.92505      1721.78505        39.100  

  23951014.88444 134760213.70644      2165.82844        37.900  

 06 10 29 01 49 40.0000000  0  9G10G 1G26G22G 6G17G30G21G16                     
  23337410.84844 131535699.62444      3776.81644        37.900  

  19595080.23345 111869622.16655       207.32045        39.600  

  20516223.78005 116710263.59415     -1662.09805        39.200  

  22385150.43344 126531544.80944     -3449.48044        38.500  

  22061902.46404 124832859.06314      -991.59004        38.700  

  22450484.90804 126874870.78814     -2657.97304        38.600  

  22206414.20504 125592272.41814      2950.78904        38.400  

  20665267.70405 117493497.43615      1721.24205        39.000  

  23950602.79944 134758048.26644      2165.24644        37.800  

 06 10 29 01 49 41.0000000  0  9G10G 1G26G22G 6G17G30G21G16                     
  23336692.19244 131531923.12544      3776.36744        38.000  

  19595040.82745 111869415.09945       206.86345        39.600  

  20516540.15905 116711926.21915     -1662.77705        39.300  

  22385806.83004 126534994.34904     -3449.67204        38.200  

  22062091.18504 124833851.05014      -992.33204        38.500  

  22450990.70304 126877528.73814     -2658.41804        38.600  

  22205852.68304 125589321.56514      2950.62904        38.500  

  20664940.22745 117491776.50355      1720.62945        39.200  

  23950190.82544 134755883.42444      2164.65644        37.800  

 06 10 29 01 49 42.0000000  0  9G10G 1G26G22G 6G17G30G21G16                     
  23335973.56744 131528146.81244      3776.19944        38.100  

  19595001.58505 111869208.80405       205.87905        39.800  

  20516856.62305 116713589.25915     -1663.13705        39.200  

  22386463.33904 126538444.27614     -3450.15204        38.400  

  22062280.12904 124834843.87214      -993.30504        38.600  

  22451496.61104 126880187.21514     -2658.66804        38.600  

  22205291.20104 125586370.99414      2950.63304        38.500  

  20664612.86645 117490056.20645      1720.17245        39.200  

  23949778.95744 134753719.19344      2164.03944        37.900  

 06 10 29 01 49 43.0000000  0  9G10G 1G26G22G 6G17G30G21G16                     
  23335254.98504 131524370.67804      3775.93404        37.900  

  19594962.47505 111869003.16315       205.33605        39.900  

  20517173.15945 116715252.62555     -1663.66045        39.300  

  22387119.89604 126541894.49314     -3450.51204        38.300  

  22062469.22804 124835837.41814      -993.93404        38.500  

  22452002.56704 126882846.15414     -2659.05904        38.500  

  22204729.78904 125583420.64314      2950.24204        38.500  

  20664285.60545 117488336.47545      1719.37945        39.200  

  23949367.24404 134751555.54404      2163.35904        37.800  

 06 10 29 01 49 44.0000000  0  9G10G 1G26G22G 6G17G30G21G16                     
  23334536.41744 131520594.69654      3775.80144        38.100  

  19594923.49445 111868798.24655       204.53145        39.600  

  20517489.78145 116716916.40245     -1664.02345        39.300  

  22387776.52644 126545345.04254     -3450.64544        38.400  

  22062658.42744 124836831.77654      -994.88744        38.600  

  22452508.66344 126885505.57354     -2659.56344        38.400  

  22204168.43044 125580470.58454      2949.52744        38.700  

  20663958.45045 117486617.31645      1718.81645        39.200  

  23948955.64444 134749392.50654      2162.76644        38.000  

 06 10 29 01 49 45.0000000  0  9G10G 1G26G22G 6G17G30G21G16                     
  23333817.92604 131516818.87404      3775.94904        38.000  

  19594884.62105 111868593.99205       204.11305        39.700  

  20517806.47005 116718580.53605     -1664.16405        38.900  

  22388433.19504 126548795.89404     -3450.78504        38.500  

  22062847.79604 124837826.85904      -995.16004        38.600  

  22453014.80304 126888165.45704     -2659.58204        38.500  

  22203607.06704 125577520.69104      2950.09004        38.500  

  20663631.41545 117484898.71845      1718.52345        39.100  

  23948544.12204 134747230.03804      2162.11704        37.900  

 06 10 29 01 49 46.0000000  0  9G10G 1G26G22G 6G17G30G21G16                     
  23333099.42704 131513043.14514      3775.60204        38.100  

  19594845.86605 111868390.35415       203.46505        39.600  

  20518123.20805 116720244.95315     -1664.56305        39.100  

  22389089.93004 126552246.98914     -3451.13304        38.300  

  22063037.31204 124838822.67414      -996.34004        38.700  

  22453521.05004 126890825.76214     -2660.54704        38.300  

  22203045.76004 125574571.00514      2949.41004        38.600  

  20663304.47645 117483180.59945      1717.90645        39.300  

  23948132.69404 134745068.08414      2161.46504        37.900  

 06 10 29 01 49 47.0000000  0  9G10G 1G26G22G 6G17G30G21G16                     
  23332380.97504 131509267.63214      3775.50404        38.100  

  19594807.24505 111868187.47215       202.28505        39.500  

  20518440.02605 116721909.76415     -1665.03905        39.400  

  22389746.71604 126555698.43514     -3451.64504        38.500  

  22063226.94404 124839819.25314      -996.96504        38.300  

  22454027.40204 126893486.56614     -2661.41804        38.500  

  22202484.52844 125571621.57854      2949.22344        38.300  

  20662977.64905 117481463.08905      1717.18005        39.300  

  23947721.44144 134742906.75954      2160.56344        37.800  

 06 10 29 01 49 48.0000000  0  9G10G 1G26G22G 6G17G30G21G16                     
  23331662.53604 131505492.29014      3775.10904        38.000  

  19594768.76805 111867985.24415       201.99205        39.600  

  20518756.94105 116723574.97015     -1665.25805        39.200  

  22390403.53304 126559150.19714     -3451.99204        38.400  

  22063416.72944 124840816.60754      -997.49644        38.500  

  22454533.78804 126896147.78614     -2661.20304        38.300  

  22201923.30844 125568672.36844      2949.35544        38.500  

  20662650.92105 117479746.14915      1716.71105        39.000  

  23947310.23944 134740745.99044      2160.29744        38.200  

 06 10 29 01 49 49.0000000  0  9G10G 1G26G22G 6G17G30G21G16                     
  23330944.14504 131501717.05614      3775.17204        38.100  

  19594730.39305 111867783.67615       201.24605        39.400  

  20519073.91745 116725240.50155     -1665.67645        39.300  

  22391060.45904 126562602.21714     -3452.00804        38.400  

  22063606.63244 124841814.68844      -998.43844        38.700  

  22455040.28704 126898809.45814     -2662.01204        38.400  

  22201362.17544 125565723.38544      2948.82444        38.500  

  20662324.31405 117478029.71315      1716.24205        39.100  

  23946899.18204 134738585.74904      2160.11304        37.900  

 06 10 29 01 49 50.0000000  0  9G10G 1G26G22G 6G17G30G21G16                     
  23330225.75844 131497941.97954      3774.88344        37.700  

  19594692.14905 111867582.78115       200.73805        39.700  

  20519390.94605 116726906.39405     -1665.83205        39.400  

  22391717.39604 126566054.54914     -3452.43004        38.400  

  22063796.69704 124842813.52904      -999.42604        38.600  

  22455546.86904 126901471.58714     -2662.35904        38.300  

  22200801.00244 125562774.58944      2948.83644        38.600  

  20661997.79705 117476313.85515      1715.62105        39.000  

  23946488.23744 134736426.12454      2159.25044        37.800  

 06 10 29 01 49 51.0000000  0  9G10G 1G26G22G 6G17G30G21G16                     
  23329507.39804 131494167.12504      3774.80904        37.900  

  19594654.07905 111867382.62315       199.91405        39.600  

  20519708.02705 116728572.68815     -1666.63305        39.200  

  22392374.42904 126569507.22914     -3452.57404        38.400  

  22063986.93704 124843813.15414     -1000.09804        38.600  

  22456053.56444 126904134.22654     -2662.82844        38.600  

  22200239.92604 125559826.09304      2948.30504        38.700  

  20661671.39205 117474598.60315      1714.84005        38.900  

  23946077.41244 134734267.11644      2158.93444        37.800  

 06 10 29 01 49 52.0000000  0  9G10G 1G26G22G 6G17G30G21G16                     
  23328789.10904 131490392.37914      3774.61704        38.300  

  19594616.13505 111867183.11015       199.37905        39.500  

  20520025.16605 116730239.31215     -1666.78905        39.200  

  22393031.51804 126572960.20514     -3453.05104        38.500  

  22064177.31544 124844813.52754     -1000.72744        38.500  

  22456560.34144 126906797.30844     -2663.22744        38.600  

  22199678.90504 125556877.79114      2948.19504        38.400  

  20661345.05805 117472883.84615      1714.72305        39.100  

  23945666.66844 134732108.64144      2158.50444        38.100  

 06 10 29 01 49 53.0000000  0  9G10G 1G26G22G 6G17G30G21G16                     
  23328070.83404 131486617.77214      3774.27304        38.100  

  19594578.31005 111866984.26015       198.46905        39.700  

  20520342.38905 116731906.26515     -1666.97705        39.300  

  22393688.66144 126576413.44054     -3453.47344        38.500  

  22064367.82604 124845814.63204     -1001.71904        38.500  

  22457067.15204 126909460.80504     -2663.80904        38.400  

  22199117.90104 125553929.69614      2947.96104        38.800  

  20661018.87305 117471169.66015      1713.82005        39.200  

  23945255.99944 134729950.73744      2157.55944        37.900  

 06 10 29 01 49 54.0000000  0  9G10G 1G26G22G 6G17G30G21G16                     
  23327352.57304 131482843.31114      3774.74604        38.000  

  19594540.60805 111866786.10115       197.63705        39.600  

  20520659.64345 116733573.57855     -1667.54745        39.200  

  22394345.84604 126579866.95804     -3453.48804        38.700  

  22064558.48104 124846816.47114     -1002.21904        38.400  

  22457574.03404 126912124.74714     -2664.01204        38.600  

  22198556.93104 125550981.80314      2947.62104        38.500  

  20660692.78905 117469456.00015      1713.46105        39.000  

  23944845.47344 134727793.36044      2157.26644        37.800  

 06 10 29 01 49 55.0000000  0  9G10G 1G26G22G 6G17G30G21G16                     
  23326634.34304 131479069.01114      3774.19504        38.200  

  19594503.04405 111866588.57215       197.16405        39.600  

  20520976.99945 116735241.23345     -1667.76645        39.000  

  22395003.09704 126583320.79814     -3454.10204        38.500  

  22064749.26804 124847819.03114     -1002.77704        38.500  

  22458081.03204 126914789.13814     -2664.63704        38.600  

  22197995.99304 125548034.12614      2947.50804        38.700  

  20660366.78805 117467742.88815      1712.89805        39.200  

  23944435.05204 134725636.57204      2156.91804        38.000  

 06 10 29 01 49 56.0000000  0  9G10G 1G26G22G 6G17G30G21G16                     
  23325916.15044 131475294.77554      3774.01244        38.200  

  19594465.53445 111866391.64355       196.55545        39.700  

  20521294.41745 116736909.14745     -1668.14845        39.100  

  22395660.38944 126586774.82054     -3454.07844        38.500  

  22064940.17744 124848822.28254     -1003.51244        38.700  

  22458588.13144 126917453.88754     -2664.87144        38.500  

  22197435.07344 125545086.59754      2947.16844        38.300  

  20660040.89045 117466030.23855      1712.48845        39.000  

  23944024.71944 134723480.27454      2155.80144        37.800  

 06 10 29 01 49 57.0000000  0  9G10G 1G26G22G 6G17G30G21G16                     
  23325197.96304 131471520.63404      3773.89104        38.400  

  19594428.17005 111866195.34505       196.22305        39.700  

  20521611.87745 116738577.41445     -1668.59045        39.300  

  22396317.74004 126590229.11704     -3454.54704        38.500  

  22065131.22104 124849826.24404     -1004.28104        38.400  

  22459095.29204 126920119.05804     -2665.39804        38.300  

  22196874.16244 125542139.22044      2947.45744        38.600  

  20659715.08605 117464318.10705      1711.97705        39.300  

  23943614.49704 134721324.48604      2155.68404        37.800  

 06 10 29 01 49 58.0000000  0  9G10G 1G26G22G 6G17G30G21G16                     
  23324479.78204 131467746.59414      3774.00804        38.000  

  19594390.95005 111865999.66115       195.45705        39.700  

  20521929.37945 116740245.92345     -1668.88745        39.100  

  22396975.10904 126593683.64314     -3454.92604        38.500  

  22065322.38804 124850830.90014     -1005.30904        38.600  

  22459602.51004 126922784.62314     -2665.71104        38.400  

  22196313.34604 125539192.01904      2947.13304        38.500  

  20659389.37705 117462606.45015      1711.40205        39.400  

  23943204.36144 134719169.23254      2155.07044        37.800  

 06 10 29 01 49 59.0000000  0  9G10G 1G26G22G 6G17G30G21G16                     
  23323761.63604 131463972.74314      3774.08604        38.200  

  19594353.87305 111865804.73415       194.61305        39.600  

  20522246.99945 116741914.86945     -1669.10945        39.300  

  22397632.58704 126597138.52714     -3455.11704        38.700  

  22065513.71004 124851836.33114     -1005.84804        38.600  

  22460109.87004 126925450.67014     -2666.18804        38.300  

  22195752.55004 125536245.10414      2946.80104        38.600  

  20659063.78705 117460895.40315      1710.87505        39.100  

  23942794.35544 134717014.57444      2154.34444        37.800  

 06 10 29 01 50  0.0000000  0  9G10G 1G26G22G 6G17G30G21G16                     
  23323043.53344 131460199.04854      3773.80144        38.200  

  19594316.88505 111865610.40115       193.96505        39.600  

  20522564.60745 116743584.12445     -1669.47345        39.400  

  22398290.08804 126600593.65914     -3455.14804        38.400  

  22065705.17344 124852842.50254     -1006.57044        38.700  

  22460617.28404 126928117.14414     -2666.45304        38.200  

  22195191.81404 125533298.36114      2946.78104        38.600  

  20658738.25605 117459184.89515      1710.13305        39.200  

  23942384.45804 134714860.48204      2153.67604        37.900  

 06 10 29 01 50  1.0000000  0  9G10G 1G26G22G 6G17G30G21G16                     
  23322325.48144 131456425.58944      3773.51244        38.100  

  19594280.05005 111865416.87515       193.43405        39.600  

  20522882.32645 116745253.83045     -1669.85245        39.300  

  22398947.65104 126604049.21214     -3455.56304        38.600  

  22065896.79144 124853849.52144     -1007.37144        38.500  

  22461124.81204 126930784.19914     -2667.10504        38.300  

  22194631.13544 125530351.96554      2946.18044        38.600  

  20658412.87405 117457475.03515      1709.37505        39.200  

  23941974.69604 134712707.05114      2153.14104        37.800  

 06 10 29 01 50  2.0000000  0  9G10G 1G26G22G 6G17G30G21G16                     
  23321607.41644 131452652.19644      3773.28544        38.100  

  19594243.33545 111865223.92755       192.60545        39.500  

  20523200.09945 116746923.78845     -1669.93845        39.200  

  22399605.24844 126607504.93754     -3455.84044        38.600  

  22066088.53944 124854857.17144     -1007.77044        38.500  

  22461632.42944 126933451.57154     -2667.38344        38.500  

  22194070.47344 125527405.63844      2946.30544        38.600  

  20658087.56845 117455765.60555      1708.97345        39.200  

  23941564.96844 134710554.08054      2152.71944        37.900  

 06 10 29 01 50  3.0000000  0  9G10G 1G26G22G 6G17G30G21G16                     
  23320889.38844 131448878.89944      3773.22344        38.100  

  19594206.73705 111865031.61705       191.88705        39.300  

  20523517.92705 116748594.10805     -1670.90205        39.300  

  22400262.90704 126610960.94504     -3456.09004        38.400  

  22066280.43744 124855865.58044     -1008.75844        38.700  

  22462140.11604 126936119.40204     -2668.50804        38.500  

  22193509.83704 125524459.55704      2946.13304        38.600  

  20657762.40305 117454056.72705      1708.37905        39.300  

  23941155.36204 134708401.67104      2151.79304        37.900  

 06 10 29 01 50  4.0000000  0  9G10G 1G26G22G 6G17G30G21G16                     
  23320171.41444 131445105.83144      3773.13744        38.300  

  19594170.29005 111864840.02715       191.38705        39.700  

  20523835.82205 116750264.80515     -1671.00005        39.500  

  22400920.62304 126614417.31914     -3456.32004        38.600  

  22066472.48144 124856874.76744     -1009.56644        38.700  

  22462647.89704 126938787.71414     -2668.57004        38.500  

  22192949.24604 125521513.73914      2945.55904        38.800  

  20657437.32205 117452348.43215      1708.00805        39.100  

  23940745.88604 134706249.87714      2151.13304        37.800  

 06 10 29 01 50  5.0000000  0  9G10G 1G26G22G 6G17G30G21G16                     
  23319453.43944 131441332.98144      3772.94144        38.200  

  19594133.96705 111864649.21115       190.18005        39.700  

  20524153.81505 116751935.92715     -1671.47705        39.400  

  22401578.39104 126617874.04414     -3456.80104        38.500  

  22066664.68804 124857884.77104     -1010.39504        38.700  

  22463155.77204 126941456.52114     -2668.85904        38.700  

  22192388.73304 125518568.21414      2945.28504        38.400  

  20657112.36445 117450640.76455      1707.39845        39.000  

  23940336.54704 134704098.69814      2150.96104        37.900  

 06 10 29 01 50  6.0000000  0  9G10G 1G26G22G 6G17G30G21G16                     
  23318735.52644 131437560.26944      3772.77044        38.200  

  19594097.78605 111864459.02115       189.70705        39.800  

  20524471.88205 116753607.38415     -1671.73805        39.100  

  22402236.23204 126621331.07514     -3457.16804        38.600  

  22066857.04304 124858895.51314     -1010.86304        38.700  

  22463663.73704 126944125.80414     -2669.66004        38.600  

  22191828.23204 125515622.88314      2945.22304        38.500  

  20656787.48805 117448933.64305      1706.79305        39.100  

  23939927.27104 134701948.12814      2150.22704        38.000  

 06 10 29 01 50  7.0000000  0  9G10G 1G26G22G 6G17G30G21G16                     
  23318017.63144 131433787.73044      3772.66844        38.000  

  19594061.70705 111864269.53015       189.23005        39.600  

  20524790.02045 116755279.22855     -1671.95345        39.200  

  22402894.15104 126624788.39414     -3457.55504        38.600  

  22067049.53744 124859907.02554     -1011.78544        38.700  

  22464171.78304 126946795.52714     -2670.04304        38.600  

  22191267.79604 125512677.77414      2945.19904        38.600  

  20656462.72545 117447227.07955      1706.48045        39.300  

  23939518.14404 134699798.10814      2149.87904        38.000  

 06 10 29 01 50  8.0000000  0  9G10G 1G26G22G 6G17G30G21G16                     
  23317299.80444 131430015.32044      3772.50044        38.100  

  19594025.77945 111864080.68355       188.66045        39.700  

  20525108.20805 116756951.38505     -1672.26205        39.200  

  22403552.11844 126628245.98454     -3457.88744        38.300  

  22067242.17544 124860919.25944     -1012.73044        38.500  

  22464679.89944 126949465.68454     -2670.54744        38.400  

  22190707.39544 125509732.89254      2944.59444        38.500  

  20656138.06745 117445521.03545      1705.74645        39.200  

  23939109.09344 134697648.63454      2148.95744        38.100  

 06 10 29 01 50  9.0000000  0  9G10G 1G26G22G 6G17G30G21G16                     
  23316581.96204 131426243.07604      3772.21104        38.100  

  19593989.96445 111863892.53345       187.88745        39.600  

  20525426.46605 116758623.90815     -1672.81605        39.100  

  22404210.14904 126631703.88604     -3458.27304        38.600  

  22067434.94544 124861932.25544     -1013.48044        38.700  

  22465188.08504 126952136.30504     -2670.99204        38.500  

  22190147.01304 125506788.22704      2944.52704        38.400  

  20655813.55405 117443815.58105      1704.95705        39.200  

  23938700.17104 134695499.74704      2148.66804        38.100  

 06 10 29 01 50 10.0000000  0  9G10G 1G26G22G 6G17G30G21G16                     
  23315864.19004 131422471.11014      3771.63704        38.400  

  19593954.33345 111863705.14345       187.06645        39.500  

  20525744.80805 116760296.88415     -1673.29705        39.100  

  22404868.24704 126635162.17214     -3458.42604        38.400  

  22067627.90304 124862946.08904     -1014.34804        38.800  

  22465696.36404 126954807.45114     -2671.22304        38.300  

  22189586.69604 125503843.87314      2944.23804        38.700  

  20655489.16305 117442110.76215      1704.62505        39.100  

  23938291.36804 134693351.52114      2147.91004        37.900  

 06 10 29 01 50 11.0000000  0  9G10G 1G26G22G 6G17G30G21G16                     
  23315146.47244 131418699.30154      3771.73444        38.300  

  19593918.83445 111863518.50245       186.36745        39.600  

  20526063.23505 116761970.28615     -1673.79705        39.100  

  22405526.40904 126638620.82614     -3458.76604        38.600  

  22067820.99204 124863960.75914     -1015.26204        38.400  

  22466204.76444 126957479.15254     -2671.98044        38.600  

  22189026.44204 125500899.82714      2943.73004        38.200  

  20655164.80805 117440406.56315      1703.85205        39.100  

  23937882.68504 134691203.93214      2147.22304        37.900  

 06 10 29 01 50 12.0000000  0  9G10G 1G26G22G 6G17G30G21G16                     
  23314428.74644 131414927.70544      3771.58644        38.200  

  19593883.47645 111863332.56045       185.60245        39.500  

  20526381.72945 116763644.04255     -1673.90245        39.100  

  22406184.63404 126642079.79714     -3459.27304        38.600  

  22068014.21644 124864976.16154     -1015.90644        38.600  

  22466713.25544 126960151.27344     -2672.44944        38.500  

  22188466.26144 125497955.97754      2943.91044        38.600  

  20654840.63105 117438702.92115      1703.35905        39.300  

  23937474.09804 134689056.94214      2146.65604        37.700  

 06 10 29 01 50 13.0000000  0  9G10G 1G26G22G 6G17G30G21G16                     
  23313711.07204 131411156.27204      3771.31604        38.100  

  19593848.21805 111863147.30005       184.71905        39.500  

  20526700.32205 116765318.17305     -1674.22305        39.300  

  22406842.92004 126645539.09214     -3459.39504        38.400  

  22068207.57304 124865992.35104     -1016.62504        38.600  

  22467221.84644 126962823.92744     -2673.40644        38.200  

  22187906.15444 125495012.43244      2943.35544        38.500  

  20654516.54605 117436999.86715      1702.84005        38.900  

  23937065.66704 134686910.54714      2146.01604        37.800  

 06 10 29 01 50 14.0000000  0  9G10G 1G26G22G 6G17G30G21G16                     
  23312993.42944 131407385.08454      3770.96944        38.100  

  19593813.10805 111862962.78515       184.13305        39.700  

  20527018.97445 116766992.74255     -1674.66845        39.100  

  22407501.24144 126648998.73854     -3459.76244        38.500  

  22068401.11704 124867009.35714     -1017.53104        38.800  

  22467730.52444 126965497.01644     -2673.19944        38.600  

  22187346.09244 125492069.12244      2943.33244        38.200  

  20654192.57705 117435297.40515      1702.28105        39.300  

  23936657.33644 134684764.77554      2145.22344        37.800  

 06 10 29 01 50 15.0000000  0  9G10G 1G26G22G 6G17G30G21G16                     
  23312275.80904 131403613.93804      3771.34004        38.100  

  19593778.09805 111862778.85515       183.72305        39.700  

  20527337.72904 116768667.57704     -1674.90204        38.800  

  22408159.63544 126652458.60044     -3459.75044        38.300  

  22068594.78904 124868027.02814     -1017.77304        38.800  

  22468239.26844 126968170.53744     -2673.79744        38.100  

  22186786.05544 125489125.98544      2943.15244        38.600  

  20653868.65305 117433595.43615      1701.84805        39.200  

  23936249.10704 134682619.53504      2144.98804        38.100  

 06 10 29 01 50 16.0000000  0  9G10G 1G26G22G 6G17G30G21G16                     
  23311558.22804 131399842.91014      3771.14504        38.200  

  19593743.21705 111862595.55615       183.02005        39.800  

  20527656.48005 116770342.72015     -1675.43405        39.100  

  22408818.07644 126655918.72644     -3460.28944        38.300  

  22068788.59304 124869045.39914     -1018.63704        38.500  

  22468748.10944 126970844.41944     -2674.07044        38.600  

  22186226.01244 125486183.01444      2942.68844        38.600  

  20653544.85005 117431893.97515      1701.29705        39.100  

  23935840.96104 134680474.75814      2144.33204        37.600  

 06 10 29 01 50 17.0000000  0  9G10G 1G26G22G 6G17G30G21G16                     
  23310840.61644 131396072.01754      3770.71544        38.300  

  19593708.45105 111862412.90015       182.37505        39.600  

  20527975.27905 116772018.16315     -1675.54705        39.400  

  22409476.55344 126659379.10344     -3460.59444        38.300  

  22068982.53404 124870064.50614     -1019.50404        38.700  

  22469257.03044 126973518.76344     -2674.75044        38.500  

  22185666.00904 125483240.21804      2942.80504        38.500  

  20653221.12305 117430193.03615      1700.63305        39.200  

  23935432.92704 134678330.54814      2144.07004        37.800  

 06 10 29 01 50 18.0000000  0  9G10G 1G26G22G 6G17G30G21G16                     
  23310123.05544 131392301.17944      3770.87144        38.000  

  19593673.77605 111862230.85615       181.85205        39.700  

  20528294.17305 116773693.91515     -1675.59005        39.400  

  22410135.08444 126662839.70844     -3460.63744        38.600  

  22069176.57944 124871084.26954     -1020.09044        38.700  

  22469766.00244 126976193.43944     -2674.77344        38.700  

  22185106.06404 125480297.59514      2942.61704        38.300  

  20652897.52005 117428492.58915      1700.00805        39.300  

  23935024.99604 134676186.85614      2143.36304        37.900  

 06 10 29 01 50 19.0000000  0  9G10G 1G26G22G 6G17G30G21G16                     
  23309405.49404 131388530.38204      3770.95304        38.000  

  19593639.22905 111862049.33915       181.44505        39.800  

  20528613.10605 116775369.89115     -1675.94505        39.100  

  22410793.64644 126666300.47444     -3461.03144        38.400  

  22069370.73904 124872104.65504     -1020.58604        38.500  

  22470275.06904 126978868.46304     -2675.33604        38.200  

  22184546.09344 125477355.03854      2942.53144        38.500  

  20652573.97705 117426792.52815      1699.82805        39.300  

  23934617.14504 134674043.57514      2143.10504        38.000  

 06 10 29 01 50 20.0000000  0  9G10G 1G26G22G 6G17G30G21G16                     
  23308687.93944 131384759.60354      3770.58244        38.000  

  19593604.79945 111861868.34755       180.54745        39.800  

  20528932.05345 116777046.02355     -1676.30545        39.100  

  22411452.24644 126669761.38244     -3461.38744        38.400  

  22069565.03944 124873125.61254     -1021.48844        38.800  

  22470784.17644 126981543.74354     -2675.72344        38.200  

  22183986.15144 125474412.55244      2942.09844        38.600  

  20652250.52945 117425092.87955      1699.28545        39.100  

  23934209.39544 134671900.71954      2142.52344        37.700  

 06 10 29 01 50 21.0000000  0  9G10G 1G26G22G 6G17G30G21G16                     
  23307970.39604 131380988.90804      3770.59004        38.000  

  19593570.49005 111861687.98405       179.93005        39.600  

  20529251.07605 116778722.49105     -1676.36305        39.400  

  22412110.88544 126673222.54144     -3461.47344        38.500  

  22069759.48004 124874147.30004     -1022.10204        38.600  

  22471293.33204 126984219.46704     -2675.86704        38.600  

  22183426.28704 125471470.25804      2941.87904        38.500  

  20651927.21705 117423393.75005      1698.98805        39.300  

  23933801.71904 134669758.40104      2141.95304        38.000  

 06 10 29 01 50 22.0000000  0  9G10G 1G26G22G 6G17G30G21G16                     
  23307252.87204 131377218.37114      3770.64504        38.100  

  19593536.27905 111861508.28015       179.63705        39.600  

  20529570.17645 116780399.32555     -1677.11745        39.300  

  22412769.57904 126676683.99004     -3461.74604        38.500  

  22069954.03904 124875169.73514     -1023.00404        38.500  

  22471802.59704 126986895.61214     -2676.38704        38.600  

  22182866.44704 125468528.15714      2942.07404        38.600  

  20651603.98545 117421695.16655      1698.17245        39.200  

  23933394.15404 134667616.64514      2141.53504        37.900  

 06 10 29 01 50 23.0000000  0  9G10G 1G26G22G 6G17G30G21G16                     
  23306535.37804 131373448.08414      3770.23404        38.100  

  19593502.21905 111861329.36815       178.52005        39.700  

  20529889.36845 116782076.58845     -1677.53145        39.200  

  22413428.34604 126680145.81514     -3461.91404        38.600  

  22070148.76904 124876192.99614     -1023.81304        38.400  

  22472311.93504 126989572.28414     -2676.99204        38.200  

  22182306.64204 125465586.38414      2941.43004        38.800  

  20651280.89345 117419997.21745      1697.63345        39.300  

  23932986.72204 134665475.55414      2140.46104        38.000  

 06 10 29 01 50 24.0000000  0  9G10G 1G26G22G 6G17G30G21G16                     
  23305817.96144 131369678.08754      3769.81344        38.100  

  19593468.32745 111861151.23055       177.86345        39.600  

  20530208.61945 116783754.31745     -1677.83645        39.300  

  22414087.19804 126683608.07814     -3462.62504        38.500  

  22070343.62544 124877217.15354     -1024.75444        38.500  

  22472821.41604 126992249.57314     -2677.64504        38.700  

  22181746.88444 125462644.96354      2941.00044        38.600  

  20650957.91645 117418299.95345      1696.96545        39.100  

  23932579.42604 134663335.15314      2140.09404        38.000  

 06 10 29 01 50 25.0000000  0  9G10G 1G26G22G 6G17G30G21G16                     
  23305100.60304 131365908.36204      3769.73404        38.200  

  19593434.59645 111860973.92845       176.87545        39.600  

  20530527.96645 116785432.55245     -1678.59045        39.300  

  22414746.14604 126687070.75714     -3462.60504        38.300  

  22070538.68844 124878242.16744     -1025.37144        38.700  

  22473330.99704 126994927.40414     -2677.92204        38.500  

  22181187.18404 125459703.90304      2940.72304        38.400  

  20650635.09145 117416603.37745      1696.35245        39.200  

  23932172.25804 134661195.46114      2139.29704        38.100  

 06 10 29 01 50 26.0000000  0  9G10G 1G26G22G 6G17G30G21G16                     
  23304383.31144 131362138.89754      3769.56644        37.800  

  19593400.99845 111860797.34745       176.32445        39.600  

  20530847.39145 116787111.20745     -1678.68845        39.100  

  22415405.13744 126690533.82154     -3463.15644        38.600  

  22070733.89444 124879268.00844     -1026.23444        38.700  

  22473840.65044 126997605.78754     -2678.69944        38.200  

  22180627.56144 125456763.11454      2940.71944        38.500  

  20650312.36845 117414907.43245      1695.57445        39.100  

  23931765.20244 134659056.40654      2138.70744        37.800  

 06 10 29 01 50 27.0000000  0  9G10G 1G26G22G 6G17G30G21G16                     
  23303666.05704 131358369.60204      3769.20704        38.300  

  19593367.52045 111860621.49045       175.51245        39.600  

  20531166.90645 116788790.26645     -1679.27745        39.300  

  22416064.20904 126693997.22804     -3463.55904        38.600  

  22070929.27944 124880294.65544     -1027.30944        38.400  

  22474350.44704 127000284.64004     -2679.15204        38.600  

  22180068.02204 125453822.60804      2940.41404        38.500  

  20649989.76405 117413212.07605      1695.07405        39.200  

  23931358.26704 134656917.99704      2138.26204        37.900  

 06 10 29 01 50 28.0000000  0  9G10G 1G26G22G 6G17G30G21G16                     
  23302948.79604 131354600.47314      3769.05104        38.200  

  19593334.18105 111860446.30705       175.06605        39.600  

  20531486.49445 116790469.67645     -1679.81645        39.300  

  22416723.32944 126697460.90054     -3463.81344        38.500  

  22071124.76744 124881322.03444     -1027.89544        38.800  

  22474860.30644 127002963.93754     -2679.32844        38.700  

  22179508.50404 125450882.30614      2940.39804        38.600  

  20649667.26305 117411517.27015      1694.55905        39.300  

  23930951.44904 134654780.14314      2137.55504        38.200  

 06 10 29 01 50 29.0000000  0  9G10G 1G26G22G 6G17G30G21G16                     
  23302231.54204 131350831.44114      3768.86304        37.900  

  19593300.95105 111860271.75515       174.03905        39.700  

  20531806.14805 116792149.37505     -1679.89805        39.200  

  22417382.48104 126700924.85204     -3464.18004        38.500  

  22071320.39004 124882350.11804     -1028.60204        38.700  

  22475370.23644 127005643.62744     -2679.75844        38.300  

  22178949.00504 125447942.20014      2940.11304        38.500  

  20649344.89305 117409822.98615      1694.07005        39.100  

  23930544.73004 134652642.80514      2137.13704        38.100  

 06 10 29 01 50 30.0000000  0  9G10G 1G26G22G 6G17G30G21G16                     
  23301514.31604 131347062.51514      3768.79704        38.200  

  19593267.83505 111860097.79615       173.75805        39.600  

  20532125.83904 116793829.37314     -1680.28904        38.800  

  22418041.70904 126704389.00514     -3464.31604        38.500  

  22071516.16004 124883378.88014     -1029.27304        38.500  

  22475880.24404 127008323.72504     -2680.41004        38.100  

  22178389.50704 125445002.24114      2939.80504        38.700  

  20649022.57805 117408129.18915      1693.53505        39.100  

  23930138.09204 134650505.97514      2136.41004        38.000  

 06 10 29 01 50 31.0000000  0  9G10G 1G26G22G 6G17G30G21G16                     
  23300797.14044 131343293.66254      3768.91444        38.100  

  19593234.85645 111859924.44355       173.03145        39.700  

  20532445.55705 116795509.63715     -1680.41005        39.200  

  22418700.95944 126707853.38454     -3464.33644        38.300  

  22071712.07904 124884408.30514     -1029.80104        38.700  

  22476390.30504 127011004.16814     -2680.45704        38.300  

  22177830.07004 125442062.43214      2939.52304        38.600  

  20648700.33305 117406435.84415      1693.38305        39.000  

  23929731.53604 134648369.64714      2135.91004        38.000  

 06 10 29 01 50 32.0000000  0  9G10G 1G26G22G 6G17G30G21G16                     
  23300079.97904 131339524.85004      3768.80904        38.100  

  19593201.94645 111859751.64645       172.66045        39.700  

  20532765.32005 116797190.11215     -1680.37505        39.000  

  22419360.21704 126711317.95404     -3464.81304        38.400  

  22071908.08104 124885438.36714     -1030.19104        38.700  

  22476900.47104 127013684.94214     -2680.85504        38.300  

  22177270.73704 125439122.70914      2939.84404        38.600  

  20648378.17805 117404742.95215      1692.60905        39.100  

  23929325.10804 134646233.77214      2135.83204        37.900  

 06 10 29 01 50 33.0000000  0  9G10G 1G26G22G 6G17G30G21G16                     
  23299362.86144 131335756.13154      3768.62544        38.100  

  19593169.17745 111859579.45245       171.99645        39.700  

  20533085.16105 116798870.94215     -1680.98405        39.500  

  22420019.53904 126714782.72414     -3464.84804        38.500  

  22072104.23504 124886469.13714     -1031.32004        38.500  

  22477410.71304 127016366.13214     -2681.53104        38.600  

  22176711.33104 125436183.16314      2939.65604        38.400  

  20648056.16205 117403050.55415      1691.87105        39.200  

  23928918.75704 134644098.41014      2134.95304        38.000  

 06 10 29 01 50 34.0000000  0  9G10G 1G26G22G 6G17G30G21G16                     
  23298645.73504 131331987.52004      3768.48404        38.000  

  19593136.51445 111859407.90745       171.24645        39.800  

  20533405.05505 116800552.03315     -1681.22305        39.300  

  22420678.90444 126718247.77554     -3465.24244        38.300  

  22072300.51844 124887500.59254     -1031.80544        38.600  

  22477920.98404 127019047.68614     -2681.80104        38.600  

  22176151.98204 125433243.79814      2938.94104        38.600  

  20647734.23305 117401358.64915      1691.93005        39.100  

  23928512.48304 134641963.55614      2134.53104        37.800  

 06 10 29 01 50 35.0000000  0  9G10G 1G26G22G 6G17G30G21G16                     
  23297928.61204 131328219.04414      3768.57804        38.200  

  19593103.97545 111859237.00345       170.58645        39.600  

  20533725.03505 116802233.47615     -1681.77705        39.100  

  22421338.31744 126721713.08944     -3465.39844        38.400  

  22072496.93104 124888532.75804     -1032.41404        38.600  

  22478431.36404 127021729.68014     -2682.23404        38.200  

  22175592.70344 125430304.63854      2938.92644        38.500  

  20647412.33005 117399667.29815      1691.33205        39.100  

  23928106.34104 134639829.28314      2134.14104        37.900  

 06 10 29 01 50 36.0000000  0  9G10G 1G26G22G 6G17G30G21G16                     
  23297211.58604 131324450.85114      3767.71904        38.100  

  19593071.60345 111859066.85545       170.04745        39.600  

  20534045.07505 116803915.36115     -1682.14805        39.200  

  22421997.80204 126725178.79904     -3466.10204        38.600  

  22072693.52904 124889565.79914     -1033.35504        38.600  

  22478941.85804 127024412.22914     -2682.94504        38.500  

  22175033.44544 125427365.76444      2938.65244        38.500  

  20647090.64005 117397976.58415      1690.42205        39.100  

  23927700.31204 134637695.67414      2133.28904        38.000  

 06 10 29 01 50 37.0000000  0  9G10G 1G26G22G 6G17G30G21G16                     
  23296494.57804 131320682.87814      3767.74604        38.200  

  19593039.34945 111858897.50845       168.89145        39.600  

  20534365.21305 116805597.70515     -1682.77305        39.100  

  22422657.38104 126728644.88714     -3466.20304        38.300  

  22072890.28504 124890599.66514     -1034.56604        38.500  

  22479452.41604 127027095.29414     -2683.34404        38.600  

  22174474.24344 125424427.22044      2938.61344        38.400  

  20646768.99505 117396286.52115      1689.52705        39.200  

  23927294.42104 134635562.74314      2132.45704        37.900  

 06 10 29 01 50 38.0000000  0  9G10G 1G26G22G 6G17G30G21G16                     
  23295777.59744 131316915.18854      3767.62544        38.200  

  19593007.25045 111858728.92645       168.28545        39.500  

  20534685.44445 116807280.50455     -1683.17645        39.300  

  22423317.04344 126732111.42054     -3467.01244        38.300  

  22073087.20244 124891634.40654     -1035.27744        38.500  

  22479963.10444 127029778.94354     -2684.00844        38.600  

  22173915.14044 125421489.04144      2937.85944        38.600  

  20646447.51745 117394597.14155      1688.99645        39.000  

  23926888.68044 134633430.47254      2131.93844        37.800  

 06 10 29 01 50 39.0000000  0  9G10G 1G26G22G 6G17G30G21G16                     
  23295060.71104 131313147.76704      3767.14804        38.000  

  19592975.33705 111858561.13605       167.44905        39.400  

  20535005.75805 116808963.76105     -1683.45705        39.300  

  22423976.75604 126735578.29904     -3466.75004        38.600  

  22073284.27404 124892669.98904     -1035.95304        38.600  

  22480473.86904 127032463.13604     -2684.35904        38.300  

  22173356.05644 125418551.16944      2937.64544        38.400  

  20646126.17905 117392908.41405      1688.21105        39.300  

  23926483.04804 134631298.88804      2131.47304        37.700  

 06 10 29 01 50 40.0000000  0  9G10G 1G26G22G 6G17G30G21G16                     
  23294343.78204 131309380.44114      3767.06604        38.100  

  19592943.52905 111858393.95215       167.04305        39.900  

  20535326.13605 116810647.32315     -1683.73405        39.100  

  22424636.52904 126739045.44314     -3467.09804        38.600  

  22073481.48404 124893706.27514     -1036.59004        38.600  

  22480984.72804 127035147.72514     -2684.62904        38.600  

  22172797.03244 125415613.47044      2937.55544        38.600  

  20645804.92205 117391220.18915      1687.82405        39.500  

  23926077.55204 134629167.83614      2130.79304        37.800  

 06 10 29 01 50 41.0000000  0  9G10G 1G26G22G 6G17G30G21G16                     
  23293626.93004 131305613.31414      3766.99604        38.100  

  19592911.84305 111858227.49215       166.10905        39.700  

  20535646.58305 116812331.27015     -1684.27705        39.100  

  22425296.37904 126742512.92614     -3467.45304        38.600  

  22073678.87204 124894743.34414     -1037.45704        38.700  

  22481495.70504 127037832.78314     -2685.36304        38.500  

  22172238.07004 125412676.03104      2937.07004        38.600  

  20645483.78605 117389532.54315      1687.39505        39.300  

  23925672.14004 134627037.39214      2130.18804        37.700  

 06 10 29 01 50 42.0000000  0  9G10G 1G26G22G 6G17G30G21G16                     
  23292910.08904 131301846.34214      3766.99604        38.400  

  19592880.28205 111858061.70215       165.47705        39.700  

  20535967.07605 116814015.56615     -1684.35205        39.400  

  22425956.25904 126745980.70314     -3467.77704        38.500  

  22073876.37704 124895781.13914     -1038.03504        38.300  

  22482006.74804 127040518.31614     -2685.76204        38.400  

  22171679.14804 125409738.79314      2937.40604        38.500  

  20645162.71305 117387845.46315      1686.77305        39.000  

  23925266.81604 134624907.51914      2129.52704        37.800  

 06 10 29 01 50 43.0000000  0  9G10G 1G26G22G 6G17G30G21G16                     
  23292193.26644 131298079.43854      3766.77044        38.000  

  19592848.83405 111857896.48815       164.77705        39.700  

  20536287.64105 116815700.13415     -1684.76605        39.100  

  22426616.18604 126749448.68314     -3468.11304        38.600  

  22074073.97804 124896819.61214     -1038.68804        38.800  

  22482517.84544 127043204.16254     -2685.98044        38.000  

  22171120.25844 125406801.71254      2936.77744        38.700  

  20644841.75205 117386158.84515      1686.13705        38.900  

  23924861.61644 134622778.12854      2128.92244        38.100  

 06 10 29 01 50 44.0000000  0  9G10G 1G26G22G 6G17G30G21G16                     
  23291476.47704 131294312.56804      3767.19504        38.000  

  19592817.52005 111857731.85215       164.33605        39.800  

  20536608.24705 116817384.95015     -1684.97705        39.200  

  22427276.12504 126752916.83614     -3468.46504        38.200  

  22074271.71604 124897858.74814     -1039.73804        38.700  

  22483029.01004 127045890.35504     -2686.25804        38.500  

  22170561.35104 125403864.73604      2937.18004        38.500  

  20644520.86905 117384472.66715      1685.73405        39.200  

  23924456.48844 134620649.20944      2128.61744        37.700  

 06 10 29 01 50 45.0000000  0  9G10G 1G26G22G 6G17G30G21G16                     
  23290759.69904 131290545.87114      3766.64804        37.900  

  19592786.26305 111857567.84615       163.87105        39.500  

  20536928.90405 116819070.06315     -1685.14805        39.200  

  22427936.13804 126756385.25614     -3468.55904        38.600  

  22074469.56604 124898898.56214     -1040.00004        38.600  

  22483540.25344 127048576.99054     -2686.75444        38.500  

  22170002.50504 125400927.95914      2936.72704        38.300  

  20644200.09305 117382787.02015      1685.55905        39.200  

  23924051.43244 134618520.81744      2128.07844        37.900  

 06 10 29 01 50 46.0000000  0  9G10G 1G26G22G 6G17G30G21G16                     
  23290042.92304 131286779.25014      3766.75804        37.800  

  19592755.18105 111857404.48115       163.01605        39.600  

  20537249.65105 116820755.50015     -1685.32405        39.100  

  22428596.21704 126759853.94314     -3468.87104        38.500  

  22074667.55704 124899939.10014     -1040.73004        38.700  

  22484051.58044 127051264.01844     -2687.31344        38.400  

  22169443.68504 125397991.35614      2936.63704        38.600  

  20643879.40905 117381101.89015      1684.82005        39.200  

  23923646.49944 134616392.96244      2127.44144        37.800  

 06 10 29 01 50 47.0000000  0  9G10G 1G26G22G 6G17G30G21G16                     
  23289326.22004 131283012.80114      3766.39104        38.000  

  19592724.22805 111857241.77315       162.37905        39.700  

  20537570.45745 116822441.31255     -1686.15245        39.100  

  22429256.32304 126763322.89514     -3468.82004        38.400  

  22074865.71704 124900980.38514     -1041.75404        38.600  

  22484562.97044 127053951.45844     -2687.43044        38.300  

  22168884.89704 125395054.98714      2936.13304        38.400  

  20643558.84305 117379417.30015      1684.38305        39.100  

  23923241.69044 134614265.69944      2126.97344        37.900  

 06 10 29 01 50 48.0000000  0  9G10G 1G26G22G 6G17G30G21G16                     
  23288609.56104 131279246.63014      3766.01604        38.200  

  19592693.40605 111857079.86915       161.66405        39.600  

  20537891.34105 116824127.56805     -1686.50405        38.900  

  22429916.53904 126766792.29114     -3469.72304        38.500  

  22075064.02404 124902022.52514     -1042.50404        38.600  

  22485074.48744 127056639.50944     -2688.23844        38.000  

  22168326.15444 125392118.93354      2936.04744        38.700  

  20643238.40705 117377733.40315      1683.62905        39.200  

  23922837.02044 134612139.12044      2126.14844        38.000  

 06 10 29 01 50 49.0000000  0  9G10G 1G26G22G 6G17G30G21G16                     
  23287892.91344 131275480.69254      3765.57444        38.200  

  19592662.74605 111856918.71515       160.93805        39.500  

  20538212.30845 116825814.25455     -1686.60945        39.200  

  22430576.81204 126770262.03414     -3469.91404        38.100  

  22075262.48904 124903065.49214     -1043.28104        38.700  

  22485586.09404 127059328.05004     -2688.52304        38.400  

  22167767.47204 125389183.21504      2935.70704        38.700  

  20642918.07705 117376050.12315      1683.09405        39.000  

  23922432.45204 134610013.19004      2125.51604        37.800  

 06 10 29 01 50 50.0000000  0  9G10G 1G26G22G 6G17G30G21G16                     
  23287176.32544 131271714.93044      3765.63344        38.000  

  19592632.20745 111856758.24555       160.16445        39.700  

  20538533.33745 116827501.30545     -1686.93845        39.400  

  22431237.11844 126773732.08454     -3470.07444        38.600  

  22075461.09944 124904109.21654     -1043.96944        38.500  

  22486097.79704 127062017.08414     -2689.50804        38.400  

  22167208.86744 125386247.70454      2935.32044        38.500  

  20642597.88045 117374367.40955      1682.48845        39.100  

  23922028.02904 134607887.82014      2125.28904        38.000  

 06 10 29 01 50 51.0000000  0  9G10G 1G26G22G 6G17G30G21G16                     
  23286459.72644 131267949.27444      3765.70744        38.100  

  19592601.80045 111856598.42145       159.43445        39.600  

  20538854.45445 116829188.68245     -1687.47345        39.500  

  22431897.48804 126777202.41004     -3470.63704        38.400  

  22075659.85904 124905153.66804     -1044.81604        38.500  

  22486609.56104 127064706.47514     -2689.46904        38.700  

  22166650.28544 125383312.38044      2935.48444        38.800  

  20642277.76805 117372685.23005      1681.98805        39.000  

  23921623.70204 134605763.02114      2124.56304        38.200  

 06 10 29 01 50 52.0000000  0  9G10G 1G26G22G 6G17G30G21G16                     
  23285743.18644 131264183.81144      3765.32444        38.200  

  19592571.50405 111856439.27005       158.68805        39.700  

  20539175.60445 116830876.40745     -1687.76645        39.000  

  22432557.93804 126780673.01714     -3470.79304        38.400  

  22075858.76504 124906198.85814     -1045.49604        38.500  

  22487121.42204 127067396.34614     -2690.05904        38.400  

  22166091.77504 125380377.29704      2934.83604        38.600  

  20641957.76005 117371003.59615      1681.39505        39.300  

  23921219.47644 134603638.79454      2124.07444        38.000  

 06 10 29 01 50 53.0000000  0  9G10G 1G26G22G 6G17G30G21G16                     
  23285026.65244 131260418.39244      3765.68444        38.000  

  19592541.30445 111856280.70355       158.15645        39.500  

  20539496.81905 116832564.40205     -1688.13305        39.300  

  22433218.39104 126784143.83114     -3470.98404        38.400  

  22076057.77704 124907244.71314     -1046.27304        38.700  

  22487633.37104 127070086.56314     -2690.22704        38.400  

  22165533.27904 125377442.33314      2935.05504        38.600  

  20641637.80305 117369322.42915      1681.06305        39.300  

  23920815.32044 134601515.05744      2123.62544        37.900  

 06 10 29 01 50 54.0000000  0  9G10G 1G26G22G 6G17G30G21G16                     
  23284310.17244 131256653.08344      3765.17244        38.300  

  19592511.23505 111856122.73805       157.60905        39.700  

  20539818.08605 116834252.70115     -1688.51605        39.100  

  22433878.90004 126787614.87414     -3471.20704        38.600  

  22076256.92704 124908291.25014     -1046.98404        38.600  

  22488145.38204 127072777.17914     -2690.90604        38.400  

  22164974.83204 125374507.54614      2934.84004        38.600  

  20641317.99205 117367641.77615      1680.47305        39.300  

  23920411.28304 134599391.84204      2122.73804        38.000  

 06 10 29 01 50 55.0000000  0  9G10G 1G26G22G 6G17G30G21G16                     
  23283593.68304 131252887.91504      3765.20304        38.200  

  19592481.30505 111855965.40115       157.23005        39.700  

  20540139.41705 116835941.30215     -1688.76205        38.900  

  22434539.44704 126791086.17514     -3471.41804        38.300  

  22076456.20204 124909338.48614     -1047.37504        38.400  

  22488657.47044 127075468.18454     -2691.27344        38.400  

  22164416.34504 125371572.93414      2934.71904        38.600  

  20640998.27005 117365961.63015      1679.92205        39.400  

  23920007.31004 134597269.13814      2122.28904        37.800  

 06 10 29 01 50 56.0000000  0  9G10G 1G26G22G 6G17G30G21G16                     
  23282877.19044 131249122.86654      3765.19944        38.100  

  19592451.49845 111855808.76055       156.11745        39.600  

  20540460.80045 116837630.24555     -1689.00845        39.200  

  22435200.07444 126794557.77054     -3471.72344        38.500  

  22076655.60644 124910386.47154     -1048.25444        38.600  

  22489169.60844 127078159.63444     -2691.64544        38.700  

  22163857.94944 125368638.56054      2934.18044        38.500  

  20640678.61945 117364282.04055      1679.07045        39.300  

  23919603.45944 134595147.01354      2121.84044        38.000  

 06 10 29 01 50 57.0000000  0  9G10G 1G26G22G 6G17G30G21G16                     
  23282160.81304 131245358.11804      3764.36304        37.900  

  19592421.83105 111855652.88705       155.59805        39.700  

  20540782.27105 116839319.64205     -1689.37505        39.200  

  22435860.77604 126798029.75204     -3471.96904        38.400  

  22076855.21604 124911435.32704     -1049.19504        38.700  

  22489681.89004 127080851.65804     -2692.67204        38.300  

  22163299.62904 125365704.50404      2933.87104        38.600  

  20640359.11645 117362603.09945      1678.47345        39.300  

  23919199.70804 134593025.58104      2121.11304        37.800  

 06 10 29 01 50 58.0000000  0  9G10G 1G26G22G 6G17G30G21G16                     
  23281444.42104 131241593.47714      3764.73404        37.800  

  19592392.28405 111855497.66515       154.73005        39.600  

  20541103.82145 116841009.38355     -1689.98845        39.400  

  22436521.54204 126801502.02214     -3472.28904        38.400  

  22077054.92504 124912484.89414     -1049.88704        38.600  

  22490194.23404 127083544.04314     -2692.27304        38.400  

  22162741.32104 125362770.63914      2933.72704        38.700  

  20640039.75345 117360924.69445      1678.16045        39.000  

  23918796.12944 134590904.69454      2120.65644        37.800  

 06 10 29 01 50 59.0000000  0  9G10G 1G26G22G 6G17G30G21G16                     
  23280728.03304 131237828.98114      3764.31604        38.200  

  19592362.86905 111855343.06115       154.38705        39.600  

  20541425.44305 116842699.43705     -1690.37905        39.600  

  22437182.35104 126804974.52914     -3472.65204        38.400  

  22077254.75904 124913535.16214     -1050.53904        38.600  

  22490706.65204 127086236.89514     -2693.13304        38.400  

  22162183.06904 125359836.97914      2933.33204        38.700  

  20639720.47345 117359246.79845      1677.63345        39.000  

  23918392.60704 134588784.33404      2120.22704        38.000  

 06 10 29 01 51  0.0000000  0  9G10G 1G26G22G 6G17G30G21G16                     
  23280011.71804 131234064.58814      3764.16804        38.200  

  19592333.56145 111855189.10755       153.47345        39.700  

  20541747.11405 116844389.80415     -1690.78505        39.000  

  22437843.17704 126808447.28914     -3472.89804        38.200  

  22077454.75444 124914586.14254     -1051.48444        38.500  

  22491219.19204 127088930.11914     -2693.57004        38.600  

  22161624.84004 125356903.46914      2933.34004        38.600  

  20639401.31245 117357569.44845      1676.90245        39.400  

  23917989.23204 134586664.53214      2119.27004        37.900  

 06 10 29 01 51  1.0000000  0  9G10G 1G26G22G 6G17G30G21G16                     
  23279295.43204 131230300.35814      3764.09404        38.300  

  19592304.41405 111855035.82505       152.89505        39.700  

  20542068.84605 116846080.50515     -1691.07405        39.300  

  22438504.08404 126811920.35814     -3473.26204        38.500  

  22077654.89204 124915637.86904     -1052.14804        38.500  

  22491731.75704 127091623.76614     -2693.59804        38.400  

  22161066.68504 125353970.20914      2933.01604        38.400  

  20639082.20645 117355892.62545      1676.44545        39.100  

  23917585.95304 134584545.27814      2118.90604        37.900  

 06 10 29 01 51  2.0000000  0  9G10G 1G26G22G 6G17G30G21G16                     
  23278579.18444 131226536.36154      3763.61344        38.200  

  19592275.37545 111854883.26755       152.14545        39.600  

  20542390.67445 116847771.62155     -1691.43845        39.200  

  22439165.03644 126815393.76254     -3473.70744        38.600  

  22077855.16444 124916690.41554     -1052.89844        38.700  

  22492244.43344 127094317.97254     -2694.56344        38.200  

  22160508.52044 125351037.21854      2932.65244        38.600  

  20638763.23045 117354216.42345      1676.08245        39.100  

  23917182.79444 134582426.68754      2118.09044        38.000  

 06 10 29 01 51  3.0000000  0  9G10G 1G26G22G 6G17G30G21G16                     
  23277862.97444 131222772.62544      3763.51644        38.100  

  19592246.51145 111854731.50745       151.36745        39.600  

  20542712.58905 116849463.21205     -1691.78505        39.400  

  22439826.10904 126818867.59404     -3474.24204        38.500  

  22078055.64604 124917743.79704     -1053.60904        38.800  

  22492757.19104 127097012.69504     -2694.98804        38.400  

  22159950.45204 125348104.58004      2932.32004        38.500  

  20638444.33205 117352540.90105      1674.91405        39.100  

  23916779.77704 134580308.75104      2117.60504        38.000  

 06 10 29 01 51  4.0000000  0  9G10G 1G26G22G 6G17G30G21G16                     
  23277146.81204 131219009.16504      3763.30504        38.300  

  19592217.78445 111854580.53045       150.69945        39.600  

  20543034.57905 116851155.27515     -1692.05105        39.200  

  22440487.22704 126822341.82714     -3474.58204        38.700  

  22078256.27304 124918798.07614     -1054.79304        38.500  

  22493270.06104 127099707.98514     -2695.58604        38.600  

  22159392.48304 125345172.27114      2932.10504        38.600  

  20638125.57905 117350866.04915      1674.49605        39.100  

  23916376.87504 134578191.52814      2116.95304        38.000  

 06 10 29 01 51  5.0000000  0  9G10G 1G26G22G 6G17G30G21G16                     
  23276430.69804 131215245.85614      3763.06604        38.000  

  19592189.20045 111854430.21045       150.07445        39.600  

  20543356.59945 116852847.65955     -1692.49245        39.400  

  22441148.41504 126825816.31014     -3474.69104        38.200  

  22078457.01204 124919853.05414     -1055.54304        38.600  

  22493783.01944 127102403.68354     -2695.59444        38.200  

  22158834.51904 125342240.14814      2932.11304        38.500  

  20637806.94445 117349191.73355      1674.13745        39.300  

  23915974.08404 134576074.85914      2116.55104        37.900  

 06 10 29 01 51  6.0000000  0  9G10G 1G26G22G 6G17G30G21G16                     
  23275714.61904 131211482.65014      3763.05504        38.000  

  19592160.73045 111854280.50045       149.54745        39.700  

  20543678.72405 116854540.34505     -1692.86305        39.300  

  22441809.65704 126829291.05014     -3474.95704        38.600  

  22078657.91104 124920908.74214     -1056.11304        38.500  

  22494296.07204 127105099.78404     -2696.10904        38.400  

  22158276.62904 125339308.22914      2931.63304        38.600  

  20637488.43005 117347517.91605      1673.40205        39.400  

  23915571.41604 134573958.70414      2115.99604        38.000  

 06 10 29 01 51  7.0000000  0  9G10G 1G26G22G 6G17G30G21G16                     
  23274998.51444 131207719.53454      3763.07844        38.000  

  19592132.36105 111854131.39605       148.89105        39.600  

  20544000.89805 116856233.32015     -1692.90205        39.100  

  22442470.92344 126832765.98154     -3474.76244        38.700  

  22078858.91204 124921965.09414     -1056.73404        38.500  

  22494809.19344 127107796.26854     -2696.56644        38.200  

  22157718.69904 125336376.44614      2931.47304        38.600  

  20637170.01245 117345844.58955      1672.88345        39.100  

  23915168.84804 134571843.06514      2115.27004        38.000  

 06 10 29 01 51  8.0000000  0  9G10G 1G26G22G 6G17G30G21G16                     
  23274282.43044 131203956.55744      3763.10544        38.100  

  19592104.12845 111853982.97155       147.98845        39.700  

  20544323.16645 116857926.62455     -1693.31345        39.100  

  22443132.24044 126836241.23544     -3475.35244        38.400  

  22079060.06744 124923022.16854     -1057.36744        38.500  

  22495322.38444 127110493.17644     -2697.02344        38.500  

  22157160.84044 125333444.88454      2931.21144        38.500  

  20636851.70545 117344171.79345      1672.71145        39.000  

  23914766.36744 134569727.99254      2114.68844        37.900  

 06 10 29 01 51  9.0000000  0  9G10G 1G26G22G 6G17G30G21G16                     
  23273566.39604 131200193.80104      3762.49604        38.100  

  19592076.00205 111853835.25405       147.10505        39.800  

  20544645.46905 116859620.35505     -1694.09405        39.200  

  22443793.59704 126839716.81104     -3475.86304        38.500  

  22079261.39044 124924080.06144     -1058.28144        38.700  

  22495835.64844 127113190.57144     -2697.63744        38.600  

  22156603.03044 125330513.57944      2930.90244        38.200  

  20636533.50505 117342499.62805      1671.73805        39.000  

  23914364.01404 134567613.54204      2114.21504        37.900  

 06 10 29 01 51 10.0000000  0  9G10G 1G26G22G 6G17G30G21G16                     
  23272850.38344 131196431.23454      3762.42644        38.100  

  19592048.03105 111853688.20915       146.75405        39.600  

  20544967.83705 116861314.41315     -1693.88305        39.100  

  22444455.02604 126843192.70014     -3475.98804        38.600  

  22079462.84204 124925138.71804     -1059.08204        38.600  

  22496349.02044 127115888.43544     -2698.06344        38.600  

  22156045.26544 125327582.50144      2931.09844        38.500  

  20636215.42005 117340828.02415      1671.27305        39.300  

  23913961.74144 134565499.68554      2113.79344        37.900  

 06 10 29 01 51 11.0000000  0  9G10G 1G26G22G 6G17G30G21G16                     
  23272134.15904 131192667.55504      3764.57804        38.100  

  19592019.94905 111853540.61215       148.39505        39.600  

  20545290.04305 116863007.60915     -1691.89805        39.300  

  22445116.28004 126846667.63714     -3474.21904        38.300  

  22079664.19644 124926196.85854     -1057.48844        38.500  

  22496862.22344 127118585.49444     -2696.43844        38.500  

  22155487.30544 125324650.42244      2933.12544        38.600  

  20635897.12605 117339155.71915      1673.11305        39.300  

  23913559.32644 134563385.13744      2115.47744        37.900  

 06 10 29 01 51 12.0000000  0  9G10G 1G26G22G 6G17G30G21G16                     
  23271417.70204 131188902.62014      3765.26604        38.100  

  19591991.70305 111853392.27115       148.34405        39.600  

  20545612.03605 116864699.73615     -1692.03505        39.300  

  22445777.31944 126850141.44354     -3473.88344        38.500  

  22079865.40344 124927254.31144     -1057.27044        38.600  

  22497375.25004 127121281.54704     -2695.71104        38.300  

  22154929.12544 125321717.16044      2933.27044        38.600  

  20635578.68805 117337482.56615      1673.04705        39.000  

  23913156.80644 134561269.78544      2115.37944        38.000  

 06 10 29 01 51 13.0000000  0  9G10G 1G26G22G 6G17G30G21G16                     
  23270701.28104 131185137.77114      3764.82404        38.100  

  19591963.59605 111853244.50415       147.17605        39.600  

  20545934.09905 116866392.10415     -1692.91405        39.400  

  22446438.40444 126853615.44744     -3474.56644        38.600  

  22080066.78044 124928312.45744     -1058.60244        38.300  

  22497888.40004 127123977.98414     -2696.92204        38.300  

  22154370.97244 125318784.00744      2932.85544        38.500  

  20635260.38705 117335809.87015      1672.19905        39.200  

  23912754.36844 134559154.88744      2114.47344        38.000  

 06 10 29 01 51 14.0000000  0  9G10G 1G26G22G 6G17G30G21G16                     
  23269984.99344 131181373.71354      3763.81344        38.100  

  19591935.71705 111853098.02015       145.80905        39.400  

  20546256.35605 116868085.47415     -1693.98005        39.100  

  22447099.65344 126857090.38944     -3475.79344        38.200  

  22080268.39744 124929372.00144     -1060.71544        38.500  

  22498401.70904 127126675.47614     -2698.22304        38.300  

  22153813.01504 125315851.70104      2931.93804        38.500  

  20634942.31705 117334138.38715      1670.47305        39.000  

  23912352.17644 134557041.19844      2112.83644        37.900  

 06 10 29 01 51 15.0000000  0  9G10G 1G26G22G 6G17G30G21G16                     
  23269268.91944 131177610.82144      3762.28544        38.000  

  19591908.15505 111852953.21115       144.27705        39.800  

  20546578.83805 116869780.18215     -1695.47705        39.300  

  22447761.14744 126860566.56744     -3476.67644        38.700  

  22080470.32004 124930433.20704     -1061.91404        38.600  

  22498915.30504 127129374.39014     -2699.37504        38.400  

  22153255.26004 125312920.66114      2930.27304        38.600  

  20634624.53245 117332468.41555      1669.42645        39.000  

  23911950.23944 134554929.07744      2111.53144        37.800  

 06 10 29 01 51 16.0000000  0  9G10G 1G26G22G 6G17G30G21G16                     
  23268552.98244 131173848.76344      3761.53944        38.200  

  19591880.86105 111852809.80015       142.64105        39.600  

  20546901.52305 116871475.91315     -1696.04305        39.300  

  22448422.83244 126864043.75744     -3477.72344        38.600  

  22080672.56304 124931495.88414     -1063.14104        38.600  

  22499429.11804 127132074.45214     -2700.71504        38.500  

  22152697.62804 125309990.47914      2929.82004        38.600  

  20634306.99705 117330799.71605      1668.06605        39.000  

  23911548.55244 134552818.22244      2110.43844        37.900  

 06 10 29 01 51 17.0000000  0  9G10G 1G26G22G 6G17G30G21G16                     
  23267837.21644 131170087.36344      3761.06344        38.200  

  19591853.77605 111852667.52115       141.59005        39.600  

  20547224.37105 116873172.49415     -1697.00005        38.900  

  22449084.66704 126867521.71604     -3478.01204        38.600  

  22080875.02804 124932559.80314     -1064.62504        38.500  

  22499943.11104 127134775.44014     -2701.42604        38.600  

  22152140.18704 125307061.01414      2929.46104        38.400  

  20633989.66205 117329132.03815      1667.18405        39.400  

  23911147.04704 134550708.44104      2109.30104        38.000  

 06 10 29 01 51 18.0000000  0  9G10G 1G26G22G 6G17G30G21G16                     
  23267121.52444 131166326.47844      3760.72744        38.000  

  19591826.90105 111852526.26715       140.62905        39.700  

  20547547.35905 116874869.79015     -1697.74605        39.100  

  22449746.62904 126871000.34514     -3478.98804        38.600  

  22081077.69904 124933624.81714     -1065.50804        38.500  

  22500457.22704 127137477.22214     -2702.02304        38.500  

  22151582.83904 125304132.16814      2928.50004        38.500  

  20633672.54705 117327465.30315      1666.02305        39.000  

  23910745.74204 134548599.59814      2108.14504        38.000  

 06 10 29 01 51 19.0000000  0  9G10G 1G26G22G 6G17G30G21G16                     
  23266405.93504 131162566.04004      3760.22304        38.200  

  19591800.21205 111852385.96815       139.91805        39.900  

  20547870.49605 116876567.70915     -1698.23005        39.200  

  22450408.71244 126874479.53154     -3479.51644        38.300  

  22081280.55904 124934690.87514     -1066.66004        38.500  

  22500971.46204 127140179.71814     -2702.41404        38.300  

  22151025.58804 125301203.78314      2928.25404        38.300  

  20633355.51305 117325799.35715      1665.71105        39.400  

  23910344.61004 134546491.59714      2107.82004        38.000  

 06 10 29 01 51 20.0000000  0  9G10G 1G26G22G 6G17G30G21G16                     
  23265690.39244 131158805.87654      3759.79744        38.300  

  19591773.66145 111852246.46855       138.90645        39.700  

  20548193.68845 116878266.10755     -1698.84845        39.300  

  22451070.87444 126877959.11444     -3479.84844        38.300  

  22081483.61444 124935757.77254     -1067.45744        38.600  

  22501485.85244 127142882.79454     -2703.35544        38.500  

  22150468.42644 125298275.75354      2927.84444        38.600  

  20633038.63045 117324134.15055      1664.66845        39.200  

  23909943.61544 134544384.28554      2106.75044        38.000  

 06 10 29 01 51 21.0000000  0  9G10G 1G26G22G 6G17G30G21G16                     
  23264974.91104 131155045.91804      3760.16804        38.100  

  19591747.25905 111852107.68005       138.58205        39.700  

  20548516.97805 116879964.88905     -1698.76605        39.200  

  22451733.09804 126881439.08304     -3480.19504        38.200  

  22081686.79504 124936825.48304     -1068.11704        38.600  

  22502000.30404 127145586.36104     -2703.67604        38.500  

  22149911.27204 125295348.04004      2927.56604        38.500  

  20632721.84945 117322469.50845      1664.76645        39.000  

  23909542.72804 134542277.64604      2106.18004        37.900  

 06 10 29 01 51 22.0000000  0  9G10G 1G26G22G 6G17G30G21G16                     
  23264259.42304 131151286.07114      3759.78504        38.100  

  19591720.96205 111851969.50315       137.93005        39.600  

  20548840.31505 116881663.96915     -1699.17605        39.300  

  22452395.33204 126884919.21414     -3479.94504        38.400  

  22081890.10644 124937893.85254     -1068.55544        38.500  

  22502514.86304 127148290.29814     -2704.21904        38.500  

  22149354.19544 125292420.42954      2927.32444        38.600  

  20632405.12845 117320805.36845      1663.91445        39.100  

  23909141.94304 134540171.46414      2106.05104        38.000  

 06 10 29 01 51 23.0000000  0  9G10G 1G26G22G 6G17G30G21G16                     
  23263543.96744 131147526.28554      3759.96544        38.400  

  19591694.77005 111851831.89815       137.45305        39.800  

  20549163.68605 116883363.31115     -1699.36305        39.200  

  22453057.61704 126888399.59114     -3480.52004        38.500  

  22082093.55104 124938962.88304     -1069.11704        38.600  

  22503029.44504 127150994.57214     -2704.49604        38.600  

  22148797.10504 125289492.98504      2927.07404        38.800  

  20632088.52945 117319141.70345      1663.52345        39.100  

  23908741.28444 134538065.78754      2105.34444        37.800  

 06 10 29 01 51 24.0000000  0  9G10G 1G26G22G 6G17G30G21G16                     
  23262828.52044 131143766.58644      3759.67244        38.000  

  19591668.70005 111851694.88015       136.77005        39.500  

  20549487.09305 116885062.89615     -1699.85905        39.200  

  22453719.96504 126891880.13314     -3480.82404        38.700  

  22082297.12704 124940032.56814     -1070.02004        38.500  

  22503544.12604 127153699.19914     -2704.82004        38.500  

  22148240.08804 125286565.63414      2927.25404        38.700  

  20631772.04245 117317478.48345      1662.99245        39.200  

  23908340.67104 134535960.58304      2105.12104        38.000  

