     2.10           OBSERVATION DATA    G (GPS)             RINEX VERSION / TYPE
Convert                                 12-Aug-2008 17:04   PGM / RUN BY / DATE 
Signal Strength values S1,S2 are in dBHz                    COMMENT             
                                                            MARKER NAME         
                                                            MARKER NUMBER       
                                                            OBSERVER / AGENCY   
SVA05050095         NOV RT2             2.210               REC # / TYPE / VERS 
                                                            ANT # / TYPE        
  3991022.2489   563011.3766  4926991.6625                  APPROX POSITION XYZ 
        0.0000        0.0000        0.0000                  ANTENNA: DELTA H/E/N
     1     1                                                WAVELENGTH FACT L1/2
     1     1     7   G01   G06   G10   G16   G17   G21   G22WAVELENGTH FACT L1/2
     1     1     2   G26   G30                              WAVELENGTH FACT L1/2
                                                            COMMENT             
                                                            COMMENT             
                                                            COMMENT             
                                                            COMMENT             
                                                            COMMENT             
     8    C1    L1    D1    S1    P2    L2    D2    S2      # / TYPES OF OBSERV 
     1.000                                                  INTERVAL            
  2006    10    29    01    44    30.0000000    GPS         TIME OF FIRST OBS   
  2006    10    29    01    56     1.0000000    GPS         TIME OF LAST OBS    
    14                                                      LEAP SECONDS        
                                                            END OF HEADER       
 06 10 29 01 44 30.0000000  0  9G 1G21G 6G17G30G22G10G26G16                     
  19613476.40405 103538943.70215       416.85505        39.500  

  20771742.62005 109625672.39415      1887.31305        39.100  

  22010261.97504 116134131.90914      -758.01604        38.600  

  22297954.41204 117645970.77014     -2512.17204        38.600  

  22382463.07204 118090063.58514      3016.42604        38.500  

  22184442.75204 117049459.01314     -3353.45704        38.300  

  23561429.03204 124285567.86714      3817.01604        38.000  

  20421385.23605 107784535.92315     -1551.53905        39.400  

  24083434.34304 127028735.98214      2336.82404        37.700  

 06 10 29 01 44 31.0000000  0  9G 1G21G 6G17G30G22G10G26G16                     
  19613397.13505 103538527.14315       416.28505        39.700  

  20771383.54605 109623785.41115      1887.03105        39.100  

  22010406.27504 116134890.18214      -758.62104        38.600  

  22298432.47304 117648483.04214     -2512.68804        38.300  

  22381889.06004 118087047.08714      3016.53104        38.300  

  22185080.98504 117052812.71714     -3353.68404        38.400  

  23560702.69204 124281751.05914      3816.86304        38.000  

  20421680.59405 107786088.03015     -1552.16405        39.200  

  24082989.76904 127026399.58114      2336.21904        37.800  

 06 10 29 01 44 32.0000000  0  9G 1G21G 6G17G30G22G10G26G16                     
  19613317.98905 103538111.22515       415.55505        39.600  

  20771024.63205 109621898.91115      1886.23805        39.000  

  22010550.70144 116135649.18054      -759.24644        38.400  

  22298910.64404 117650995.75214     -2512.94904        38.300  

  22381315.07104 118084030.75514      3016.41004        38.200  

  22185719.21304 117056166.71214     -3354.04304        38.400  

  23559976.36804 124277934.28414      3816.78504        38.000  

  20421975.99305 107787640.44515     -1552.65205        39.100  

  24082545.25404 127024063.68114      2335.74204        37.700  

 06 10 29 01 44 33.0000000  0  9G 1G21G 6G17G30G22G10G26G16                     
  19613238.95705 103537695.88615       415.04705        39.700  

  20770665.75604 109620012.83914      1885.86304        38.800  

  22010695.27504 116136408.86304      -760.12904        38.700  

  22299388.87904 117653508.87814     -2513.45304        38.300  

  22380741.11904 118081014.54414      3016.21904        38.500  

  22186357.54404 117059520.93314     -3354.45704        38.400  

  23559250.12004 124274117.55314      3816.64504        37.900  

  20422271.47205 107789193.12315     -1552.91005        39.100  

  24082100.78604 127021728.24814      2335.06604        37.800  

 06 10 29 01 44 34.0000000  0  9G 1G21G 6G17G30G22G10G26G16                     
  19613160.04605 103537281.18915       414.27305        39.800  

  20770306.92705 109618127.23615      1885.39505        39.100  

  22010839.96104 116137169.24614      -760.82804        38.400  

  22299867.13704 117656022.43514     -2513.77704        38.600  

  22380167.14104 118077998.49914      3016.30904        38.200  

  22186995.85104 117062875.44514     -3354.69904        38.400  

  23558523.83204 124270300.90214      3816.54704        38.100  

  20422567.01405 107790746.13215     -1553.08205        39.100  

  24081656.43344 127019393.28554      2334.45344        37.800  

 06 10 29 01 44 35.0000000  0  9G 1G21G 6G17G30G22G10G26G16                     
  19613081.26905 103536867.22415       413.55905        39.600  

  20769948.21105 109616242.20815      1884.78905        39.200  

  22010984.79804 116137930.45114      -761.73404        38.400  

  22300345.56104 117658536.53514     -2514.30904        38.500  

  22379593.27504 118074982.72714      3015.48404        38.500  

  22187634.30204 117066230.31214     -3355.10204        38.600  

  23557797.57904 124266484.40414      3816.13304        37.900  

  20422862.60505 107792299.52915     -1553.76605        39.300  

  24081212.25104 127017058.90504      2333.90604        37.700  

 06 10 29 01 44 36.0000000  0  9G 1G21G 6G17G30G22G10G26G16                     
  19613002.62305 103536453.94115       412.97305        39.600  

  20769589.60005 109614357.73815      1884.40205        38.900  

  22011129.80204 116138692.41114      -762.40204        38.700  

  22300824.05804 117661051.13314     -2514.84004        38.400  

  22379019.42404 118071967.15414      3015.43404        38.500  

  22188272.79304 117069585.50814     -3355.28904        38.400  

  23557071.32304 124262668.01814      3816.30104        38.000  

  20423158.23405 107793853.32215     -1554.06605        39.100  

  24080768.17904 127014725.10014      2333.44504        38.000  

 06 10 29 01 44 37.0000000  0  9G 1G21G 6G17G30G22G10G26G16                     
  19612924.08305 103536041.38715       412.20305        39.300  

  20769231.10505 109612473.81215      1883.60505        39.200  

  22011274.99604 116139455.18914      -763.13704        38.400  

  22301302.69304 117663566.27114     -2515.15204        38.300  

  22378445.64304 118068951.82914      3015.25804        38.300  

  22188911.26804 117072941.08714     -3355.60204        38.400  

  23556345.12504 124258851.81114      3816.08204        38.000  

  20423453.95305 107795407.48315     -1554.05905        39.300  

  24080324.22504 127012391.86614      2333.14804        37.800  

 06 10 29 01 44 38.0000000  0  9G 1G21G 6G17G30G22G10G26G16                     
  19612845.67705 103535629.35215       411.93405        39.400  

  20768872.63005 109610590.26315      1883.56305        39.000  

  22011420.26204 116140218.56614      -763.65604        38.600  

  22301781.36704 117666081.76114     -2515.71104        38.500  

  22377871.87604 118065936.56314      3015.44104        38.500  

  22189549.86404 117076296.80714     -3355.37104        38.500  

  23555618.80444 124255035.54554      3816.37544        38.000  

  20423749.73345 107796961.88955     -1554.12545        39.300  

  24079880.27204 127010059.04014      2332.79704        37.800  

 06 10 29 01 44 39.0000000  0  9G 1G21G 6G17G30G22G10G26G16                     
  19612767.39505 103535218.06315       410.80505        39.700  

  20768514.31305 109608707.32315      1882.48005        39.100  

  22011565.68504 116140982.75014      -764.62504        38.400  

  22302260.20504 117668597.76714     -2516.46904        38.300  

  22377298.15404 118062921.55614      3014.99204        38.500  

  22190188.49704 117079652.93214     -3356.02704        38.600  

  23554892.61944 124251219.47444      3815.84844        37.800  

  20424045.62845 107798516.72845     -1555.34845        39.100  

  24079436.43804 127007726.79614      2331.92604        37.800  

 06 10 29 01 44 40.0000000  0  9G 1G21G 6G17G30G22G10G26G16                     
  19612689.30805 103534807.64615       410.12505        39.700  

  20768156.14705 109606825.09015      1881.82405        39.100  

  22011711.32504 116141747.92714      -765.72704        38.600  

  22302739.10004 117671114.46114     -2516.71104        38.500  

  22376724.53904 118059906.97214      3014.32004        38.400  

  22190827.20804 117083009.58014     -3356.76204        38.400  

  23554166.47344 124247403.68144      3815.46944        38.200  

  20424341.56845 107800072.09445     -1555.64145        39.300  

  24078992.78504 127005395.28414      2331.18804        37.900  

 06 10 29 01 44 41.0000000  0  9G 1G21G 6G17G30G22G10G26G16                     
  19612611.33805 103534398.03415       409.26205        39.600  

  20767798.11505 109604943.47915      1881.33605        38.900  

  22011857.08244 116142513.96654      -766.69544        38.500  

  22303218.12504 117673631.77114     -2517.62904        38.500  

  22376150.94204 118056892.68714      3014.23804        38.500  

  22191465.98704 117086366.66614     -3357.43804        38.500  

  23553440.37944 124243588.15444      3815.43444        38.000  

  20424637.63945 107801627.94945     -1556.11345        39.100  

  24078549.23704 127003064.43814      2330.50804        37.900  

 06 10 29 01 44 42.0000000  0  9G 1G21G 6G17G30G22G10G26G16                     
  19612533.51545 103533989.18255       408.52045        39.400  

  20767440.17705 109603062.50015      1880.44505        39.100  

  22012003.02404 116143280.83304      -767.27304        38.500  

  22303697.30604 117676149.66714     -2518.25804        38.300  

  22375577.40704 118053878.72414      3013.91804        38.200  

  22192104.94104 117089724.17914     -3357.95704        38.400  

  23552714.36744 124239772.80344      3815.41444        38.000  

  20424933.81805 107803184.25605     -1556.70305        39.200  

  24078105.79704 127000734.23914      2329.70704        37.900  

 06 10 29 01 44 43.0000000  0  9G 1G21G 6G17G30G22G10G26G16                     
  19612455.84645 103533581.07445       407.58645        39.600  

  20767082.37705 109601182.10815      1880.11705        39.200  

  22012149.07244 116144048.52154      -768.02344        38.600  

  22304176.56504 117678668.09414     -2518.73004        38.400  

  22375003.92344 118050865.02354      3013.29344        38.600  

  22192743.88404 117093082.02514     -3358.08604        38.400  

  23551988.36144 124235957.62544      3815.12944        37.900  

  20425230.04505 107804740.96915     -1556.82005        39.100  

  24077662.43604 126998404.61214      2329.25004        37.800  

 06 10 29 01 44 44.0000000  0  9G 1G21G 6G17G30G22G10G26G16                     
  19612378.34345 103533173.63545       407.09445        39.700  

  20766724.63605 109599302.20915      1879.74205        38.900  

  22012295.32804 116144816.98104      -768.94504        38.500  

  22304655.91744 117681186.99254     -2518.91044        38.300  

  22374430.41944 118047851.48244      3013.49244        38.500  

  22193382.90904 117096440.18714     -3358.25404        38.400  

  23551262.37544 124232142.57544      3814.98444        38.100  

  20425526.32205 107806298.03915     -1557.07805        39.300  

  24077219.22704 126996075.51614      2328.93804        38.000  

 06 10 29 01 44 45.0000000  0  9G 1G21G 6G17G30G22G10G26G16                     
  19612300.88845 103532766.69945       406.54345        39.600  

  20766366.98905 109597422.69815      1879.00805        38.900  

  22012441.67004 116145586.02514      -769.50404        38.400  

  22305135.31444 117683706.25144     -2519.45344        38.500  

  22373857.00644 118044838.02744      3013.31344        38.500  

  22194021.96704 117099798.53514     -3358.52704        38.800  

  23550536.39904 124228327.45804      3815.00004        38.000  

  20425822.69105 107807855.32115     -1557.29705        39.300  

  24076776.11604 126993746.82314      2328.34404        37.800  

 06 10 29 01 44 46.0000000  0  9G 1G21G 6G17G30G22G10G26G16                     
  19612223.54545 103532360.36845       406.26645        39.600  

  20766009.39505 109595543.62215      1878.77705        39.200  

  22012588.09804 116146355.74714      -769.98404        38.700  

  22305614.80544 117686225.88644     -2519.51644        38.500  

  22373283.62504 118041824.66904      3013.50404        38.400  

  22194661.09904 117103157.11314     -3358.64104        38.400  

  23549810.47604 124224512.37614      3815.23004        38.200  

  20426119.08105 107809412.87415     -1557.65205        39.200  

  24076333.06544 126991418.58254      2328.36344        37.800  

 06 10 29 01 44 47.0000000  0  9G 1G21G 6G17G30G22G10G26G16                     
  19612146.33345 103531954.57645       405.46945        39.600  

  20765651.89445 109593664.93055      1878.35245        39.000  

  22012734.67504 116147126.08714      -770.88704        38.500  

  22306094.33344 117688745.86844     -2520.26244        38.500  

  22372710.20704 118038811.39914      3012.98804        38.300  

  22195300.22904 117106515.85614     -3358.75804        38.500  

  23549084.47804 124220697.24614      3815.13704        38.000  

  20426415.51405 107810970.64915     -1558.09005        39.100  

  24075890.10844 126989090.73344      2327.63344        37.700  

 06 10 29 01 44 48.0000000  0  9G 1G21G 6G17G30G22G10G26G16                     
  19612069.22005 103531549.34505       404.91005        39.400  

  20765294.46705 109591786.64705      1878.02705        39.000  

  22012881.38704 116147897.05314      -770.96104        38.600  

  22306573.97244 117691266.24444     -2520.44944        38.400  

  22372136.84704 118035798.19714      3013.23804        38.100  

  22195939.43304 117109874.83014     -3359.13304        38.600  

  23548358.49604 124216882.15414      3815.13704        38.000  

  20426712.01645 107812528.68055     -1558.37545        39.000  

  24075447.23244 126986763.33644      2327.11344        37.900  

 06 10 29 01 44 49.0000000  0  9G 1G21G 6G17G30G22G10G26G16                     
  19611992.25005 103531144.81215       404.28105        39.500  

  20764937.13705 109589908.90715      1877.58205        39.000  

  22013028.23804 116148668.83714      -772.26204        38.600  

  22307053.70004 117693787.12304     -2521.33204        38.200  

  22371563.46904 118032785.24414      3012.83604        38.400  

  22196578.67304 117113234.14714     -3359.59404        38.400  

  23547632.48504 124213067.17714      3814.68004        38.200  

  20427008.49005 107814087.06205     -1558.49605        39.000  

  24075004.40004 126984436.48404      2326.75404        37.900  

 06 10 29 01 44 50.0000000  0  9G 1G21G 6G17G30G22G10G26G16                     
  19611915.41705 103530741.00215       403.56605        39.500  

  20764579.92745 109588031.73655      1876.96545        39.100  

  22013175.26804 116149441.39814      -772.95704        38.500  

  22307533.51644 117696308.50454     -2521.33244        38.200  

  22370990.17304 118029772.52014      3012.70304        38.300  

  22197217.93204 117116593.78314     -3359.71104        38.400  

  23546906.53504 124209252.34014      3814.82804        38.100  

  20427305.12505 107815645.87415     -1558.83205        39.300  

  24074561.73504 126982110.21914      2326.01204        37.600  

 06 10 29 01 44 51.0000000  0  9G 1G21G 6G17G30G22G10G26G16                     
  19611838.71105 103530337.86815       403.11705        39.600  

  20764222.81445 109586155.10245      1876.41845        39.000  

  22013322.41404 116150214.73514      -773.93004        38.600  

  22308013.40504 117698830.39604     -2522.01204        38.400  

  22370416.92844 118026760.03854      3012.28144        38.400  

  22197857.37504 117119953.79214     -3360.13704        38.500  

  23546180.63204 124205437.64314      3814.64504        37.900  

  20427601.82305 107817205.02915     -1559.14505        39.300  

  24074119.18804 126979784.50514      2325.39804        37.700  

 06 10 29 01 44 52.0000000  0  9G 1G21G 6G17G30G22G10G26G16                     
  19611762.15005 103529935.52915       401.93405        39.600  

  20763865.82045 109584279.07445      1875.60545        38.900  

  22013469.73204 116150988.90014      -774.51204        38.500  

  22308493.40104 117701352.86914     -2522.73404        38.500  

  22369843.69904 118023747.83204      3011.91004        38.300  

  22198496.83604 117123314.20114     -3360.67204        38.300  

  23545454.74404 124201623.13914      3814.51604        38.100  

  20427898.63345 107818764.66255     -1559.94545        39.200  

  24073676.73004 126977459.42014      2324.69104        37.700  

 06 10 29 01 44 53.0000000  0  9G 1G21G 6G17G30G22G10G26G16                     
  19611685.72005 103529533.92815       401.27005        39.700  

  20763508.94845 109582403.66445      1875.17645        39.100  

  22013617.21404 116151763.90714      -775.18004        38.600  

  22308973.49504 117703875.91514     -2523.32004        38.500  

  22369270.54604 118020735.91214      3011.83604        38.200  

  22199136.34744 117126675.00054     -3360.95744        38.300  

  23544728.90304 124197808.85114      3814.16404        38.100  

  20428195.51005 107820324.74405     -1560.52305        39.200  

  24073234.40804 126975134.94914      2324.07404        38.000  

 06 10 29 01 44 54.0000000  0  9G 1G21G 6G17G30G22G10G26G16                     
  19611609.41705 103529133.04015       400.59405        39.600  

  20763152.17404 109580528.78204      1874.41004        38.800  

  22013764.83704 116152539.71314      -776.23004        38.700  

  22309453.72204 117706399.44014     -2523.79704        38.400  

  22368697.40104 118017724.23414      3011.42204        38.400  

  22199775.95544 117130036.12444     -3361.05944        38.500  

  23544003.11404 124193994.68414      3813.98404        38.000  

  20428492.45305 107821885.16215     -1560.57405        39.300  

  24072792.16404 126972811.02814      2323.61704        37.700  

 06 10 29 01 44 55.0000000  0  9G 1G21G 6G17G30G22G10G26G16                     
  19611533.25905 103528732.83815       399.76205        39.600  

  20762795.48505 109578654.46415      1873.89505        39.000  

  22013912.62504 116153316.31214      -776.96504        38.600  

  22309934.02304 117708923.50114     -2524.12904        38.600  

  22368124.34804 118014712.77914      3011.24204        38.200  

  22200415.62544 117133397.63144     -3361.68044        38.700  

  23543277.30104 124190180.65514      3814.19904        37.800  

  20428789.42005 107823445.99215     -1561.00405        39.100  

  24072350.02504 126970487.71314      2323.12504        37.900  

 06 10 29 01 44 56.0000000  0  9G 1G21G 6G17G30G22G10G26G16                     
  19611457.22405 103528333.31415       399.31605        39.400  

  20762438.90205 109576780.65815      1873.36305        39.100  

  22014060.55204 116154093.63814      -777.80504        38.300  

  22310414.42404 117711448.02714     -2524.66004        38.300  

  22367551.28104 118011701.50714      3011.30504        38.300  

  22201055.36444 117136759.41844     -3361.88744        38.400  

  23542551.54204 124186366.74114      3813.78504        37.900  

  20429086.49805 107825007.17415     -1561.47705        39.300  

  24071908.03504 126968164.90414      2322.77704        37.800  

 06 10 29 01 44 57.0000000  0  9G 1G21G 6G17G30G22G10G26G16                     
  19611381.30005 103527934.49515       398.64805        39.500  

  20762082.41305 109574907.40815      1873.06305        39.000  

  22014208.63804 116154871.74914      -778.47304        38.500  

  22310894.95104 117713973.05914     -2525.21504        38.300  

  22366978.28304 118008690.47314      3011.10204        38.600  

  22201695.17404 117140121.57204     -3362.24604        38.500  

  23541825.79704 124182552.96014      3813.82804        38.100  

  20429383.66205 107826568.72715     -1561.44905        39.200  

  24071466.12304 126965842.70014      2321.92604        37.700  

 06 10 29 01 44 58.0000000  0  9G 1G21G 6G17G30G22G10G26G16                     
  19611305.58005 103527536.40115       397.54305        39.600  

  20761726.05205 109573034.71915      1872.52705        39.100  

  22014356.86004 116155650.65914      -779.30104        38.400  

  22311375.53504 117716498.64414     -2525.81304        38.200  

  22366405.33704 118005679.71814      3010.55104        38.500  

  22202334.99804 117143484.07614     -3362.62504        38.400  

  23541100.09404 124178739.33914      3813.41404        38.100  

  20429680.88105 107828130.71015     -1562.25405        39.300  

  24071024.34404 126963521.01614      2321.69504        37.800  

 06 10 29 01 44 59.0000000  0  9G 1G21G 6G17G30G22G10G26G16                     
  19611229.98005 103527139.02615       397.24205        39.600  

  20761369.80845 109571162.63655      1871.77045        39.200  

  22014505.23204 116156430.40714      -780.29304        38.700  

  22311856.23004 117719024.77114     -2526.50004        38.600  

  22365832.43404 118002669.20114      3010.39104        38.500  

  22202974.92844 117146846.96654     -3362.92244        38.300  

  23540374.39604 124174925.89014      3813.11304        38.100  

  20429978.23505 107829693.08715     -1562.42205        39.200  

  24070582.68904 126961200.00014      2320.68404        38.100  

 06 10 29 01 45  0.0000000  0  9G 1G21G 6G17G30G22G10G26G16                     
  19611154.50705 103526742.38115       396.09805        39.700  

  20761013.65705 109569291.07405      1871.21505        38.900  

  22014653.75604 116157210.90114      -780.66404        38.600  

  22312337.00304 117721551.38314     -2526.82004        38.500  

  22365259.60644 117999658.92754      3010.16044        38.300  

  22203614.92504 117150210.20204     -3363.59804        38.500  

  23539648.75204 124171112.57614      3813.11304        38.100  

  20430275.61405 107831255.86315     -1563.14505        39.300  

  24070141.11504 126958879.51114      2320.20304        37.900  

 06 10 29 01 45  1.0000000  0  9G 1G21G 6G17G30G22G10G26G16                     
  19611079.14405 103526346.35815       395.71905        39.700  

  20760657.57405 109567420.02315      1870.94505        39.300  

  22014802.40804 116157992.16814      -781.67604        38.600  

  22312817.90504 117724078.47114     -2527.26204        38.500  

  22364686.76804 117996648.82704      3009.93804        38.600  

  22204254.94704 117153573.72714     -3363.69904        38.800  

  23538923.11804 124167299.34614      3813.21904        38.000  

  20430573.05605 107832818.96615     -1563.34405        39.200  

  24069699.59304 126956559.54914      2319.59404        37.900  

 06 10 29 01 45  2.0000000  0  9G 1G21G 6G17G30G22G10G26G16                     
  19611003.87145 103525950.85455       395.19945        39.500  

  20760301.62205 109565549.33015      1870.47305        39.300  

  22014951.19104 116158773.98314      -781.87104        38.500  

  22313298.86104 117726605.87014     -2527.53504        38.300  

  22364113.96204 117993638.73914      3010.28104        38.600  

  22204895.03704 117156937.37214     -3363.72304        38.400  

  23538197.47604 124163486.06814      3813.24604        38.000  

  20430870.57945 107834382.26355     -1563.23045        39.000  

  24069258.16904 126954239.95414      2319.64804        37.900  

 06 10 29 01 45  3.0000000  0  9G 1G21G 6G17G30G22G10G26G16                     
  19610928.70105 103525555.90105       394.47705        39.700  

  20759945.67805 109563679.01815      1870.09805        39.200  

  22015100.07904 116159556.45114      -782.85904        38.700  

  22313779.88304 117729133.62214     -2528.16804        38.600  

  22363541.19904 117990628.74614      3009.85904        38.500  

  22205535.12604 117160301.23514     -3364.09404        38.400  

  23537471.82204 124159672.78114      3813.07804        38.000  

  20431168.12545 107835945.76545     -1563.57845        39.300  

  24068816.84604 126951920.77814      2318.85204        37.800  

 06 10 29 01 45  4.0000000  0  9G 1G21G 6G17G30G22G10G26G16                     
  19610853.71505 103525161.72315       393.94505        39.600  

  20759589.89705 109561809.36615      1869.16805        39.000  

  22015249.17704 116160339.78514      -783.58204        38.600  

  22314261.02704 117731661.96214     -2528.58604        38.400  

  22362968.50144 117987619.09754      3009.52744        38.500  

  22206175.31904 117163665.52714     -3364.50004        38.500  

  23536746.22504 124155859.71014      3812.89104        37.700  

  20431465.78945 107837509.78145     -1564.37145        39.000  

  24068375.66504 126949602.25514      2318.15204        37.900  

 06 10 29 01 45  5.0000000  0  9G 1G21G 6G17G30G22G10G26G16                     
  19610778.86205 103524768.39615       392.78505        39.700  

  20759234.24204 109559940.39214      1868.49604        38.800  

  22015398.40404 116161124.02714      -784.72304        38.600  

  22314742.29004 117734190.94114     -2529.30904        38.600  

  22362395.83944 117984609.78844      3009.06644        38.700  

  22206815.56204 117167030.27514     -3364.91004        38.500  

  23536020.70104 124152046.91514      3812.32804        38.100  

  20431763.49645 107839074.26645     -1564.73845        39.300  

  24067934.61404 126947284.42314      2317.41004        37.800  

 06 10 29 01 45  6.0000000  0  9G 1G21G 6G17G30G22G10G26G16                     
  19610704.14205 103524375.76015       392.35205        39.600  

  20758878.68145 109558071.95655      1868.05945        38.900  

  22015547.77204 116161909.04614      -785.24204        38.400  

  22315223.64604 117736720.44314     -2529.46104        38.700  

  22361823.28444 117981600.71844      3008.92244        38.400  

  22207455.91904 117170395.40714     -3365.56604        38.300  

  23535295.19944 124148234.26354      3812.67644        38.000  

  20432061.30205 107840639.16505     -1564.94505        39.100  

  24067493.63904 126944967.15814      2317.06604        37.700  

 06 10 29 01 45  7.0000000  0  9G 1G21G 6G17G30G22G10G26G16                     
  19610629.54205 103523983.72815       391.72305        39.600  

  20758523.22245 109556203.95345      1868.02045        39.000  

  22015697.27404 116162694.74814      -785.94504        38.500  

  22315705.07104 117739250.33014     -2529.90204        38.600  

  22361250.72644 117978591.75444      3008.96544        38.700  

  22208096.32104 117173760.75114     -3365.59804        38.400  

  23534569.66304 124144421.61404      3812.64504        37.900  

  20432359.13145 107842204.33155     -1565.55545        39.200  

  24067052.74544 126942650.36254      2316.54744        37.800  

 06 10 29 01 45  8.0000000  0  9G 1G21G 6G17G30G22G10G26G16                     
  19610555.05805 103523592.29415       391.06305        39.500  

  20758167.84145 109554336.42045      1867.39545        39.000  

  22015846.90504 116163481.13814      -786.51604        38.400  

  22316186.57004 117741780.65614     -2530.48804        38.500  

  22360678.16144 117975582.94544      3008.50444        38.300  

  22208736.74804 117177126.31314     -3365.63304        38.500  

  23533844.11604 124140609.04714      3812.37504        38.100  

  20432657.03245 107843769.78045     -1565.39545        39.100  

  24066611.97604 126940334.03004      2315.90204        37.900  

 06 10 29 01 45  9.0000000  0  9G 1G21G 6G17G30G22G10G26G16                     
  19610480.68145 103523201.52955       390.30145        39.800  

  20757812.59505 109552469.39705      1866.91405        38.900  

  22015996.68404 116164268.25514      -787.50004        38.600  

  22316668.16804 117744311.44114     -2531.26604        38.400  

  22360105.63944 117972574.31144      3008.52044        38.500  

  22209377.21704 117180492.20314     -3365.96504        38.500  

  23533118.63344 124136796.55954      3812.25044        38.100  

  20432955.00005 107845335.58405     -1565.78505        39.300  

  24066171.26444 126938018.23554      2315.47744        37.900  

 06 10 29 01 45 10.0000000  0  9G 1G21G 6G17G30G22G10G26G16                     
  19610406.45105 103522811.48105       389.86705        39.500  

  20757457.40905 109550602.94815      1866.22305        39.000  

  22016146.63304 116165056.20314      -788.16004        38.700  

  22317149.85904 117746842.73914     -2531.56304        38.400  

  22359533.18804 117969565.93204      3008.46904        38.600  

  22210017.79444 117183858.46454     -3366.24644        38.700  

  23532393.17544 124132984.25844      3812.37144        37.900  

  20433253.04605 107846901.80015     -1566.48805        39.000  

  24065730.67144 126935703.01444      2315.09044        37.800  

 06 10 29 01 45 11.0000000  0  9G 1G21G 6G17G30G22G10G26G16                     
  19610332.37405 103522422.08015       389.00805        39.600  

  20757102.34745 109548736.98555      1865.87945        39.300  

  22016296.72644 116165844.86854      -789.06344        38.500  

  22317631.66904 117749374.50314     -2532.19904        38.600  

  22358960.76244 117966557.74154      3008.07044        38.200  

  22210658.38204 117187224.99004     -3366.46904        38.700  

  23531667.73244 124129172.01944      3812.07044        38.000  

  20433551.10505 107848468.30815     -1566.66805        39.200  

  24065290.19044 126933388.30944      2314.39144        37.800  

 06 10 29 01 45 12.0000000  0  9G 1G21G 6G17G30G22G10G26G16                     
  19610258.37405 103522033.28715       388.64805        39.300  

  20756747.34405 109546871.48705      1865.32405        39.000  

  22016446.93144 116166634.20544      -789.63744        38.500  

  22318113.52304 117751906.67914     -2532.30504        38.500  

  22358388.34704 117963549.67704      3007.95704        38.100  

  22211299.05404 117190591.79214     -3366.91804        38.200  

  23530942.28544 124125359.83144      3812.02344        38.200  

  20433849.26705 107850035.15015     -1566.80905        39.200  

  24064849.79944 126931074.08744      2314.08244        37.800  

 06 10 29 01 45 13.0000000  0  9G 1G21G 6G17G30G22G10G26G16                     
  19610184.53405 103521645.19215       387.82805        39.700  

  20756392.43305 109545006.52915      1865.04305        39.100  

  22016597.29444 116167424.33344      -790.49644        38.500  

  22318595.47104 117754439.33414     -2532.68404        38.400  

  22357815.99304 117960541.83314      3007.84404        38.700  

  22211939.79704 117193958.91814     -3367.34804        38.400  

  23530216.87204 124121547.76604      3812.28104        38.000  

  20434147.52805 107851602.35215     -1567.34805        39.300  

  24064409.52404 126928760.42304      2313.45704        37.700  

 06 10 29 01 45 14.0000000  0  9G 1G21G 6G17G30G22G10G26G16                     
  19610110.80405 103521257.76115       387.12505        39.600  

  20756037.62345 109543142.10055      1864.10245        39.100  

  22016747.81444 116168215.20744      -791.38744        38.700  

  22319077.51004 117756972.50014     -2533.42604        38.500  

  22357243.62244 117957534.20254      3007.55144        38.600  

  22212580.62704 117197326.34514     -3367.56604        38.400  

  23529491.48744 124117735.82754      3811.81344        37.800  

  20434445.83305 107853169.90015     -1567.67205        39.000  

  24063969.35004 126926447.30014      2312.81304        38.000  

 06 10 29 01 45 15.0000000  0  9G 1G21G 6G17G30G22G10G26G16                     
  19610037.21805 103520871.04115       386.44105        39.600  

  20755682.94545 109541278.21245      1863.52345        39.200  

  22016898.45044 116169006.86344      -792.20344        38.400  

  22319559.65004 117759506.16314     -2534.19104        38.700  

  22356671.33404 117954526.77104      3007.60504        38.200  

  22213221.46904 117200694.13014     -3368.16004        38.700  

  23528766.11804 124113924.00204      3811.68804        37.900  

  20434744.21305 107854737.83515     -1568.30905        39.300  

  24063529.30404 126924134.73614      2312.45304        38.000  

 06 10 29 01 45 16.0000000  0  9G 1G21G 6G17G30G22G10G26G16                     
  19609963.76345 103520485.16755       385.42645        39.400  

  20755328.40445 109539415.01845      1862.88745        39.100  

  22017049.27904 116169799.45204      -792.99604        38.600  

  22320041.91104 117762040.49114     -2534.69904        38.300  

  22356099.12504 117951519.74214      3007.31304        38.300  

  22213862.39604 117204062.37014     -3368.10904        38.500  

  23528040.84504 124110112.49414      3811.58204        38.000  

  20435042.66005 107856306.29315     -1568.52005        39.300  

  24063089.36104 126921822.88614      2311.56304        38.200  

 06 10 29 01 45 17.0000000  0  9G 1G21G 6G17G30G22G10G26G16                     
  19609890.42545 103520099.83245       385.11745        39.400  

  20754973.91245 109537552.23745      1862.67245        39.300  

  22017200.20204 116170592.65714      -793.51204        38.500  

  22320524.25704 117764575.15614     -2534.93404        38.300  

  22355526.90104 117948512.81514      3006.96104        38.500  

  22214503.39004 117207430.83814     -3368.37904        38.600  

  23527315.55104 124106300.97314      3811.56604        38.100  

  20435341.15845 107857875.01255     -1568.85545        39.300  

  24062649.49204 126919511.44914      2311.23804        37.700  

 06 10 29 01 45 18.0000000  0  9G 1G21G 6G17G30G22G10G26G16                     
  19609817.24245 103519715.16545       384.45745        39.500  

  20754619.51805 109535689.94605      1862.03505        39.000  

  22017351.30804 116171386.60914      -794.32404        38.600  

  22321006.66244 117767110.26554     -2535.27344        38.600  

  22354954.76004 117945506.05214      3006.51604        38.200  

  22215144.44304 117210799.58314     -3368.64804        38.700  

  23526590.25604 124102489.53714      3811.15204        38.000  

  20435639.72705 107859444.01805     -1569.12505        39.100  

  24062209.73604 126917200.53914      2310.70304        37.800  

 06 10 29 01 45 19.0000000  0  9G 1G21G 6G17G30G22G10G26G16                     
  19609744.16805 103519331.13705       383.79305        39.600  

  20754265.22605 109533828.14415      1861.59005        39.100  

  22017502.56104 116172181.28314      -795.16004        38.600  

  22321489.15544 117769645.84744     -2535.75044        38.400  

  22354382.62504 117942499.47714      3006.22704        38.600  

  22215785.56304 117214168.61514     -3368.96104        38.500  

  23525864.93044 124098678.17454      3811.23044        37.800  

  20435938.37705 107861013.38815     -1569.69905        39.200  

  24061770.08704 126914890.15114      2309.96504        37.800  

 06 10 29 01 45 20.0000000  0  9G 1G21G 6G17G30G22G10G26G16                     
  19609671.22605 103518947.91015       382.68405        39.700  

  20753911.06505 109531967.01415      1860.91805        39.000  

  22017653.95504 116172976.81314      -795.84004        38.700  

  22321971.77744 117772182.02444     -2536.35544        38.300  

  22353810.56504 117939493.19214      3006.22704        38.500  

  22216426.71904 117217538.10614     -3369.75804        38.500  

  23525139.67244 124094867.07144      3811.09444        38.100  

  20436237.12605 107862583.23615     -1569.99205        39.200  

  24061330.54904 126912580.40314      2309.52304        37.600  

 06 10 29 01 45 21.0000000  0  9G 1G21G 6G17G30G22G10G26G16                     
  19609598.43805 103518565.38915       382.03905        39.500  

  20753556.99705 109530106.41615      1860.43005        38.900  

  22017805.50204 116173773.14214      -796.63704        38.700  

  22322454.48244 117774718.72644     -2537.11344        38.500  

  22353238.52404 117936487.15814      3006.05104        38.300  

  22217068.02804 117220907.91414     -3370.13304        38.200  

  23524414.46104 124091056.07904      3811.01204        38.000  

  20436535.89605 107864153.45615     -1570.49205        39.000  

  24060891.13804 126910271.23714      2309.21504        37.700  

 06 10 29 01 45 22.0000000  0  9G 1G21G 6G17G30G22G10G26G16                     
  19609525.75005 103518183.43615       381.49605        39.600  

  20753203.00505 109528246.23615      1860.18405        39.000  

  22017957.17004 116174570.13514      -797.21904        38.800  

  22322937.27404 117777255.79004     -2537.21104        38.600  

  22352666.53604 117933481.24714      3005.63704        38.600  

  22217709.30544 117224277.92154     -3369.96544        38.400  

  23523689.25904 124087245.13214      3810.74204        37.700  

  20436834.78205 107865723.92615     -1570.78105        39.100  

  24060451.80204 126907962.50214      2308.44104        37.700  

 06 10 29 01 45 23.0000000  0  9G 1G21G 6G17G30G22G10G26G16                     
  19609453.18105 103517802.06315       381.07405        39.500  

  20752849.12505 109526386.52015      1859.51605        39.000  

  22018108.95204 116175367.79014      -798.06604        38.700  

  22323420.12604 117779793.25514     -2537.80904        38.500  

  22352094.55204 117930475.43714      3005.44904        38.500  

  22218350.68644 117227648.20544     -3370.41044        38.500  

  23522964.07504 124083434.21214      3810.63304        38.000  

  20437133.73505 107867294.68415     -1571.03105        39.200  

  24060012.54904 126905654.24814      2308.18004        37.700  

 06 10 29 01 45 24.0000000  0  9G 1G21G 6G17G30G22G10G26G16                     
  19609380.75645 103517421.47255       380.12145        39.600  

  20752495.36305 109524527.41115      1858.72705        38.900  

  22018260.92204 116176166.31414      -799.08604        38.500  

  22323903.11504 117782331.29714     -2538.71104        38.600  

  22351522.59804 117927469.92014      3005.24604        38.100  

  22218992.07844 117231018.87144     -3370.90244        38.600  

  23522238.92944 124079623.48054      3810.60944        38.000  

  20437432.73305 107868865.86615     -1571.53105        39.100  

  24059573.42504 126903346.59714      2307.37904        38.100  

 06 10 29 01 45 25.0000000  0  9G 1G21G 6G17G30G22G10G26G16                     
  19609308.46205 103517041.52605       379.80505        39.800  

  20752141.68305 109522668.79715      1858.28505        38.900  

  22018413.00104 116176965.54214      -799.63704        38.700  

  22324386.18904 117784869.79214     -2538.71104        38.500  

  22350950.69204 117924464.60214      3005.26604        38.700  

  22219633.55344 117234389.82644     -3371.18044        38.600  

  23521513.79804 124075812.85104      3810.98804        38.000  

  20437731.77605 107870437.42515     -1571.64105        39.000  

  24059134.41204 126901039.51414      2306.75804        37.800  

 06 10 29 01 45 26.0000000  0  9G 1G21G 6G17G30G22G10G26G16                     
  19609236.27405 103516662.24515       378.89105        39.500  

  20751788.10505 109520810.72015      1857.69505        39.100  

  22018565.25104 116177765.52714      -800.53104        38.500  

  22324869.33004 117787408.75314     -2539.26604        38.300  

  22350378.80404 117921459.45514      3005.16004        38.600  

  22220275.07044 117237761.09244     -3371.40644        38.300  

  23520788.70004 124072002.34014      3810.58204        37.900  

  20438030.87605 107872009.29515     -1572.22305        39.100  

  24058695.46004 126898732.92414      2306.27304        37.500  

 06 10 29 01 45 27.0000000  0  9G 1G21G 6G17G30G22G10G26G16                     
  19609164.23905 103516283.68815       378.06605        39.600  

  20751434.64805 109518953.17015      1857.35205        39.000  

  22018717.66904 116178566.29014      -801.25004        38.600  

  22325352.57004 117789948.22314     -2539.89104        38.400  

  22349807.00504 117918454.58214      3004.62104        38.500  

  22220916.68604 117241132.70404     -3371.97704        38.600  

  23520063.60404 124068191.96214      3809.93404        38.100  

  20438330.06305 107873581.58015     -1572.67205        39.400  

  24058256.63404 126896426.90814      2305.79304        37.800  

 06 10 29 01 45 28.0000000  0  9G 1G21G 6G17G30G22G10G26G16                     
  19609092.32705 103515905.77015       377.78505        39.600  

  20751081.28605 109517096.17215      1856.69505        39.000  

  22018870.21704 116179367.81614      -801.93804        38.400  

  22325835.92704 117792488.18314     -2540.09004        38.500  

  22349235.23604 117915449.88914      3004.57404        38.500  

  22221558.34704 117244504.61414     -3372.11704        38.400  

  23519338.54644 124064381.69254      3810.33644        37.900  

  20438629.30105 107875154.19315     -1572.49605        39.100  

  24057817.91204 126894121.45614      2305.07404        37.700  

 06 10 29 01 45 29.0000000  0  9G 1G21G 6G17G30G22G10G26G16                     
  19609020.52705 103515528.47515       377.01605        39.700  

  20750727.97705 109515239.58915      1855.99205        38.900  

  22019022.88204 116180170.00314      -802.42604        38.400  

  22326319.34204 117795028.51614     -2540.51604        38.600  

  22348663.48604 117912445.31014      3004.37904        38.200  

  22222200.06304 117247876.76214     -3372.10904        38.600  

  23518613.47404 124060571.46104      3810.26204        38.000  

  20438928.61705 107876727.09115     -1573.35205        39.100  

  24057379.26304 126891816.44014      2304.81604        37.800  

 06 10 29 01 45 30.0000000  0  9G 1G21G 6G17G30G22G10G26G16                     
  19608948.86045 103515151.83555       376.15645        39.600  

  20750374.74905 109513383.51515      1855.94905        39.200  

  22019175.64804 116180972.92014      -803.19904        38.600  

  22326802.82904 117797569.33014     -2541.02304        38.400  

  22348091.77604 117909440.93214      3004.19504        38.300  

  22222841.84304 117251249.21414     -3372.47304        38.300  

  23517888.41004 124056761.32514      3810.16804        38.100  

  20439227.97805 107878300.32715     -1573.38705        39.200  

  24056940.73604 126889511.94414      2304.32804        38.000  

 06 10 29 01 45 31.0000000  0  9G 1G21G 6G17G30G22G10G26G16                     
  19608877.31505 103514775.80405       375.77705        39.600  

  20750021.66205 109511527.94615      1855.48405        39.000  

  22019328.61004 116181776.55314      -803.67604        38.600  

  22327286.37004 117800110.56714     -2541.32804        38.400  

  22347520.10804 117906436.69714      3004.14504        38.600  

  22223483.63705 117254621.92215     -3372.52305        38.900  

  23517163.37004 124052951.27014      3809.90604        38.300  

  20439527.41305 107879873.86315     -1573.84405        39.400  

  24056502.27804 126887207.96614      2303.71104        37.700  

 06 10 29 01 45 32.0000000  0  9G 1G21G 6G17G30G22G10G26G16                     
  19608805.86705 103514400.39115       375.09005        39.400  

  20749668.64045 109509672.82355      1854.66045        38.900  

  22019481.67444 116182580.88254      -804.71144        38.500  

  22327770.01504 117802652.21414     -2541.75404        38.400  

  22346948.44204 117903432.60114      3004.18404        38.600  

  22224125.45804 117257994.89814     -3373.12904        38.400  

  23516438.34804 124049141.26014      3809.76604        38.000  

  20439826.91905 107881447.69615     -1573.89105        39.100  

  24056063.92404 126884904.45314      2302.93004        37.800  

 06 10 29 01 45 33.0000000  0  9G 1G21G 6G17G30G22G10G26G16                     
  19608734.54005 103514025.67315       374.35905        39.600  

  20749315.73305 109507818.23205      1854.12505        38.900  

  22019634.87804 116183385.96704      -805.29704        38.600  

  22328253.77304 117805194.36314     -2542.40604        38.400  

  22346376.80104 117900428.73214      3004.07404        38.300  

  22224767.34404 117261368.17914     -3373.30904        38.300  

  23515713.36204 124045331.36214      3809.95304        38.200  

  20440126.48345 107883021.89755     -1574.26245        39.300  

  24055625.71604 126882601.49314      2302.60904        37.800  

 06 10 29 01 45 34.0000000  0  9G 1G21G 6G17G30G22G10G26G16                     
  19608663.34905 103513651.55615       373.87505        39.700  

  20748962.90305 109505964.10815      1854.02705        39.100  

  22019788.19904 116184191.77014      -806.02004        38.500  

  22328737.60404 117807736.95214     -2542.82804        38.500  

  22345805.19244 117897425.04154      3003.55144        38.500  

  22225409.35504 117264741.74114     -3373.74604        38.400  

  23514988.37904 124041521.55714      3809.62504        37.900  

  20440426.07105 107884596.40205     -1574.41405        39.200  

  24055187.56104 126880299.01514      2302.23804        37.700  

 06 10 29 01 45 35.0000000  0  9G 1G21G 6G17G30G22G10G26G16                     
  19608592.30805 103513278.19415       372.89805        39.700  

  20748610.20805 109504110.57915      1853.16005        39.100  

  22019941.69904 116184998.38614      -807.15204        38.400  

  22329221.52704 117810280.03614     -2543.19904        38.700  

  22345233.64744 117894421.59944      3003.15644        38.500  

  22226051.40204 117268115.65614     -3373.98404        38.500  

  23514263.43504 124037711.91414      3809.41804        38.000  

  20440725.78805 107886171.34015     -1575.05905        39.300  

  24054749.53504 126877997.16614      2301.30104        37.700  

 06 10 29 01 45 36.0000000  0  9G 1G21G 6G17G30G22G10G26G16                     
  19608521.40905 103512905.62615       372.14105        39.400  

  20748257.61445 109502257.72155      1852.27745        39.100  

  22020095.36544 116185805.86954      -808.03544        38.700  

  22329705.57604 117812823.75614     -2543.85904        38.400  

  22344662.18144 117891418.47144      3003.03944        38.500  

  22226693.52944 117271490.01754     -3374.34844        38.200  

  23513538.53804 124033902.52814      3809.29304        37.900  

  20441025.58205 107887746.74615     -1575.65605        39.300  

  24054311.63504 126875695.96214      2301.02304        37.700  

 06 10 29 01 45 37.0000000  0  9G 1G21G 6G17G30G22G10G26G16                     
  19608450.65605 103512533.82215       371.34805        39.500  

  20747905.14605 109500405.45805      1851.80105        39.100  

  22020249.18044 116186614.20244      -808.68844        38.600  

  22330189.72204 117815368.03714     -2544.64804        38.600  

  22344090.71104 117888415.65204      3002.72704        38.500  

  22227335.71604 117274864.80104     -3375.00404        38.400  

  23512813.67104 124030093.31514      3808.96904        38.000  

  20441325.50945 107889322.60855     -1576.19945        39.200  

  24053873.85504 126873395.41814      2300.03904        37.700  

 06 10 29 01 45 38.0000000  0  9G 1G21G 6G17G30G22G10G26G16                     
  19608380.04645 103512162.84155       370.76245        39.600  

  20747552.81005 109498553.85215      1851.28105        39.000  

  22020403.20244 116187423.42544      -809.50044        38.400  

  22330674.00904 117817912.94914     -2545.05904        38.600  

  22343519.36244 117885413.18254      3002.43044        38.500  

  22227977.98304 117278240.02214     -3375.33204        38.600  

  23512088.85004 124026284.37314      3808.92604        37.900  

  20441625.49745 107890898.95145     -1576.60945        39.300  

  24053436.20944 126871095.53454      2299.57444        37.900  

 06 10 29 01 45 39.0000000  0  9G 1G21G 6G17G30G22G10G26G16                     
  19608309.59345 103511792.63845       369.92245        39.600  

  20747200.58905 109496702.90415      1850.67205        39.000  

  22020557.36544 116188233.51444      -810.23844        38.600  

  22331158.41204 117820458.44014     -2545.89104        38.600  

  22342948.08204 117882411.01604      3002.05504        38.600  

  22228620.33204 117281615.66514     -3375.70704        38.400  

  23511364.08044 124022475.67654      3808.46544        38.000  

  20441925.53845 107892475.77045     -1577.09845        39.100  

  24052998.66804 126868796.31604      2298.84804        37.900  

 06 10 29 01 45 40.0000000  0  9G 1G21G 6G17G30G22G10G26G16                     
  19608239.27045 103511423.07345       369.12945        39.700  

  20746848.47305 109494852.41115      1850.41005        39.000  

  22020711.65944 116189044.31544      -810.92244        38.400  

  22331642.87604 117823004.36814     -2546.48804        38.200  

  22342376.79304 117879409.03814      3001.75004        38.400  

  22229262.71804 117284991.58514     -3375.94104        38.200  

  23510639.32404 124018667.04404      3808.44504        38.100  

  20442225.63445 107894052.89245     -1577.30545        39.200  

  24052561.22644 126866497.57754      2298.37544        37.800  

 06 10 29 01 45 41.0000000  0  9G 1G21G 6G17G30G22G10G26G16                     
  19608169.05745 103511054.13645       368.64545        39.400  

  20746496.42745 109493002.44755      1850.09845        39.300  

  22020866.07144 116189855.85744      -811.81644        38.500  

  22332127.46504 117825550.73014     -2546.75404        38.300  

  22341805.57804 117876407.19914      3001.89804        38.700  

  22229905.18604 117288367.78114     -3376.25804        38.400  

  23509914.59804 124014858.48414      3808.46104        37.900  

  20442525.83845 107895630.34345     -1577.54345        39.100  

  24052123.86744 126864199.36744      2297.92644        37.800  

 06 10 29 01 45 42.0000000  0  9G 1G21G 6G17G30G22G10G26G16                     
  19608098.97245 103510685.85645       367.96945        39.500  

  20746144.49944 109491152.97244      1849.23444        38.800  

  22021020.64404 116190668.11204      -812.91804        38.400  

  22332612.10204 117828097.55514     -2547.29704        38.500  

  22341234.36504 117873405.55614      3001.44904        38.600  

  22230547.74504 117291744.27314     -3376.59004        38.600  

  23509189.86804 124011050.03714      3807.96504        38.000  

  20442826.07405 107897208.12305     -1578.00405        39.300  

  24051686.65544 126861901.66744      2297.47344        38.000  

 06 10 29 01 45 43.0000000  0  9G 1G21G 6G17G30G22G10G26G16                     
  19608028.99005 103510318.23105       367.29705        39.400  

  20745792.63645 109489304.00245      1848.81645        39.100  

  22021175.33204 116191481.08414      -813.25804        38.600  

  22333096.82104 117830644.83814     -2547.56304        38.200  

  22340663.22704 117870404.11314      3001.27004        38.200  

  22231190.33104 117295121.04414     -3376.84804        38.400  

  23508465.13404 124007241.67614      3808.16004        38.100  

  20443126.37305 107898786.24915     -1578.13705        39.200  

  24051249.50704 126859604.50004      2297.01204        37.900  

 06 10 29 01 45 44.0000000  0  9G 1G21G 6G17G30G22G10G26G16                     
  19607959.15505 103509951.24115       366.91405        39.600  

  20745440.89344 109487455.53844      1848.18044        38.700  

  22021330.16704 116192294.80714      -814.09804        38.600  

  22333581.64804 117833192.55514     -2547.84004        38.400  

  22340092.10704 117867402.82214      3001.14804        38.700  

  22231832.97544 117298498.09454     -3376.89544        38.400  

  23507740.44104 124003433.37714      3808.09404        38.200  

  20443426.74105 107900364.68415     -1578.48005        39.000  

  24050812.47604 126857307.85714      2296.16804        37.600  

 06 10 29 01 45 45.0000000  0  9G 1G21G 6G17G30G22G10G26G16                     
  19607889.43105 103509584.88515       366.18405        39.500  

  20745089.20105 109485607.51405      1847.89105        39.100  

  22021485.11304 116193109.22014      -814.77004        38.700  

  22334066.57204 117835740.71014     -2548.35204        38.200  

  22339520.99704 117864401.67214      3001.36304        38.600  

  22232475.67144 117301875.42444     -3377.20744        38.400  

  23507015.77444 123999625.16054      3808.20344        37.900  

  20443727.17905 107901943.44815     -1578.87505        39.100  

  24050375.52404 126855011.66514      2295.64504        38.000  

 06 10 29 01 45 46.0000000  0  9G 1G21G 6G17G30G22G10G26G16                     
  19607819.85805 103509219.21315       365.33205        39.600  

  20744737.63705 109483760.04915      1847.15605        39.100  

  22021640.25604 116193924.40114      -815.58604        38.600  

  22334551.54604 117838289.32414     -2548.71504        38.200  

  22338949.91804 117861400.77114      3000.67604        38.600  

  22233118.40804 117305253.05104     -3377.52304        38.300  

  23506291.10044 123995817.07444      3808.13744        38.100  

  20444027.67405 107903522.56815     -1579.37105        39.100  

  24049938.68404 126852716.06414      2295.27304        37.900  

 06 10 29 01 45 47.0000000  0  9G 1G21G 6G17G30G22G10G26G16                     
  19607750.38905 103508854.24315       364.42605        39.500  

  20744386.18905 109481913.12915      1846.52705        39.300  

  22021795.53704 116194740.34614      -816.27704        38.700  

  22335036.63904 117840838.46914     -2549.37504        38.300  

  22338378.88904 117858400.08614      3000.53504        38.300  

  22233761.22444 117308631.04954     -3378.15644        38.400  

  23505566.49844 123992009.15544      3807.59444        38.100  

  20444328.23505 107905102.06115     -1580.01205        39.100  

  24049501.95904 126850421.02014      2294.78504        37.900  

 06 10 29 01 45 48.0000000  0  9G 1G21G 6G17G30G22G10G26G16                     
  19607681.06605 103508489.95615       363.89505        39.600  

  20744034.84745 109480066.75555      1845.93845        38.900  

  22021950.95604 116195557.05914      -817.16404        38.500  

  22335521.79304 117843388.09714     -2549.88704        38.400  

  22337807.90004 117855399.61614      3000.14804        38.600  

  22234404.11044 117312009.34044     -3378.49644        38.500  

  23504841.88044 123988201.31944      3807.74644        37.900  

  20444628.86105 107906681.90915     -1579.99605        39.200  

  24049065.32104 126848126.50814      2294.11304        38.000  

 06 10 29 01 45 49.0000000  0  9G 1G21G 6G17G30G22G10G26G16                     
  19607611.86205 103508126.30915       363.23405        39.700  

  20743683.58605 109478220.88605      1845.48005        38.900  

  22022106.50204 116196374.51314      -817.71104        38.700  

  22336007.07404 117845938.17714     -2550.18404        38.600  

  22337236.97804 117852399.32814      3000.05104        38.200  

  22235047.04044 117315387.94344     -3378.77744        38.600  

  23504117.27104 123984393.60904      3807.62504        38.000  

  20444929.55045 107908262.10155     -1580.48445        39.200  

  24048628.80604 126845832.54414      2293.73804        37.800  

 06 10 29 01 45 50.0000000  0  9G 1G21G 6G17G30G22G10G26G16                     
  19607542.80305 103507763.38615       362.49605        39.700  

  20743332.43005 109476375.56515      1844.91005        39.000  

  22022262.21704 116197192.75314      -818.71904        38.700  

  22336492.43444 117848488.75554     -2550.67644        38.500  

  22336666.07804 117849399.28014      3000.02704        38.100  

  22235690.01344 117318766.89844     -3379.29744        38.600  

  23503392.69404 123980586.03814      3807.44104        38.100  

  20445230.34005 107909842.67605     -1580.54705        39.200  

  24048192.36604 126843539.14014      2292.93804        37.900  

 06 10 29 01 45 51.0000000  0  9G 1G21G 6G17G30G22G10G26G16                     
  19607473.87005 103507401.12315       362.16805        39.600  

  20742981.38605 109474530.78015      1844.70705        38.900  

  22022418.06604 116198011.76014      -819.36704        38.600  

  22336977.89804 117851039.84404     -2551.32404        38.600  

  22336095.23504 117846399.45314      2999.88304        38.600  

  22236333.08004 117322146.15504     -3379.37904        38.500  

  23502668.16204 123976778.59414      3807.43004        38.100  

  20445531.19405 107911423.63715     -1581.05105        39.100  

  24047756.06504 126841246.32314      2292.51604        37.900  

 06 10 29 01 45 52.0000000  0  9G 1G21G 6G17G30G22G10G26G16                     
  19607405.07405 103507039.58615       361.05905        39.600  

  20742630.42205 109472686.57315      1843.87505        39.300  

  22022574.06304 116198831.55414      -820.31604        38.600  

  22337463.43704 117853591.42314     -2551.85904        38.500  

  22335524.42804 117843399.87514      2999.33604        38.500  

  22236976.15804 117325525.75214     -3379.95304        38.200  

  23501943.62504 123972971.32114      3807.13304        38.000  

  20445832.11405 107913004.99115     -1581.64105        39.100  

  24047319.88044 126838954.07154      2291.74644        37.800  

 06 10 29 01 45 53.0000000  0  9G 1G21G 6G17G30G22G10G26G16                     
  19607336.39505 103506678.71615       360.37505        39.600  

  20742279.58305 109470842.86415      1843.39105        39.000  

  22022730.22704 116199652.08014      -821.14104        38.500  

  22337949.07504 117856143.47514     -2552.42604        38.500  

  22334953.66444 117840400.46254      2999.27744        38.600  

  22237619.35604 117328905.65214     -3380.06604        38.500  

  23501219.15604 123969164.12814      3807.09004        38.100  

  20446133.11905 107914586.65015     -1581.97305        39.300  

  24046883.76604 126836662.30404      2291.55104        38.000  

 06 10 29 01 45 54.0000000  0  9G 1G21G 6G17G30G22G10G26G16                     
  19607267.84805 103506318.49015       360.08205        39.400  

  20741928.85904 109468999.69814      1842.84404        38.800  

  22022886.50504 116200473.34614      -821.52004        38.600  

  22338434.80004 117858695.99014     -2552.72304        38.300  

  22334382.94304 117837401.25904      2999.08604        38.500  

  22238262.57304 117332285.87514     -3380.25004        38.400  

  23500494.70104 123965357.05514      3807.07804        37.800  

  20446434.19405 107916168.68015     -1582.12905        39.100  

  24046447.77804 126834371.12414      2291.10904        37.900  

 06 10 29 01 45 55.0000000  0  9G 1G21G 6G17G30G22G10G26G16                     
  19607199.43905 103505958.99315       359.12505        39.600  

  20741578.19705 109467157.04715      1842.40205        38.900  

  22023042.95604 116201295.39114      -822.17604        38.400  

  22338920.63104 117861249.00414     -2553.09004        38.500  

  22333812.25704 117834402.30014      2998.93804        38.400  

  22238905.89804 117335666.43314     -3380.79704        38.700  

  23499770.26604 123961550.12614      3806.92604        38.100  

  20446735.33605 107917751.09015     -1582.53905        39.300  

  24046011.85844 126832080.51254      2290.48844        37.900  

 06 10 29 01 45 56.0000000  0  9G 1G21G 6G17G30G22G10G26G16                     
  19607131.14845 103505600.09855       358.68045        39.600  

  20741227.65805 109465314.89415      1842.02705        39.200  

  22023199.52944 116202118.15254      -822.85244        38.600  

  22339406.52104 117863802.45514     -2553.66404        38.300  

  22333241.59604 117831403.49514      2998.63304        38.500  

  22239549.25704 117339047.23414     -3380.91804        38.700  

  23499045.85604 123957743.26614      3806.72304        38.100  

  20447036.52105 107919333.80915     -1582.83205        39.000  

  24045576.06704 126829790.37604      2290.04304        37.800  

 06 10 29 01 45 57.0000000  0  9G 1G21G 6G17G30G22G10G26G16                     
  19607062.97405 103505241.71105       358.08205        39.600  

  20740877.15505 109463473.09615      1841.47705        39.100  

  22023356.22804 116202941.50004      -823.78104        38.800  

  22339892.49104 117866356.19714     -2554.06604        38.400  

  22332670.94404 117828404.68914      2998.49604        38.500  

  22240192.63804 117342428.15114     -3380.72704        38.500  

  23498321.44104 123953936.34214      3806.75404        38.000  

  20447337.74305 107920916.69415     -1582.94505        39.400  

  24045140.35904 126827500.59614      2289.52004        38.000  

 06 10 29 01 45 58.0000000  0  9G 1G21G 6G17G30G22G10G26G16                     
  19606994.88005 103504883.85115       357.48005        39.800  

  20740526.74005 109461631.66315      1841.22705        38.900  

  22023513.01104 116203765.41614      -824.05104        38.700  

  22340378.54444 117868910.26554     -2554.23844        38.500  

  22332100.28804 117825405.96114      2999.13304        38.400  

  22240836.05404 117345809.27414     -3381.08604        38.600  

  23497597.01804 123950129.40614      3807.03504        38.000  

  20447638.97005 107922499.80815     -1583.40605        39.200  

  24044704.70104 126825211.23614      2289.26604        38.000  

 06 10 29 01 45 59.0000000  0  9G 1G21G 6G17G30G22G10G26G16                     
  19606926.90105 103504526.51215       357.10505        39.800  

  20740176.43405 109459790.63415      1840.55905        39.200  

  22023669.92404 116204589.99614      -824.95304        38.600  

  22340864.63604 117871464.66304     -2554.58604        38.500  

  22331529.66704 117822407.32214      2998.51204        38.200  

  22241479.49404 117349190.57114     -3381.45704        38.400  

  23496872.58104 123946322.43814      3806.94904        37.900  

  20447940.28005 107924083.11915     -1583.52005        39.300  

  24044269.13304 126822922.28314      2288.69104        38.000  

 06 10 29 01 46  0.0000000  0  9G 1G21G 6G17G30G22G10G26G16                     
  19606859.03405 103504169.92715       356.02705        39.600  

  20739826.22105 109457950.19015      1840.03105        39.100  

  22023826.95804 116205415.35214      -825.85504        38.600  

  22341350.82204 117874019.61014     -2555.34004        38.300  

  22330959.11804 117819408.92414      2998.05504        38.200  

  22242122.97544 117352572.22254     -3381.83644        38.400  

  23496148.14204 123942515.63414      3806.57804        38.000  

  20448241.63205 107925666.84315     -1584.16005        39.100  

  24043833.66304 126820633.92614      2288.01204        37.900  

 06 10 29 01 46  1.0000000  0  9G 1G21G 6G17G30G22G10G26G16                     
  19606791.34305 103503814.21115       355.31605        39.800  

  20739476.13205 109456110.48315      1839.39805        38.900  

  22023984.17304 116206241.70414      -826.73004        38.500  

  22341837.14204 117876575.24214     -2555.91804        38.400  

  22330388.61404 117816410.96614      2997.69104        38.500  

  22242766.59504 117355954.41604     -3382.56604        38.300  

  23495423.79304 123938709.20014      3806.09004        37.900  

  20448543.10505 107927251.16815     -1584.79705        39.300  

  24043398.34504 126818346.32014      2287.59804        37.700  

 06 10 29 01 46  2.0000000  0  9G 1G21G 6G17G30G22G10G26G16                     
  19606723.77505 103503459.17615       354.75005        39.400  

  20739126.14805 109454271.30915      1838.74205        39.100  

  22024141.57844 116207068.77954      -827.34844        38.700  

  22342323.55244 117879131.33054     -2556.31644        38.300  

  22329818.18704 117813413.18614      2997.81604        38.300  

  22243410.27304 117359336.89314     -3382.47704        38.400  

  23494699.48304 123934902.85014      3806.36304        38.100  

  20448844.65305 107928835.81015     -1584.75805        39.200  

  24042963.17204 126816059.28114      2286.84804        37.700  

 06 10 29 01 46  3.0000000  0  9G 1G21G 6G17G30G22G10G26G16                     
  19606656.34105 103503104.84605       353.82005        39.500  

  20738776.26205 109452432.67215      1838.25405        38.900  

  22024299.11844 116207896.64544      -828.45744        38.500  

  22342810.07644 117881687.93944     -2556.84844        38.700  

  22329247.74344 117810415.66854      2997.05944        38.300  

  22244053.97004 117362719.71514     -3382.99204        38.400  

  23493975.21744 123931096.66454      3805.75044        38.000  

  20449146.27005 107930420.84215     -1585.19905        39.200  

  24042528.07344 126813772.80254      2286.02344        38.000  

 06 10 29 01 46  4.0000000  0  9G 1G21G 6G17G30G22G10G26G16                     
  19606589.07545 103502751.38645       352.85545        39.600  

  20738426.55405 109450594.77215      1837.31605        39.100  

  22024456.82644 116208725.46544      -829.31644        38.700  

  22343296.73844 117884245.21944     -2557.70744        38.400  

  22328677.36844 117807418.53544      2996.64844        38.600  

  22244697.77904 117366103.04514     -3383.39804        38.400  

  23493251.00104 123927290.77504      3805.92204        38.000  

  20449448.00505 107932006.42815     -1586.15605        39.200  

  24042093.13744 126811487.06444      2285.26244        37.700  

 06 10 29 01 46  5.0000000  0  9G 1G21G 6G17G30G22G10G26G16                     
  19606521.97245 103502398.72545       352.55545        39.600  

  20738076.95005 109448757.55815      1836.76605        39.300  

  22024614.67744 116209555.18244      -830.19144        38.500  

  22343783.49744 117886803.12444     -2558.50044        38.300  

  22328107.09244 117804421.74344      2996.74244        38.300  

  22245341.69104 117369486.84714     -3384.15604        38.400  

  23492526.82044 123923485.17054      3805.42644        37.900  

  20449749.83805 107933592.50715     -1586.08205        39.200  

  24041658.29244 126809202.01044      2284.74644        37.800  

 06 10 29 01 46  6.0000000  0  9G 1G21G 6G17G30G22G10G26G16                     
  19606455.01445 103502046.85045       351.57445        39.600  

  20737727.44745 109446920.93055      1836.35245        39.100  

  22024772.70804 116210385.72504      -830.88704        38.700  

  22344270.34204 117889361.57604     -2558.59404        38.300  

  22327536.91344 117801425.25344      2996.29744        38.300  

  22245985.69004 117372871.02114     -3384.29304        38.600  

  23491802.67604 123919679.76504      3805.35904        37.800  

  20450051.75105 107935179.04815     -1586.51205        39.300  

  24041223.57244 126806917.59344      2284.03544        37.700  

 06 10 29 01 46  7.0000000  0  9G 1G21G 6G17G30G22G10G26G16                     
  19606388.16505 103501695.59905       350.77305        39.600  

  20737378.03345 109445084.79445      1836.06645        39.200  

  22024930.90504 116211216.99514      -831.47704        38.500  

  22344757.27504 117891920.44414     -2558.92604        38.200  

  22326966.74404 117798428.92104      2996.18804        38.500  

  22246629.73004 117376255.47214     -3384.50404        38.600  

  23491078.55904 123915874.44014      3805.18804        37.800  

  20450353.73905 107936765.88815     -1587.02305        38.900  

  24040788.95404 126804633.69604      2283.57004        37.600  

 06 10 29 01 46  8.0000000  0  9G 1G21G 6G17G30G22G10G26G16                     
  19606321.43905 103501344.87815       350.19905        39.700  

  20737028.71205 109443249.06105      1835.54705        39.000  

  22025089.20904 116212048.87414      -832.32404        38.500  

  22345244.29404 117894479.68414     -2559.34404        38.500  

  22326396.58304 117795432.69414      2995.76604        38.300  

  22247273.84104 117379640.12014     -3384.91804        38.600  

  23490354.42404 123912069.08314      3805.43404        38.000  

  20450655.75605 107938352.95715     -1587.32405        39.100  

  24040354.40704 126802350.16414      2283.25804        37.700  

 06 10 29 01 46  9.0000000  0  9G 1G21G 6G17G30G22G10G26G16                     
  19606254.78705 103500994.76115       349.74605        39.600  

  20736679.45705 109441413.77515      1835.04705        38.900  

  22025247.63204 116212881.44414      -833.14504        38.600  

  22345731.37104 117897039.29714     -2559.93404        38.400  

  22325826.40404 117792436.55514      2996.04304        38.600  

  22247917.95304 117383024.97614     -3384.99204        38.400  

  23489630.26644 123908263.78854      3805.32444        38.100  

  20450957.81305 107939940.29415     -1587.37505        39.000  

  24039919.95504 126800067.12314      2282.97304        37.800  

 06 10 29 01 46 10.0000000  0  9G 1G21G 6G17G30G22G10G26G16                     
  19606188.29505 103500645.33515       348.89805        39.600  

  20736330.32805 109439579.01015      1834.72705        39.000  

  22025406.20804 116213714.76514      -833.83204        38.500  

  22346218.54104 117899599.40814     -2560.53104        38.600  

  22325256.28304 117789440.64914      2995.68004        38.600  

  22248562.15304 117386410.15314     -3385.28904        38.500  

  23488906.19144 123904458.61944      3805.06344        37.900  

  20451259.94005 107941527.98915     -1587.86705        39.100  

  24039485.59304 126797784.66014      2282.28104        37.700  

 06 10 29 01 46 11.0000000  0  9G 1G21G 6G17G30G22G10G26G16                     
  19606121.94605 103500296.70415       348.23405        39.700  

  20735981.32305 109437744.92915      1833.77305        39.100  

  22025564.95604 116214548.94714      -834.41804        38.700  

  22346705.83604 117902160.11014     -2560.94504        38.200  

  22324686.21544 117786445.05054      2995.57844        38.800  

  22249206.40604 117389795.78014     -3385.86704        38.400  

  23488182.13844 123900653.69844      3804.87544        38.000  

  20451562.18405 107943116.19415     -1588.58205        39.100  

  24039051.36104 126795502.83914      2281.56604        38.000  

 06 10 29 01 46 12.0000000  0  9G 1G21G 6G17G30G22G10G26G16                     
  19606055.73205 103499948.71415       347.66005        39.700  

  20735632.42005 109435911.34815      1833.42205        39.000  

  22025723.80904 116215383.88214      -835.22304        38.500  

  22347193.22204 117904721.28314     -2561.57404        38.500  

  22324116.15544 117783449.65944      2995.57444        38.600  

  22249850.74804 117393181.67614     -3385.73804        38.300  

  23487458.09844 123896848.87444      3804.67244        38.200  

  20451864.44905 107944704.70115     -1588.62105        39.300  

  24038617.24904 126793221.55714      2281.11704        38.000  

 06 10 29 01 46 13.0000000  0  9G 1G21G 6G17G30G22G10G26G16                     
  19605989.64105 103499601.37315       347.07005        39.600  

  20735283.58105 109434078.25415      1832.80905        39.000  

  22025882.81604 116216219.55714      -836.18804        38.300  

  22347680.65604 117907282.87814     -2561.79704        38.500  

  22323546.17804 117780454.45804      2995.24204        38.500  

  22250495.10404 117396567.88214     -3386.13304        38.500  

  23486734.08104 123893044.14104      3804.62104        38.200  

  20452166.80505 107946293.54715     -1588.95705        39.000  

  24038183.21744 126790940.80054      2280.71544        37.600  

 06 10 29 01 46 14.0000000  0  9G 1G21G 6G17G30G22G10G26G16                     
  19605923.65005 103499254.67715       346.22305        39.600  

  20734934.85805 109432245.67715      1832.09805        38.900  

  22026041.94404 116217055.92214      -836.96904        38.600  

  22348168.22404 117909844.91114     -2562.32404        38.400  

  22322976.21004 117777459.40314      2995.02004        38.500  

  22251139.51504 117399954.35014     -3386.83204        38.700  

  23486010.05604 123889239.48614      3804.44504        38.000  

  20452469.20505 107947882.69915     -1589.06305        39.300  

  24037749.28644 126788660.52844      2279.94944        37.800  

 06 10 29 01 46 15.0000000  0  9G 1G21G 6G17G30G22G10G26G16                     
  19605857.82705 103498908.71115       345.57405        39.400  

  20734586.22345 109430413.66055      1831.75845        39.000  

  22026201.26604 116217893.11514      -837.64804        38.600  

  22348655.87244 117912407.49354     -2562.75044        38.400  

  22322406.33804 117774464.64914      2994.57004        38.100  

  22251784.01544 117403341.18654     -3386.89844        38.400  

  23485286.08404 123885435.03914      3804.33604        38.100  

  20452771.68705 107949472.30315     -1589.78505        39.000  

  24037315.48944 126786380.87844      2279.44544        38.000  

 06 10 29 01 46 16.0000000  0  9G 1G21G 6G17G30G22G10G26G16                     
  19605792.10005 103498563.32915       344.97305        39.600  

  20734237.66645 109428582.08045      1831.32045        39.100  

  22026360.68104 116218730.94114      -838.27704        38.600  

  22349143.54204 117914970.44904     -2563.47704        38.300  

  22321836.49004 117771469.96314      2994.84804        38.300  

  22252428.55904 117406728.24604     -3387.26604        38.500  

  23484562.13804 123881630.58814      3804.37504        38.100  

  20453074.24405 107951062.14015     -1589.88705        39.200  

  24036881.76904 126784101.68604      2278.92204        37.900  

 06 10 29 01 46 17.0000000  0  9G 1G21G 6G17G30G22G10G26G16                     
  19605726.48505 103498218.59115       344.48005        39.400  

  20733889.24645 109426751.03945      1830.93045        39.300  

  22026520.27104 116219569.51314      -838.78104        38.600  

  22349631.32604 117917533.84314     -2563.32404        38.500  

  22321266.63204 117768475.50614      2994.30904        38.600  

  22253073.14104 117410115.57214     -3387.30104        38.500  

  23483838.18004 123877826.25114      3804.26604        38.100  

  20453376.86205 107952652.31315     -1590.31605        39.300  

  24036448.15144 126781823.01354      2278.44144        37.700  

 06 10 29 01 46 18.0000000  0  9G 1G21G 6G17G30G22G10G26G16                     
  19605661.00405 103497874.53015       343.68805        39.500  

  20733540.91705 109424920.48905      1830.49205        39.100  

  22026679.99504 116220408.84514      -839.70704        38.700  

  22350119.20704 117920097.71614     -2564.09404        38.500  

  22320696.89004 117765481.23714      2994.04304        38.600  

  22253717.81204 117413503.23114     -3387.91004        38.300  

  23483114.26444 123874022.01454      3804.12944        38.100  

  20453679.52905 107954242.83515     -1590.71505        39.200  

  24036014.61604 126779544.86104      2277.98404        37.900  

 06 10 29 01 46 19.0000000  0  9G 1G21G 6G17G30G22G10G26G16                     
  19605595.66205 103497531.09815       343.26605        39.600  

  20733192.66505 109423090.43615      1829.82405        38.900  

  22026839.85004 116221248.88514      -840.38704        38.600  

  22350607.18044 117922662.02954     -2564.57044        38.400  

  22320127.14404 117762487.12214      2994.02304        38.500  

  22254362.49044 117416891.14254     -3388.00044        38.300  

  23482390.37004 123870217.86904      3804.21104        37.800  

  20453982.23505 107955833.68015     -1591.12505        39.300  

  24035581.21604 126777267.25014      2277.37904        38.100  

 06 10 29 01 46 20.0000000  0  9G 1G21G 6G17G30G22G10G26G16                     
  19605530.45805 103497188.40615       342.22705        39.500  

  20732844.53405 109421260.98515      1828.98805        39.100  

  22026999.87004 116222089.73914      -841.18004        38.500  

  22351095.22104 117925226.87004     -2565.03904        38.500  

  22319557.43204 117759493.27614      2993.87904        38.600  

  22255007.25544 117420279.44344     -3388.48444        38.500  

  23481666.48504 123866413.92014      3803.72704        38.000  

  20454285.05505 107957424.92515     -1591.16805        39.200  

  24035147.90804 126774990.22814      2276.93804        37.800  

 06 10 29 01 46 21.0000000  0  9G 1G21G 6G17G30G22G10G26G16                     
  19605465.35205 103496846.39015       341.76205        39.500  

  20732496.50105 109419432.07115      1828.67205        39.000  

  22027160.04144 116222931.34354      -841.89144        38.600  

  22351583.40604 117927792.18614     -2565.32804        38.600  

  22318987.77804 117756499.68114      2993.08604        38.600  

  22255652.06944 117423668.05344     -3388.75844        38.600  

  23480942.61844 123862610.08454      3804.04344        37.800  

  20454587.93205 107959016.53815     -1591.66805        39.300  

  24034714.69604 126772713.76014      2276.19504        38.000  

 06 10 29 01 46 22.0000000  0  9G 1G21G 6G17G30G22G10G26G16                     
  19605400.40705 103496504.94015       340.98805        39.600  

  20732148.53505 109417603.55015      1828.23805        38.900  

  22027320.33604 116223773.59504      -842.69104        38.700  

  22352071.64104 117930357.86314     -2565.78904        38.600  

  22318418.13704 117753506.11614      2993.53504        38.600  

  22256296.95904 117427056.84804     -3389.06604        38.400  

  23480218.77004 123858806.25604      3803.93404        38.000  

  20454890.86645 107960608.40355     -1592.12545        39.100  

  24034281.58604 126770437.72414      2275.70304        38.000  

 06 10 29 01 46 23.0000000  0  9G 1G21G 6G17G30G22G10G26G16                     
  19605335.54005 103496164.19315       340.34805        39.400  

  20731800.69205 109415775.60615      1827.83605        39.100  

  22027480.76104 116224616.62014      -843.26204        38.600  

  22352559.98404 117932924.06014     -2566.51604        38.400  

  22317848.52504 117750512.81914      2993.39104        38.200  

  22256941.89704 117430445.99114     -3389.25004        38.600  

  23479494.96004 123855002.58714      3803.56604        37.800  

  20455193.85845 107962200.64745     -1592.41445        39.200  

  24033848.59104 126768162.27814      2275.23404        37.800  

 06 10 29 01 46 24.0000000  0  9G 1G21G 6G17G30G22G10G26G16                     
  19605270.82405 103495824.09915       339.94505        39.500  

  20731452.96905 109413948.19015      1826.96105        38.900  

  22027641.35404 116225460.39914      -844.11304        38.600  

  22353048.37904 117935490.69614     -2566.93004        38.400  

  22317278.96604 117747519.72414      2993.10504        38.500  

  22257586.90804 117433835.42814     -3389.59404        38.600  

  23478771.18504 123851199.02714      3803.41804        38.100  

  20455496.90745 107963793.24745     -1592.82045        39.100  

  24033415.71404 126765887.37014      2274.74204        38.000  

 06 10 29 01 46 25.0000000  0  9G 1G21G 6G17G30G22G10G26G16                     
  19605206.26205 103495484.75315       338.94105        39.600  

  20731105.32305 109412121.34115      1826.52005        39.000  

  22027802.06104 116226304.97414      -844.61304        38.600  

  22353536.88904 117938057.86514     -2567.27004        38.200  

  22316709.44105 117744526.90715      2992.56605        38.900  

  22258231.98004 117437225.22914     -3389.91004        38.400  

  23478047.41604 123847395.66614      3803.23404        38.200  

  20455800.02805 107965386.23505     -1592.94905        39.000  

  24032982.91204 126763613.06414      2273.98804        37.700  

 06 10 29 01 46 26.0000000  0  9G 1G21G 6G17G30G22G10G26G16                     
  19605141.79305 103495146.02715       338.09405        39.600  

  20730757.76905 109410294.97415      1826.05505        39.000  

  22027962.91644 116227150.27554      -845.70344        38.600  

  22354025.46404 117940625.46114     -2567.98004        38.600  

  22316139.96104 117741534.22314      2992.74204        38.600  

  22258877.07604 117440615.31314     -3390.25804        38.500  

  23477323.66604 123843592.34614      3803.16004        38.000  

  20456103.22405 107966979.54415     -1593.52705        39.000  

  24032550.21904 126761339.23114      2273.44104        37.600  

 06 10 29 01 46 27.0000000  0  9G 1G21G 6G17G30G22G10G26G16                     
  19605077.48005 103494808.00515       337.65605        39.600  

  20730410.34305 109408469.18315      1825.64505        39.000  

  22028123.91844 116227996.35344      -846.38744        38.600  

  22354514.12304 117943193.58014     -2568.27004        38.400  

  22315570.48004 117738541.78514      2992.34804        38.500  

  22259522.24804 117444005.72414     -3390.51604        38.500  

  23476599.93804 123839789.19414      3803.11304        38.300  

  20456406.50005 107968573.25315     -1594.12105        39.400  

  24032117.65704 126759066.01614      2272.72304        38.100  

 06 10 29 01 46 28.0000000  0  9G 1G21G 6G17G30G22G10G26G16                     
  19605013.30605 103494470.79415       336.84405        39.600  

  20730063.03005 109406644.06815      1824.80905        39.200  

  22028285.07344 116228843.33044      -847.49244        38.600  

  22355002.93304 117945762.29614     -2569.32804        38.500  

  22315001.12904 117735549.70214      2992.21904        38.600  

  22260167.50204 117447396.61514     -3391.23804        38.500  

  23475876.26704 123835986.29414      3802.93404        38.000  

  20456709.88505 107970167.45015     -1594.52705        39.300  

  24031685.21604 126756793.44814      2272.24604        37.800  

 06 10 29 01 46 29.0000000  0  9G 1G21G 6G17G30G22G10G26G16                     
  19604949.28505 103494134.38715       335.95305        39.400  

  20729715.84205 109404819.59315      1824.06305        39.200  

  22028446.39944 116229691.18244      -848.45744        38.600  

  22355491.85004 117948331.59514     -2569.48804        38.500  

  22314431.81604 117732557.96214      2991.65204        38.600  

  22260812.85104 117450787.91214     -3391.73404        38.700  

  23475152.63004 123832183.67314      3802.56304        37.900  

  20457013.34104 107971762.12214     -1594.97304        38.800  

  24031252.90604 126754521.59314      2271.50804        38.200  

 06 10 29 01 46 30.0000000  0  9G 1G21G 6G17G30G22G10G26G16                     
  19604885.40205 103493798.68015       335.52005        39.500  

  20729368.74905 109402995.69715      1823.38705        39.200  

  22028607.89704 116230539.81104      -848.88704        38.700  

  22355980.88404 117950901.42014     -2569.89104        38.300  

  22313862.53804 117729566.46214      2991.47304        38.600  

  22261458.24404 117454179.54814     -3391.87904        38.400  

  23474429.02404 123828381.18714      3802.85904        38.000  

  20457316.86305 107973357.16715     -1595.25005        39.300  

  24030820.68804 126752250.29414      2271.14804        37.800  

 06 10 29 01 46 31.0000000  0  9G 1G21G 6G17G30G22G10G26G16                     
  19604821.66105 103493463.68015       334.60205        39.700  

  20729021.76104 109401172.32914      1823.22704        38.800  

  22028769.55704 116231389.21314      -849.98404        38.700  

  22356470.00604 117953471.72714     -2570.67204        38.100  

  22313293.32844 117726575.15254      2991.35244        38.300  

  22262103.71304 117457571.51214     -3392.35204        38.400  

  23473705.45604 123824578.84014      3802.25404        37.900  

  20457620.42205 107974952.59315     -1595.57805        39.300  

  24030388.58044 126749979.57254      2270.55544        37.900  

 06 10 29 01 46 32.0000000  0  9G 1G21G 6G17G30G22G10G26G16                     
  19604758.02905 103493129.31315       334.16805        39.600  

  20728674.86605 109399349.48915      1822.60905        38.900  

  22028931.33504 116232239.33414      -850.23004        38.600  

  22356959.21104 117956042.48014     -2570.86704        38.600  

  22312724.15744 117723584.06044      2990.88744        38.500  

  22262749.26504 117460963.77014     -3392.39104        38.100  

  23472981.92504 123820776.60514      3802.12504        38.000  

  20457924.06505 107976548.34415     -1595.77305        39.200  

  24029956.56904 126747709.36304      2269.84804        37.600  

 06 10 29 01 46 33.0000000  0  9G 1G21G 6G17G30G22G10G26G16                     
  19604694.52205 103492795.51315       333.41405        39.400  

  20728328.05805 109397527.02615      1822.07805        39.000  

  22029093.22204 116233090.09214      -850.89804        38.500  

  22357448.46544 117958613.57554     -2570.89844        38.600  

  22312155.01944 117720593.04744      2990.98444        38.500  

  22263394.81204 117464356.18514     -3392.55104        38.400  

  23472258.37904 123816974.36114      3802.34004        38.000  

  20458227.77405 107978144.36115     -1596.23805        39.200  

  24029524.66704 126745439.58114      2269.58204        37.700  

 06 10 29 01 46 34.0000000  0  9G 1G21G 6G17G30G22G10G26G16                     
  19604631.11605 103492462.35415       332.80105        39.600  

  20727981.33405 109395705.08515      1821.75805        39.000  

  22029255.25904 116233941.58814      -851.73804        38.600  

  22357937.80004 117961185.14304     -2571.64504        38.500  

  22311585.88744 117717602.20244      2990.87544        38.500  

  22264040.42004 117467748.93214     -3392.91804        38.300  

  23471534.85304 123813172.21814      3802.12504        38.300  

  20458531.56005 107979740.68715     -1596.36305        39.100  

  24029092.85104 126743170.32614      2268.91804        37.800  

 06 10 29 01 46 35.0000000  0  9G 1G21G 6G17G30G22G10G26G16                     
  19604567.84145 103492129.83555       332.08245        39.600  

  20727634.75304 109393883.65014      1821.09004        38.800  

  22029417.42904 116234793.78914      -852.48004        38.500  

  22358427.22704 117963757.11014     -2572.08604        38.500  

  22311016.77444 117714611.53144      2990.67244        38.400  

  22264686.06744 117471141.91354     -3393.08644        38.500  

  23470811.32104 123809370.15514      3801.94504        37.800  

  20458835.36305 107981337.31315     -1596.70705        39.200  

  24028661.14644 126740901.58754      2268.22744        38.000  

 06 10 29 01 46 36.0000000  0  9G 1G21G 6G17G30G22G10G26G16                     
  19604504.70305 103491798.00605       331.45705        39.500  

  20727288.26705 109392062.76915      1820.43405        39.000  

  22029579.77544 116235646.79254      -853.48844        38.400  

  22358916.74404 117966329.60614     -2572.73404        38.400  

  22310447.72404 117711621.10904      2990.53504        38.600  

  22265331.78604 117474535.25204     -3393.58204        38.400  

  23470087.85704 123805568.25814      3802.04304        38.100  

  20459139.25605 107982934.33915     -1597.16805        39.000  

  24028229.52544 126738633.41744      2268.03144        37.800  

 06 10 29 01 46 37.0000000  0  9G 1G21G 6G17G30G22G10G26G16                     
  19604441.70405 103491466.80715       330.92605        39.400  

  20726941.85505 109390242.36015      1820.10905        39.100  

  22029742.20504 116236500.46304      -853.93404        38.600  

  22359406.36204 117968902.49714     -2572.71904        38.200  

  22309878.70604 117708630.84214      2990.09804        38.400  

  22265977.59604 117477928.83814     -3393.47304        38.700  

  23469364.39904 123801766.41714      3801.91804        37.900  

  20459443.22805 107984531.66315     -1597.55105        39.200  

  24027797.96644 126736365.74444      2267.40244        37.800  

 06 10 29 01 46 38.0000000  0  9G 1G21G 6G17G30G22G10G26G16                     
  19604378.79905 103491136.22715       330.18805        39.600  

  20726595.53045 109388422.42755      1819.61345        38.900  

  22029904.78704 116237354.85314      -854.80904        38.500  

  22359896.06844 117971475.82454     -2573.57044        38.500  

  22309309.67104 117705640.70614      2990.48804        38.200  

  22266623.42204 117481322.67814     -3393.82004        38.600  

  23468640.94604 123797964.64214      3801.79304        37.900  

  20459747.23645 107986129.30255     -1597.90245        39.200  

  24027366.51944 126734098.56944      2266.82844        37.900  

 06 10 29 01 46 39.0000000  0  9G 1G21G 6G17G30G22G10G26G16                     
  19604316.02005 103490806.30915       329.62505        39.700  

  20726249.29345 109386603.00345      1819.12145        39.200  

  22030067.52204 116238209.98214      -855.64104        38.600  

  22360385.85744 117974049.59944     -2573.77044        38.600  

  22308740.68904 117702650.80214      2989.71504        38.600  

  22267269.27004 117484716.83114     -3394.24604        38.500  

  23467917.51004 123794162.99714      3801.54704        37.900  

  20460051.32505 107987727.27105     -1598.19505        39.100  

  24026935.21804 126731831.95604      2266.15204        37.700  

 06 10 29 01 46 40.0000000  0  9G 1G21G 6G17G30G22G10G26G16                     
  19604253.35305 103490477.12015       328.88705        39.500  

  20725903.20045 109384784.19445      1818.39545        38.900  

  22030230.36904 116239065.91014      -856.16804        38.400  

  22360875.72844 117976623.92544     -2574.85944        38.200  

  22308171.79004 117699661.14014      2989.44104        38.500  

  22267915.21504 117488111.33814     -3394.72304        38.600  

  23467194.11204 123790361.52914      3801.42604        37.900  

  20460355.47405 107989325.65215     -1598.47705        39.000  

  24026504.01504 126729565.91914      2265.50804        37.800  

 06 10 29 01 46 41.0000000  0  9G 1G21G 6G17G30G22G10G26G16                     
  19604190.82905 103490148.63915       328.27705        39.600  

  20725557.20245 109382965.93345      1818.09445        39.000  

  22030393.41004 116239922.61614      -856.93404        38.600  

  22361365.67744 117979198.71944     -2575.01244        38.400  

  22307602.91904 117696671.72414      2989.32404        38.500  

  22268561.24604 117491506.19214     -3395.28904        38.600  

  23466470.77104 123786560.21714      3801.34804        37.900  

  20460659.70205 107990924.40615     -1598.82005        39.000  

  24026072.91504 126727300.45414      2265.34404        37.900  

 06 10 29 01 46 42.0000000  0  9G 1G21G 6G17G30G22G10G26G16                     
  19604128.44945 103489820.84655       327.37945        39.500  

  20725211.31005 109381148.20705      1817.66405        39.000  

  22030556.61004 116240780.11714      -857.99204        38.700  

  22361855.73104 117981774.03204     -2575.78504        38.300  

  22307034.08004 117693682.51914      2989.35204        38.600  

  22269207.30304 117494901.35914     -3395.49204        38.300  

  23465747.42104 123782759.04214      3800.83604        38.100  

  20460964.00405 107992523.55215     -1599.35905        39.300  

  24025641.90504 126725035.55314      2264.64104        38.000  

 06 10 29 01 46 43.0000000  0  9G 1G21G 6G17G30G22G10G26G16                     
  19604066.17645 103489493.64545       326.68845        39.700  

  20724865.48905 109379330.93515      1816.93405        39.200  

  22030719.93944 116241638.26154      -858.61744        38.400  

  22362345.88004 117984349.69614     -2575.87904        38.600  

  22306465.27804 117690693.45114      2988.91404        38.500  

  22269853.44004 117498296.74814     -3395.54304        38.500  

  23465024.08744 123778957.89454      3801.15644        38.000  

  20461268.35005 107994122.96115     -1599.59005        39.000  

  24025210.99304 126722771.12614      2263.99604        37.500  

 06 10 29 01 46 44.0000000  0  9G 1G21G 6G17G30G22G10G26G16                     
  19604004.02445 103489167.14445       325.98445        39.600  

  20724519.74705 109377514.22715      1816.09405        39.000  

  22030883.39304 116242497.18804      -859.30104        38.600  

  22362836.10004 117986925.87014     -2576.51604        38.200  

  22305896.53704 117687704.61614      2988.55504        38.500  

  22270499.66044 117501692.47154     -3395.76244        38.600  

  23464300.83244 123775156.90844      3800.89544        38.000  

  20461572.78005 107995722.74315     -1600.14505        39.100  

  24024780.19904 126720507.26714      2263.44104        37.900  

 06 10 29 01 46 45.0000000  0  9G 1G21G 6G17G30G22G10G26G16                     
  19603942.03545 103488841.37145       325.51245        39.600  

  20724174.14805 109375698.11215      1815.95305        39.100  

  22031046.99504 116243356.92614      -859.85904        38.600  

  22363326.43204 117989502.56714     -2576.75404        38.300  

  22305327.84704 117684716.04614      2988.64504        38.400  

  22271145.89804 117505088.57304     -3396.28104        38.500  

  23463577.56244 123771356.13044      3800.65644        38.100  

  20461877.28505 107997322.95115     -1600.23005        39.200  

  24024349.52004 126718244.03714      2263.28504        37.900  

 06 10 29 01 46 46.0000000  0  9G 1G21G 6G17G30G22G10G26G16                     
  19603880.16305 103488516.27005       324.77705        39.400  

  20723828.63605 109373882.50715      1815.52705        39.100  

  22031210.76604 116244217.43314      -860.91004        38.600  

  22363816.86104 117992079.75014     -2577.46504        38.600  

  22304759.18604 117681727.69014      2988.50004        38.500  

  22271792.20404 117508484.98114     -3396.53104        38.500  

  23462854.32204 123767555.44404      3800.77704        37.900  

  20462181.86745 107998923.48755     -1600.77345        39.300  

  24023918.92604 126715981.34314      2262.27704        37.800  

 06 10 29 01 46 47.0000000  0  9G 1G21G 6G17G30G22G10G26G16                     
  19603818.43405 103488191.89115       323.91805        39.500  

  20723483.25305 109372067.52515      1814.50805        39.000  

  22031374.64604 116245078.71414      -861.52004        38.600  

  22364307.38104 117994657.44214     -2578.03504        38.200  

  22304190.53404 117678739.59514      2987.75404        38.300  

  22272438.59844 117511881.74054     -3396.86744        38.400  

  23462131.10104 123763754.92314      3800.40604        38.100  

  20462486.52805 108000524.45605     -1601.08205        39.100  

  24023488.48104 126713719.24814      2261.76204        37.900  

 06 10 29 01 46 48.0000000  0  9G 1G21G 6G17G30G22G10G26G16                     
  19603756.80205 103487868.11015       323.39805        39.700  

  20723137.94405 109370252.95215      1814.29705        39.400  

  22031538.67804 116245940.68314      -862.18404        38.500  

  22364797.98104 117997235.50814     -2578.23004        38.200  

  22303621.94304 117675751.60314      2987.89504        38.400  

  22273085.02744 117515278.73944     -3397.07044        38.500  

  23461407.89604 123759954.49014      3800.34404        37.900  

  20462791.23405 108002125.68615     -1601.48405        39.300  

  24023058.07704 126711457.64614      2260.99604        37.800  

 06 10 29 01 46 49.0000000  0  9G 1G21G 6G17G30G22G10G26G16                     
  19603695.31705 103487545.00715       323.01605        39.500  

  20722792.74505 109368438.93815      1814.03905        39.100  

  22031702.86004 116246803.43314      -863.11704        38.600  

  22365288.69204 117999814.07914     -2578.38704        38.400  

  22303053.41204 117672763.86214      2987.65204        38.400  

  22273731.53244 117518676.06944     -3397.68044        38.500  

  23460684.70204 123756154.15914      3800.35904        37.800  

  20463096.02005 108003727.30915     -1601.75805        39.200  

  24022627.78304 126709196.56414      2260.63304        37.900  

 06 10 29 01 46 50.0000000  0  9G 1G21G 6G17G30G22G10G26G16                     
  19603633.95105 103487222.54315       321.91805        39.500  

  20722447.63405 109366625.41015      1813.21105        39.000  

  22031867.15704 116247666.85814      -863.77304        38.600  

  22365779.48704 118002393.08514     -2579.54304        38.200  

  22302484.91744 117669776.25454      2987.30944        38.400  

  22274378.03544 117522073.61744     -3397.50444        38.400  

  23459961.55404 123752353.92214      3800.13304        38.100  

  20463400.85505 108005329.19915     -1602.06305        39.000  

  24022197.63004 126706935.98614      2260.13704        38.100  

 06 10 29 01 46 51.0000000  0  9G 1G21G 6G17G30G22G10G26G16                     
  19603572.71605 103486900.77015       321.41005        39.600  

  20722102.61404 109364812.43114      1812.59004        38.800  

  22032031.60004 116248531.05614      -864.42204        38.400  

  22366270.33304 118004972.54614     -2579.75004        38.300  

  22301916.44604 117666788.89104      2987.07804        38.500  

  22275024.62704 117525471.52504     -3398.21504        38.500  

  23459238.43604 123748553.79714      3800.17204        38.200  

  20463705.77905 108006931.48315     -1602.50805        39.100  

  24021767.54804 126704675.99714      2259.68004        37.700  

 06 10 29 01 46 52.0000000  0  9G 1G21G 6G17G30G22G10G26G16                     
  19603511.61245 103486579.58955       320.80145        39.500  

  20721757.73005 109362999.91015      1812.08205        39.000  

  22032196.18744 116249395.95854      -865.39144        38.600  

  22366761.26604 118007552.39814     -2579.95304        38.200  

  22301348.00204 117663801.65014      2987.14104        38.500  

  22275671.28204 117528869.64614     -3398.28904        38.400  

  23458515.32204 123744753.77114      3799.85504        38.000  

  20464010.72945 108008534.03355     -1602.80545        39.100  

  24021337.59104 126702416.48114      2259.04304        38.000  

 06 10 29 01 46 53.0000000  0  9G 1G21G 6G17G30G22G10G26G16                     
  19603450.63405 103486259.17405       319.93405        39.500  

  20721412.95305 109361187.99915      1811.60505        39.300  

  22032360.93244 116250261.67844      -866.32044        38.500  

  22367252.28144 118010132.82354     -2580.62944        38.400  

  22300779.63504 117660814.72514      2986.52704        38.300  

  22276318.00704 117532268.17414     -3398.83604        38.400  

  23457792.26944 123740953.93254      3799.43844        38.100  

  20464315.75845 108010137.03945     -1603.27345        39.200  

  24020907.73804 126700157.59514      2258.51204        37.900  

 06 10 29 01 46 54.0000000  0  9G 1G21G 6G17G30G22G10G26G16                     
  19603389.77105 103485939.48515       319.28905        39.300  

  20721068.25705 109359376.69815      1810.90205        39.200  

  22032525.83444 116251128.20244      -866.84044        38.700  

  22367743.43144 118012713.79744     -2581.27344        38.400  

  22300211.26304 117657828.05014      2986.33604        38.100  

  22276964.75504 117535667.03914     -3398.95704        38.500  

  23457069.23904 123737154.28004      3799.49604        38.100  

  20464620.85645 108011740.45145     -1603.50045        39.300  

  24020477.98304 126697899.32314      2258.19104        37.900  

 06 10 29 01 46 55.0000000  0  9G 1G21G 6G17G30G22G10G26G16                     
  19603329.10905 103485620.49715       318.60905        39.700  

  20720723.67105 109357565.94315      1810.37905        38.900  

  22032690.87404 116251995.51904      -867.80504        38.600  

  22368234.68304 118015295.23004     -2581.84804        38.300  

  22299642.97104 117654841.61014      2986.25004        38.500  

  22277611.65704 117539066.27714     -3399.44104        38.300  

  23456346.22504 123733354.78514      3799.30104        38.000  

  20464926.06345 108013344.23345     -1603.98445        39.200  

  24020048.36204 126695641.62714      2257.05904        37.900  

 06 10 29 01 46 56.0000000  0  9G 1G21G 6G17G30G22G10G26G16                     
  19603268.51505 103485302.21415       317.73405        39.500  

  20720379.21205 109355755.74315      1810.15205        38.900  

  22032856.04104 116252863.58714      -868.19504        38.700  

  22368726.00444 118017877.17254     -2582.18444        38.400  

  22299074.73704 117651855.40114      2986.05504        38.200  

  22278258.54504 117542465.82514     -3399.64804        38.500  

  23455623.21304 123729555.41714      3799.31604        37.800  

  20465231.34945 108014948.40445     -1604.30145        39.300  

  24019618.85104 126693384.47814      2256.66804        38.000  

 06 10 29 01 46 57.0000000  0  9G 1G21G 6G17G30G22G10G26G16                     
  19603208.07205 103484984.55415       317.51205        39.800  

  20720034.83905 109353946.05715      1809.27305        39.000  

  22033021.34944 116253732.42354      -869.50444        38.400  

  22369217.42504 118020459.53204     -2582.23804        38.300  

  22298506.49304 117648869.37714      2985.89104        38.200  

  22278905.53004 117545865.67614     -3399.93404        38.400  

  23454900.23604 123725756.15614      3799.54304        38.000  

  20465536.67405 108016552.91505     -1604.85505        39.300  

  24019189.43304 126691127.88614      2256.21904        37.800  

 06 10 29 01 46 58.0000000  0  9G 1G21G 6G17G30G22G10G26G16                     
  19603147.73905 103484667.56015       316.61705        39.500  

  20719690.55805 109352136.86015      1808.79305        38.900  

  22033186.80304 116254601.94604      -869.93004        38.800  

  22369708.92804 118023042.36614     -2582.86704        38.400  

  22297938.32104 117645883.52614      2985.94504        38.400  

  22279552.59144 117549265.78454     -3400.37544        38.400  

  23454177.30004 123721957.03214      3799.17604        38.100  

  20465842.08705 108018157.73015     -1605.14505        39.100  

  24018760.10304 126688871.80114      2256.02004        37.900  

 06 10 29 01 46 59.0000000  0  9G 1G21G 6G17G30G22G10G26G16                     
  19603087.56105 103484351.41315       315.57805        39.600  

  20719346.39505 109350328.38515      1808.24205        39.000  

  22033352.44004 116255472.40514      -870.86704        38.400  

  22370200.54004 118025625.82314     -2583.50804        38.500  

  22297370.20304 117642898.07714      2985.19904        38.400  

  22280199.64904 117552666.37504     -3400.55904        38.500  

  23453454.41004 123718158.16214      3798.80104        38.100  

  20466147.60305 108019763.09015     -1605.47705        39.000  

  24018330.91804 126686616.43914      2255.04304        37.700  

 06 10 29 01 47  0.0000000  0  9G 1G21G 6G17G30G22G10G26G16                     
  19603027.51745 103484035.86455       315.17245        39.400  

  20719002.32805 109348520.36215      1807.85205        39.000  

  22033518.20644 116256343.54554      -871.34044        38.600  

  22370692.24604 118028209.68814     -2583.94504        38.400  

  22296802.10704 117639912.75214      2985.20704        38.600  

  22280846.79004 117556067.22114     -3400.88304        38.600  

  23452731.51604 123714359.38514      3798.68404        38.000  

  20466453.14705 108021368.72615     -1606.03505        39.300  

  24017901.82404 126684361.57814      2254.47304        37.800  

 06 10 29 01 47  1.0000000  0  9G 1G21G 6G17G30G22G10G26G16                     
  19602967.60505 103483720.99605       314.49205        39.400  

  20718658.36205 109346712.89215      1807.19105        39.100  

  22033684.12804 116257215.42904      -872.07404        38.600  

  22371184.02904 118030794.02114     -2584.32004        38.300  

  22296234.07204 117636927.65214      2985.06304        38.400  

  22281493.99804 117559468.34514     -3400.96504        38.600  

  23452008.65004 123710560.70614      3798.78904        37.900  

  20466758.75905 108022974.71915     -1606.08605        39.000  

  24017472.83704 126682107.22314      2254.52704        37.800  

 06 10 29 01 47  2.0000000  0  9G 1G21G 6G17G30G22G10G26G16                     
  19602907.81605 103483406.73815       313.91405        39.500  

  20718314.50805 109344905.86415      1806.91805        39.000  

  22033850.17044 116258088.03954      -873.13344        38.500  

  22371675.89444 118033378.75554     -2584.96144        38.300  

  22295666.03904 117633942.66614      2984.97304        38.600  

  22282141.25144 117562869.73754     -3401.57844        38.400  

  23451285.80104 123706762.10014      3798.54704        38.100  

  20467064.43605 108024580.98715     -1606.31305        39.300  

  24017043.96904 126679853.41514      2253.69104        37.700  

 06 10 29 01 47  3.0000000  0  9G 1G21G 6G17G30G22G10G26G16                     
  19602848.15405 103483093.11415       313.03905        39.600  

  20717970.72905 109343099.33415      1806.33205        39.000  

  22034016.36104 116258961.31304      -873.45304        38.500  

  22372167.86144 118035963.94044     -2585.73044        38.200  

  22295098.08104 117630957.87214      2984.87104        38.600  

  22282788.57704 117566271.38504     -3401.81304        38.400  

  23450562.97044 123702963.59654      3798.28544        38.000  

  20467370.15804 108026187.58514     -1606.81304        38.800  

  24016615.17604 126677600.09014      2252.69104        37.700  

 06 10 29 01 47  4.0000000  0  9G 1G21G 6G17G30G22G10G26G16                     
  19602788.61105 103482780.14715       312.62905        39.600  

  20717627.06305 109341293.34415      1805.76605        39.000  

  22034182.68404 116259835.36714      -874.39104        38.600  

  22372659.89144 118038549.55744     -2585.91444        38.300  

  22294530.13604 117627973.29414      2984.50004        38.700  

  22283435.93504 117569673.35414     -3402.26204        38.300  

  23449840.17304 123699165.22204      3798.14104        38.200  

  20467675.94004 108027794.54314     -1607.15604        38.800  

  24016186.49004 126675347.29814      2252.39104        37.900  

 06 10 29 01 47  5.0000000  0  9G 1G21G 6G17G30G22G10G26G16                     
  19602729.17705 103482467.78115       311.96905        39.600  

  20717283.48305 109339487.81615      1804.96905        39.200  

  22034349.14004 116260710.08414      -875.07004        38.200  

  22373152.00544 118041135.56544     -2586.18044        38.500  

  22293962.22004 117624988.83414      2984.25804        38.500  

  22284083.37944 117573075.53554     -3402.23444        38.500  

  23449117.37904 123695366.84314      3798.54304        38.000  

  20467981.76805 108029401.75315     -1607.46105        39.300  

  24015757.87304 126673094.99714      2252.10204        37.700  

 06 10 29 01 47  6.0000000  0  9G 1G21G 6G17G30G22G10G26G16                     
  19602669.87505 103482156.07115       311.26205        39.600  

  20716939.99605 109337682.78715      1804.73005        39.000  

  22034515.71644 116261585.52254      -875.80944        38.400  

  22373644.19704 118043722.00804     -2586.50404        38.500  

  22293394.34704 117622004.55114      2984.23404        38.300  

  22284730.83904 117576477.98804     -3402.67204        38.700  

  23448394.61404 123691568.61714      3797.83604        38.000  

  20468287.66445 108031009.29855     -1607.59845        39.100  

  24015329.38204 126670843.21914      2251.62504        37.700  

 06 10 29 01 47  7.0000000  0  9G 1G21G 6G17G30G22G10G26G16                     
  19602610.67605 103481845.00615       310.75005        39.500  

  20716596.61945 109335878.28255      1804.35245        39.200  

  22034682.45704 116262461.70704      -876.49604        38.600  

  22374136.47504 118046308.95314     -2587.26204        38.400  

  22292826.46204 117619020.47714      2983.98004        38.200  

  22285378.34504 117579880.74414     -3402.86704        38.500  

  23447671.87404 123687770.48914      3798.10904        38.100  

  20468593.63545 108032617.19245     -1607.98445        39.000  

  24014900.98704 126668591.97714      2250.99204        37.700  

 06 10 29 01 47  8.0000000  0  9G 1G21G 6G17G30G22G10G26G16                     
  19602551.60405 103481534.64115       310.03905        39.500  

  20716253.35445 109334074.33045      1803.78145        39.100  

  22034849.31004 116263338.64914      -877.22704        38.500  

  22374628.83004 118048896.33914     -2587.68404        38.600  

  22292258.64104 117616036.63514      2983.68804        38.300  

  22286025.93604 117583283.84714     -3403.31304        38.500  

  23446949.15804 123683972.50914      3798.02004        37.800  

  20468899.65305 108034225.44705     -1608.42605        39.200  

  24014472.67704 126666341.29314      2250.35204        37.900  

 06 10 29 01 47  9.0000000  0  9G 1G21G 6G17G30G22G10G26G16                     
  19602492.68005 103481225.06415       309.16405        39.500  

  20715910.16845 109332271.01945      1802.89145        39.300  

  22035016.37204 116264216.48914      -878.38304        38.500  

  22375121.28404 118051484.31514     -2588.24604        38.600  

  22291690.90004 117613053.09314      2983.46104        38.700  

  22286673.59104 117586687.34314     -3403.60204        38.400  

  23446226.47604 123680174.77514      3797.53504        37.900  

  20469205.79405 108035834.19215     -1608.93805        39.100  

  24014044.49604 126664091.28414      2249.64804        37.800  

 06 10 29 01 47 10.0000000  0  9G 1G21G 6G17G30G22G10G26G16                     
  19602433.94545 103480916.24755       308.33245        39.600  

  20715567.13405 109330468.31305      1802.31605        39.100  

  22035183.57104 116265095.12314      -879.07404        38.700  

  22375613.88404 118054072.85414     -2588.71104        38.500  

  22291123.22404 117610069.86914      2982.90604        38.500  

  22287321.34104 117590091.24014     -3404.25404        38.200  

  23445503.80804 123676377.23914      3797.25404        37.900  

  20469512.01305 108037443.36315     -1609.48405        39.300  

  24013616.47304 126661841.92314      2249.19904        37.800  

 06 10 29 01 47 11.0000000  0  9G 1G21G 6G17G30G22G10G26G16                     
  19602375.32305 103480608.16005       307.70305        39.600  

  20715224.21905 109328666.22915      1801.73005        39.000  

  22035350.94404 116265974.60714      -879.92604        38.400  

  22376106.56804 118056661.91814     -2589.10504        38.600  

  22290555.61604 117607086.89914      2982.95304        38.500  

  22287969.13404 117593495.50014     -3404.36704        38.400  

  23444781.20504 123672579.90814      3797.10904        38.100  

  20469818.30505 108039052.96115     -1609.84005        39.400  

  24013188.54504 126659593.16414      2248.58604        37.800  

 06 10 29 01 47 12.0000000  0  9G 1G21G 6G17G30G22G10G26G16                     
  19602316.84405 103480300.75315       307.23805        39.700  

  20714881.38704 109326864.65914      1801.35504        38.800  

  22035518.45604 116266854.82614      -880.66404        38.200  

  22376599.36004 118059251.46314     -2589.77004        38.500  

  22289988.01204 117604104.14514      2982.79704        38.600  

  22288617.03004 117596900.08214     -3404.68004        38.400  

  23444058.61444 123668782.71554      3797.30944        38.200  

  20470124.67005 108040662.88415     -1610.14805        39.200  

  24012760.73004 126657344.93714      2248.02704        37.900  

 06 10 29 01 47 13.0000000  0  9G 1G21G 6G17G30G22G10G26G16                     
  19602258.46405 103479993.94915       306.71505        39.600  

  20714538.65505 109325063.57915      1800.84405        39.200  

  22035686.11004 116267735.74214      -881.53904        38.600  

  22377092.19344 118061841.40354     -2590.34444        38.600  

  22289420.46004 117601121.55214      2982.37504        38.700  

  22289264.91504 117600304.89714     -3405.03104        38.400  

  23443336.04804 123664985.56204      3797.04304        38.200  

  20470431.08205 108042273.12715     -1610.43005        39.400  

  24012333.00204 126655097.22914      2247.25004        38.000  

 06 10 29 01 47 14.0000000  0  9G 1G21G 6G17G30G22G10G26G16                     
  19602200.19805 103479687.79815       305.94905        39.600  

  20714196.01405 109323262.98015      1800.37905        38.900  

  22035853.87504 116268617.34614      -881.96904        38.300  

  22377585.12004 118064431.75404     -2590.76204        38.600  

  22288852.91744 117598139.11854      2982.32844        38.400  

  22289912.88744 117603709.98954     -3405.32444        38.400  

  23442613.51704 123661188.51614      3796.88304        38.000  

  20470737.56605 108043883.68215     -1610.88705        39.000  

  24011905.34344 126652850.03154      2246.87544        37.900  

 06 10 29 01 47 15.0000000  0  9G 1G21G 6G17G30G22G10G26G16                     
  19602142.05405 103479382.22615       305.19905        39.400  

  20713853.43005 109321462.83915      1799.68005        39.100  

  22036021.77304 116269499.61714      -882.40604        38.600  

  22378078.10104 118067022.48714     -2591.02304        38.500  

  22288285.42844 117595156.80444      2981.99244        38.400  

  22290560.90544 117607115.29344     -3405.65244        38.200  

  23441890.96804 123657391.49114      3796.78904        38.100  

  20471044.09305 108045494.48315     -1611.00805        39.300  

  24011477.81744 126650603.28844      2246.39144        37.700  

 06 10 29 01 47 16.0000000  0  9G 1G21G 6G17G30G22G10G26G16                     
  19602084.05505 103479077.43915       304.41805        39.700  

  20713510.99705 109319663.35015      1799.29305        39.100  

  22036189.85404 116270382.79014      -883.44504        38.500  

  22378571.21604 118069613.82414     -2591.76604        38.600  

  22287717.96644 117592174.81644      2981.93844        38.200  

  22291208.99444 117610521.02644     -3406.19544        38.400  

  23441168.47004 123653594.74914      3796.53504        38.400  

  20471350.66505 108047105.78815     -1611.67205        39.200  

  24011050.40744 126648357.23744      2245.60944        37.600  

 06 10 29 01 47 17.0000000  0  9G 1G21G 6G17G30G22G10G26G16                     
  19602026.20305 103478773.36015       303.86305        39.600  

  20713168.67805 109317864.42815      1798.82405        39.000  

  22036358.05804 116271266.73614      -884.43004        38.700  

  22379064.43504 118072205.66614     -2592.23404        38.400  

  22287150.55644 117589193.09144      2981.60244        38.500  

  22291857.18244 117613927.09044     -3406.43044        38.500  

  23440445.98704 123649798.13014      3796.61704        38.100  

  20471657.36405 108048717.46015     -1611.87105        39.100  

  24010623.08144 126646111.74444      2245.40644        37.900  

 06 10 29 01 47 18.0000000  0  9G 1G21G 6G17G30G22G10G26G16                     
  19601968.46705 103478469.96215       303.02305        39.400  

  20712826.42505 109316066.03415      1797.91805        39.200  

  22036526.40044 116272151.41954      -885.04744        38.600  

  22379557.72104 118074797.95014     -2592.77304        38.500  

  22286583.18704 117586211.55204      2981.35504        38.400  

  22292505.36104 117617333.44804     -3406.52704        38.400  

  23439723.53404 123646001.65814      3796.44904        38.000  

  20471964.13005 108050329.48815     -1612.29305        39.300  

  24010195.88244 126643866.80344      2244.72344        37.900  

 06 10 29 01 47 19.0000000  0  9G 1G21G 6G17G30G22G10G26G16                     
  19601910.85605 103478167.15115       302.23805        39.500  

  20712484.28845 109314268.09755      1797.49245        38.900  

  22036694.87644 116273036.77144      -885.62544        38.600  

  22380051.09304 118077390.63014     -2593.20304        38.300  

  22286015.85204 117583230.16014      2981.16004        38.500  

  22293153.62604 117620740.05614     -3406.88304        38.200  

  23439001.10704 123642205.23914      3796.34004        37.700  

  20472270.93005 108051941.77115     -1612.49605        39.200  

  24009768.75804 126641622.34004      2244.29704        38.000  

 06 10 29 01 47 20.0000000  0  9G 1G21G 6G17G30G22G10G26G16                     
  19601853.37505 103477865.10315       301.82805        39.600  

  20712142.28245 109312470.77845      1797.02045        39.000  

  22036863.49744 116273922.98244      -886.47744        38.500  

  22380544.54204 118079983.85514     -2593.34404        38.500  

  22285448.51304 117580249.06214      2980.63304        38.400  

  22293801.92344 117624147.06754     -3407.37544        38.500  

  23438278.70604 123638409.04714      3796.23004        38.000  

  20472577.85005 108053554.53315     -1612.87105        39.300  

  24009341.78804 126639378.54314      2243.59804        37.900  

 06 10 29 01 47 21.0000000  0  9G 1G21G 6G17G30G22G10G26G16                     
  19601796.02545 103477563.80455       300.85945        39.800  

  20711800.37844 109310674.07044      1796.33644        38.800  

  22037032.29544 116274810.01144      -887.42244        38.500  

  22381038.10504 118082577.62314     -2593.84404        38.300  

  22284881.29104 117577268.25414      2980.25804        38.500  

  22294450.33904 117627554.41004     -3407.54704        38.500  

  23437556.34544 123634613.06554      3795.69944        37.700  

  20472884.80645 108055167.68845     -1613.42245        39.100  

  24008914.92004 126637135.35014      2243.17204        37.900  

 06 10 29 01 47 22.0000000  0  9G 1G21G 6G17G30G22G10G26G16                     
  19601738.80545 103477263.10245       300.40645        39.700  

  20711458.55805 109308877.82305      1795.70305        39.000  

  22037201.21004 116275697.72604      -888.14804        38.700  

  22381531.76744 118085171.79654     -2594.23844        38.400  

  22284314.10004 117574287.54514      2980.60904        38.400  

  22295098.75904 117630962.02714     -3407.71104        38.300  

  23436833.99544 123630817.11944      3795.78544        38.100  

  20473191.86645 108056781.17845     -1613.94545        39.000  

  24008488.13104 126634892.63914      2242.41404        37.800  

 06 10 29 01 47 23.0000000  0  9G 1G21G 6G17G30G22G10G26G16                     
  19601681.73145 103476963.14245       299.73445        39.600  

  20711116.88805 109307082.19115      1795.41005        39.000  

  22037370.30504 116276586.26814      -889.12504        38.300  

  22382025.53404 118087766.51304     -2595.07404        38.400  

  22283746.94604 117571307.17614      2980.07804        38.300  

  22295747.26804 117634370.02414     -3408.30104        38.200  

  23436111.66744 123627021.37144      3795.59444        37.900  

  20473498.98645 108058395.05245     -1614.04745        39.300  

  24008061.50504 126632650.55814      2241.77304        37.800  

 06 10 29 01 47 24.0000000  0  9G 1G21G 6G17G30G22G10G26G16                     
  19601624.77545 103476663.80145       298.96545        39.600  

  20710775.29605 109305287.00615      1795.18405        39.300  

  22037539.51304 116277475.48214      -889.77704        38.500  

  22382519.37504 118090361.61114     -2595.25004        38.200  

  22283179.82404 117568326.89014      2980.11304        38.200  

  22296395.82204 117637778.25014     -3408.67204        38.700  

  23435389.37944 123623225.67444      3795.88344        38.100  

  20473806.13145 108060009.19045     -1614.25845        39.100  

  24007634.94004 126630408.96514      2241.25004        37.900  

 06 10 29 01 47 25.0000000  0  9G 1G21G 6G17G30G22G10G26G16                     
  19601567.92805 103476365.03205       298.59805        39.600  

  20710433.79805 109303492.30015      1794.40605        39.100  

  22037708.84204 116278365.34714      -890.06604        38.600  

  22383013.27544 118092957.11554     -2595.95344        38.400  

  22282612.73604 117565346.75914      2980.23004        38.400  

  22297044.40104 117641186.67614     -3408.59804        38.400  

  23434667.11744 123619430.04644      3795.53144        38.000  

  20474113.32905 108061623.63305     -1614.42605        39.100  

  24007208.46704 126628167.81814      2240.71504        37.700  

 06 10 29 01 47 26.0000000  0  9G 1G21G 6G17G30G22G10G26G16                     
  19601511.20405 103476066.93315       297.76605        39.700  

  20710092.37205 109301698.10815      1794.08605        39.100  

  22037878.30504 116279255.95514      -890.82004        38.400  

  22383507.27544 118095553.05644     -2596.23844        38.400  

  22282045.66004 117562366.83314      2980.04304        38.300  

  22297693.06144 117644595.40254     -3408.64544        38.600  

  23433944.86844 123615634.52744      3795.57844        38.200  

  20474420.61545 108063238.41855     -1614.93445        39.400  

  24006782.07504 126625927.22914      2240.21504        37.800  

 06 10 29 01 47 27.0000000  0  9G 1G21G 6G17G30G22G10G26G16                     
  19601454.57105 103475769.49415       297.23805        39.600  

  20709751.02805 109299904.43615      1793.35505        39.300  

  22038047.91604 116280147.34114      -891.93804        38.400  

  22384001.33944 118098149.43444     -2596.64844        38.400  

  22281478.63504 117559387.11014      2979.72704        38.600  

  22298341.81004 117648004.45504     -3409.33204        38.300  

  23433222.64604 123611839.14304      3795.11304        38.100  

  20474727.95005 108064853.52705     -1615.05505        39.200  

  24006355.81504 126623687.19614      2239.63304        37.700  

 06 10 29 01 47 28.0000000  0  9G 1G21G 6G17G30G22G10G26G16                     
  19601398.11205 103475472.74415       296.58605        39.700  

  20709409.82005 109298111.31615      1792.71905        39.000  

  22038217.66104 116281039.44414      -892.48004        38.700  

  22384495.51044 118100746.29944     -2597.06344        38.300  

  22280911.63404 117556407.59114      2979.48004        38.400  

  22298990.55504 117651413.77114     -3409.34804        38.600  

  23432500.42604 123608043.87714      3795.25004        38.200  

  20475035.33705 108066469.02315     -1615.66805        39.000  

  24005929.66204 126621447.67914      2239.19104        37.700  

 06 10 29 01 47 29.0000000  0  9G 1G21G 6G17G30G22G10G26G16                     
  19601341.76605 103475176.68415       295.70305        39.600  

  20709068.68005 109296318.74015      1792.43005        38.900  

  22038387.60004 116281932.33114      -893.23004        38.700  

  22384989.76844 118103343.63644     -2597.35544        38.300  

  22280344.67904 117553428.32114      2978.98804        38.600  

  22299639.40004 117654823.46214     -3409.88304        38.300  

  23431778.23604 123604248.76014      3795.24604        38.100  

  20475342.82105 108068084.86515     -1616.17605        39.100  

  24005503.62404 126619208.77514      2238.71504        37.900  

 06 10 29 01 47 30.0000000  0  9G 1G21G 6G17G30G22G10G26G16                     
  19601285.55105 103474881.35415       295.09405        39.600  

  20708727.69745 109294526.77655      1791.50445        38.900  

  22038557.67204 116282826.03514      -894.01604        38.700  

  22385484.12304 118105941.52704     -2598.05904        38.400  

  22279777.79804 117550449.31014      2978.87904        38.600  

  22300288.32304 117658233.49514     -3410.12904        38.300  

  23431056.06704 123600453.83514      3795.05104        38.300  

  20475650.38205 108069701.15515     -1616.52305        39.300  

  24005077.70704 126616970.48114      2237.95304        37.600  

 06 10 29 01 47 31.0000000  0  9G 1G21G 6G17G30G22G10G26G16                     
  19601229.52705 103474586.79815       294.33205        39.700  

  20708386.83245 109292735.42445      1791.17245        39.100  

  22038727.87904 116283720.59614      -894.87504        38.500  

  22385978.61704 118108539.98214     -2598.85904        38.600  

  22279210.99404 117547470.61314      2978.72304        38.500  

  22300937.32204 117661643.94714     -3410.69504        38.600  

  23430333.96404 123596659.16614      3794.68404        38.100  

  20475958.04505 108071317.87715     -1617.01605        39.000  

  24004651.90504 126614732.84914      2237.03904        37.700  

 06 10 29 01 47 32.0000000  0  9G 1G21G 6G17G30G22G10G26G16                     
  19601173.61905 103474292.92515       293.51605        39.600  

  20708046.05945 109290944.60945      1790.78145        39.000  

  22038898.23904 116284615.90314      -895.75804        38.600  

  22386473.18304 118111138.87414     -2599.15204        38.300  

  22278644.19604 117544492.10514      2978.37104        38.500  

  22301586.34504 117665054.66814     -3410.84404        38.200  

  23429611.88804 123592864.61114      3794.42204        38.000  

  20476265.77605 108072934.94715     -1617.30905        39.100  

  24004226.15904 126612495.72614      2236.78904        37.800  

 06 10 29 01 47 33.0000000  0  9G 1G21G 6G17G30G22G10G26G16                     
  19601117.82805 103473999.75315       292.76205        39.600  

  20707705.41445 109289154.38745      1789.86745        39.100  

  22039068.74604 116285511.97814      -896.45304        38.500  

  22386967.83604 118113738.27614     -2599.57804        38.500  

  22278077.46304 117541513.88114      2977.81304        38.600  

  22302235.45004 117668465.76914     -3411.21104        38.600  

  23428889.80104 123589070.22114      3794.27304        38.100  

  20476573.54305 108074552.41205     -1617.68805        39.300  

  24003800.57504 126610259.23214      2236.16804        37.800  

 06 10 29 01 47 34.0000000  0  9G 1G21G 6G17G30G22G10G26G16                     
  19601062.17645 103473707.26655       292.11345        39.500  

  20707364.83905 109287364.66905      1789.43805        39.000  

  22039239.41104 116286408.84314      -897.37904        38.600  

  22387462.57404 118116338.15714     -2600.02004        38.400  

  22277510.74304 117538535.83814      2977.88304        38.500  

  22302884.60804 117671877.15414     -3411.39504        38.300  

  23428167.78504 123585275.98314      3794.34804        38.000  

  20476881.40105 108076170.22805     -1618.07005        39.400  

  24003375.08904 126608023.29514      2235.48804        37.600  

 06 10 29 01 47 35.0000000  0  9G 1G21G 6G17G30G22G10G26G16                     
  19601006.61205 103473415.33105       291.49605        39.700  

  20707024.35205 109285575.42215      1789.10905        39.000  

  22039410.21604 116287306.32214      -897.84004        38.400  

  22387957.37904 118118938.38814     -2600.37104        38.600  

  22276944.07904 117535557.92414      2977.83604        38.200  

  22303533.82704 117675288.76114     -3411.69504        38.300  

  23427445.72104 123581481.74614      3794.26204        37.900  

  20477189.28805 108077788.30105     -1618.21105        39.100  

  24002949.70604 126605787.78014      2235.25404        37.700  

 06 10 29 01 47 36.0000000  0  9G 1G21G 6G17G30G22G10G26G16                     
  19600951.15605 103473123.96215       290.94905        39.400  

  20706683.94205 109283786.57215      1788.57005        39.100  

  22039581.11104 116288204.43714      -898.34404        38.700  

  22388452.25104 118121538.98714     -2600.84004        38.300  

  22276377.42804 117532580.09914      2977.34804        38.200  

  22304183.05304 117678700.52014     -3411.81304        38.500  

  23426723.68904 123577687.52514      3794.10504        38.000  

  20477497.22605 108079406.61905     -1618.59405        39.000  

  24002524.40104 126603552.71414      2234.62104        38.100  

 06 10 29 01 47 37.0000000  0  9G 1G21G 6G17G30G22G10G26G16                     
  19600895.84945 103472833.23255       290.32845        39.500  

  20706343.61605 109281998.22915      1788.18005        39.100  

  22039752.14844 116289103.28554      -899.27044        38.700  

  22388947.22504 118124139.99114     -2601.35204        38.300  

  22275810.79604 117529602.43114      2977.46504        38.300  

  22304832.36604 117682112.58014     -3412.07804        38.500  

  23426001.67304 123573893.41114      3794.05504        38.000  

  20477805.24805 108081025.23905     -1618.63705        39.100  

  24002099.17204 126601318.18114      2234.21504        37.900  

 06 10 29 01 47 38.0000000  0  9G 1G21G 6G17G30G22G10G26G16                     
  19600840.65605 103472543.17205       289.59005        39.700  

  20706003.40705 109280210.42515      1787.55905        39.000  

  22039923.35704 116290002.87704      -899.90204        38.400  

  22389442.26304 118126741.48114     -2601.98404        38.300  

  22275244.22404 117526624.99314      2977.30104        38.400  

  22305481.72104 117685524.95914     -3412.73804        38.600  

  23425279.71604 123570099.43114      3793.67604        38.200  

  20478113.31305 108082644.22505     -1619.25805        39.300  

  24001674.04504 126599084.19014      2233.71104        37.700  

 06 10 29 01 47 39.0000000  0  9G 1G21G 6G17G30G22G10G26G16                     
  19600785.58005 103472253.80815       289.12505        39.700  

  20705663.29305 109278423.17415      1787.11705        38.900  

  22040094.71404 116290903.24214      -900.70704        38.400  

  22389937.41704 118129343.44614     -2602.50004        38.500  

  22274677.66804 117523647.76714      2977.25404        38.500  

  22306131.11504 117688937.64214     -3412.78904        38.300  

  23424557.80504 123566305.60714      3793.64104        37.800  

  20478421.46905 108084263.57915     -1619.31305        39.200  

  24001249.01704 126596850.78514      2233.02304        37.700  

 06 10 29 01 47 40.0000000  0  9G 1G21G 6G17G30G22G10G26G16                     
  19600730.63805 103471965.13515       288.30505        39.600  

  20705323.29705 109276636.49415      1786.57805        39.000  

  22040266.19804 116291804.38214      -901.50404        38.800  

  22390432.63904 118131945.89214     -2603.10504        38.600  

  22274111.13804 117520670.79114      2976.80904        38.600  

  22306780.61404 117692350.64414     -3413.34404        38.600  

  23423835.89704 123562511.94114      3793.58604        38.000  

  20478729.70905 108085883.31915     -1619.93405        39.100  

  24000824.16104 126594617.96914      2232.56304        37.900  

 06 10 29 01 47 41.0000000  0  9G 1G21G 6G17G30G22G10G26G16                     
  19600675.81605 103471677.10915       287.79305        39.700  

  20704983.38405 109274850.30015      1785.85505        39.000  

  22040437.80844 116292706.24154      -902.34044        38.300  

  22390927.95604 118134548.75814     -2603.30104        38.400  

  22273544.67004 117517693.98714      2976.88304        38.400  

  22307430.12304 117695763.92614     -3413.26204        38.500  

  23423113.97804 123558718.34014      3793.64804        37.900  

  20479038.00505 108087503.36915     -1620.24605        39.200  

  24000399.35004 126592385.64114      2232.06604        37.700  

 06 10 29 01 47 42.0000000  0  9G 1G21G 6G17G30G22G10G26G16                     
  19600621.14405 103471389.74915       286.79305        39.700  

  20704643.57505 109273064.64615      1785.30105        39.100  

  22040609.54644 116293608.81944      -902.66444        38.600  

  22391423.37204 118137152.09514     -2603.69904        38.500  

  22272978.23004 117514717.39314      2976.55104        38.600  

  22308079.72004 117699177.50014     -3413.69504        38.600  

  23422392.11644 123554924.89054      3793.26244        38.100  

  20479346.37605 108089123.75815     -1620.77305        39.000  

  23999974.63204 126590153.85114      2231.69504        37.800  

 06 10 29 01 47 43.0000000  0  9G 1G21G 6G17G30G22G10G26G16                     
  19600566.57005 103471103.03015       286.41005        39.600  

  20704303.87105 109271279.51715      1784.64105        39.000  

  22040781.43044 116294512.17944      -903.91844        38.600  

  22391918.83604 118139755.88014     -2604.23004        38.200  

  22272411.82704 117511741.01114      2976.02004        38.500  

  22308729.37604 117702591.35814     -3413.94504        38.400  

  23421670.23904 123551131.56804      3793.01604        38.000  

  20479654.79805 108090744.48215     -1620.73405        39.200  

  23999550.06304 126587922.63414      2230.77004        37.400  

 06 10 29 01 47 44.0000000  0  9G 1G21G 6G17G30G22G10G26G16                     
  19600512.17205 103470817.06315       285.48405        39.400  

  20703964.28205 109269494.95215      1784.30505        39.000  

  22040953.48244 116295416.29444      -904.29344        38.600  

  22392414.40804 118142360.17614     -2604.62504        38.400  

  22271845.47104 117508764.85814      2975.91404        38.400  

  22309379.06404 117706005.58814     -3414.47304        38.400  

  23420948.42704 123547338.39814      3793.25004        38.100  

  20479963.25105 108092365.63515     -1621.48405        39.100  

  23999125.56504 126585692.02014      2230.40204        37.800  

 06 10 29 01 47 45.0000000  0  9G 1G21G 6G17G30G22G10G26G16                     
  19600457.86145 103470531.81155       284.88345        39.700  

  20703624.81905 109267711.01015      1783.58605        38.900  

  22041125.72244 116296321.26944      -905.75044        38.500  

  22392910.09904 118144964.98914     -2605.05504        38.500  

  22271279.20444 117505788.99854      2975.56344        38.500  

  22310028.85244 117709420.17554     -3414.79744        38.400  

  23420226.65704 123543545.44114      3793.11304        38.200  

  20480271.85405 108093987.18615     -1621.93005        39.200  

  23998701.17704 126583461.99114      2229.95304        37.700  

 06 10 29 01 47 46.0000000  0  9G 1G21G 6G17G30G22G10G26G16                     
  19600403.74545 103470247.28745       283.91445        39.600  

  20703285.46805 109265927.64415      1782.99205        39.000  

  22041298.07504 116297226.97804      -905.91804        38.300  

  22393405.87304 118147570.30514     -2605.45304        38.500  

  22270712.98204 117502813.36404      2975.64804        38.200  

  22310678.70644 117712835.11044     -3415.19544        38.500  

  23419504.90104 123539752.65514      3792.45704        37.900  

  20480580.51305 108095609.14315     -1622.24605        38.900  

  23998276.91204 126581232.58614      2229.32404        37.900  

 06 10 29 01 47 47.0000000  0  9G 1G21G 6G17G30G22G10G26G16                     
  19600349.69645 103469963.32945       283.68445        39.600  

  20702946.15905 109264144.70515      1782.99605        39.000  

  22041470.56204 116298133.38314      -906.64104        38.400  

  22393901.69204 118150176.01914     -2605.82004        38.600  

  22270146.77444 117499837.89754      2975.48844        38.600  

  22311328.61344 117716250.25944     -3415.25844        38.600  

  23418783.16104 123535959.95414      3792.43004        38.100  

  20480889.21005 108097231.35615     -1622.27705        39.100  

  23997852.76804 126579003.64214      2229.00804        37.700  

 06 10 29 01 47 48.0000000  0  9G 1G21G 6G17G30G22G10G26G16                     
  19600295.79245 103469680.08645       282.77745        39.700  

  20702606.97005 109262362.31615      1782.33605        39.100  

  22041643.18704 116299040.57014      -907.82804        38.400  

  22394397.62404 118152782.19814     -2606.34004        38.400  

  22269580.59044 117496862.61344      2975.37144        38.300  

  22311978.53944 117719665.71944     -3415.55144        38.500  

  23418061.44504 123532167.34014      3792.49204        38.100  

  20481197.99305 108098853.95015     -1623.00805        39.300  

  23997428.76104 126576775.27514      2228.19904        37.700  

 06 10 29 01 47 49.0000000  0  9G 1G21G 6G17G30G22G10G26G16                     
  19600242.03705 103469397.64005       282.13305        39.300  

  20702267.94305 109260580.64215      1781.53505        39.000  

  22041815.97904 116299948.62514      -908.41004        38.700  

  22394893.69404 118155388.98314     -2606.99604        38.300  

  22269014.45144 117493887.71644      2974.72344        38.700  

  22312628.58104 117723081.65004     -3416.11704        38.500  

  23417339.78604 123528375.02314      3792.12904        37.900  

  20481506.84905 108100477.03515     -1623.30505        39.100  

  23997004.88004 126574547.61114      2227.09404        37.900  

 06 10 29 01 47 50.0000000  0  9G 1G21G 6G17G30G22G10G26G16                     
  19600188.44705 103469115.97715       281.25405        39.700  

  20701929.03705 109258799.59615      1780.73805        39.000  

  22041988.94204 116300857.54714      -909.60204        38.600  

  22395389.84204 118157996.35114     -2607.93004        38.300  

  22268448.42144 117490913.14144      2974.10944        38.600  

  22313278.68004 117726497.96614     -3416.25404        38.400  

  23416618.16204 123524582.94014      3791.96104        38.100  

  20481815.79305 108102100.56315     -1623.82005        39.000  

  23996581.09304 126572320.59414      2226.84004        37.900  

 06 10 29 01 47 51.0000000  0  9G 1G21G 6G17G30G22G10G26G16                     
  19600134.97405 103468834.95215       280.57405        39.400  

  20701590.23505 109257019.05815      1780.25005        39.200  

  22042162.04444 116301767.16854      -909.87144        38.600  

  22395886.09104 118160604.12114     -2608.05104        38.400  

  22267882.43304 117487938.71604      2974.22704        38.500  

  22313928.83704 117729914.55714     -3416.71904        38.400  

  23415896.56104 123520790.95514      3792.05504        38.000  

  20482124.81705 108103724.42915     -1624.07405        39.200  

  23996157.36604 126570094.09114      2226.09004        37.900  

 06 10 29 01 47 52.0000000  0  9G 1G21G 6G17G30G22G10G26G16                     
  19600081.59705 103468554.53815       280.18805        39.600  

  20701251.50645 109255238.97755      1779.76645        39.000  

  22042335.28904 116302677.49504      -910.52004        38.500  

  22396382.41404 118163212.30414     -2608.48804        38.500  

  22267316.47404 117484964.44114      2974.42604        38.600  

  22314579.03404 117733331.39714     -3416.94504        38.500  

  23415174.96504 123516999.08114      3791.60504        38.000  

  20482433.87005 108105348.57215     -1624.25405        39.000  

  23995733.74004 126567868.10314      2225.74604        37.900  

 06 10 29 01 47 53.0000000  0  9G 1G21G 6G17G30G22G10G26G16                     
  19600028.36905 103468274.82115       279.26205        39.600  

  20700912.86905 109253459.46105      1779.41805        38.900  

  22042508.65904 116303588.58714      -911.44504        38.600  

  22396878.84004 118165820.97314     -2609.04304        38.200  

  22266750.51404 117481990.42314      2973.73004        38.500  

  22315229.32944 117736748.57454     -3417.53144        38.400  

  23414453.41844 123513207.31154      3791.54344        37.900  

  20482743.03005 108106973.10115     -1624.93405        39.000  

  23995310.23904 126565642.68814      2224.98804        37.800  

 06 10 29 01 47 54.0000000  0  9G 1G21G 6G17G30G22G10G26G16                     
  19599975.25105 103467995.75415       278.68805        39.600  

  20700574.35805 109251680.49415      1778.53505        39.000  

  22042682.19204 116304500.41114      -912.17604        38.600  

  22397375.35044 118168430.08954     -2609.54344        38.400  

  22266184.61004 117479016.57414      2973.78504        38.400  

  22315879.68404 117740166.01204     -3417.83204        38.600  

  23413731.87144 123509415.66544      3791.55144        38.100  

  20483052.25005 108108597.95615     -1625.04305        39.200  

  23994886.83704 126563417.77414      2224.61704        37.900  

 06 10 29 01 47 55.0000000  0  9G 1G21G 6G17G30G22G10G26G16                     
  19599922.30305 103467717.44215       277.87905        39.600  

  20700235.92905 109249902.10515      1778.19105        39.100  

  22042855.85904 116305413.08414      -913.14804        38.500  

  22397871.95304 118171039.73304     -2609.82404        38.500  

  22265618.73704 117476043.04014      2973.10504        38.600  

  22316530.06604 117743583.84114     -3417.99604        38.400  

  23413010.40844 123505624.24644      3791.45344        37.900  

  20483361.53905 108110223.24115     -1625.42605        39.300  

  23994463.58704 126561193.54514      2224.08604        37.600  

 06 10 29 01 47 56.0000000  0  9G 1G21G 6G17G30G22G10G26G16                     
  19599869.50105 103467439.86515       277.21905        39.700  

  20699897.62205 109248124.32015      1777.55905        39.000  

  22043029.71104 116306326.55214      -913.78504        38.400  

  22398368.66204 118173649.92014     -2610.47304        38.500  

  22265052.94204 117473069.75914      2973.32404        38.300  

  22317180.52404 117747002.01914     -3418.19104        38.600  

  23412288.97344 123501833.02344      3791.16844        38.000  

  20483670.90405 108111848.96015     -1625.92205        39.300  

  23994040.41304 126558969.90914      2223.29304        37.800  

 06 10 29 01 47 57.0000000  0  9G 1G21G 6G17G30G22G10G26G16                     
  19599816.80605 103467162.91915       276.89805        39.600  

  20699559.40605 109246347.05315      1777.11705        39.100  

  22043203.66304 116307240.71414      -914.16804        38.700  

  22398865.43704 118176260.52304     -2610.75404        38.500  

  22264487.17404 117470096.66114      2973.04704        38.500  

  22317831.03104 117750420.49614     -3418.66004        38.500  

  23411567.54104 123498041.88504      3791.09804        37.800  

  20483980.33705 108113474.97415     -1626.21905        39.200  

  23993617.39444 126556746.80554      2222.97744        37.900  

 06 10 29 01 47 58.0000000  0  9G 1G21G 6G17G30G22G10G26G16                     
  19599764.22605 103466886.63315       275.96105        39.600  

  20699221.30005 109244570.30815      1776.44105        39.100  

  22043377.75104 116308155.64314      -915.45304        38.500  

  22399362.28904 118178871.55304     -2611.39104        38.500  

  22263921.43604 117467123.75414      2972.50404        38.400  

  22318481.60404 117753839.22814     -3418.87504        38.300  

  23410846.15304 123494250.86214      3791.14504        37.900  

  20484289.84405 108115101.33115     -1626.49205        39.200  

  23993194.43644 126554524.22144      2222.34844        37.600  

 06 10 29 01 47 59.0000000  0  9G 1G21G 6G17G30G22G10G26G16                     
  19599711.77505 103466610.99915       275.39105        39.600  

  20698883.27405 109242794.04615      1776.09805        39.100  

  22043552.00504 116309071.26914      -916.07404        38.700  

  22399859.26504 118181483.05014     -2611.80904        38.400  

  22263355.71804 117464151.03214      2972.50804        38.500  

  22319132.25904 117757258.24014     -3419.09804        38.300  

  23410124.76804 123490459.97614      3790.58604        38.100  

  20484599.40905 108116728.01715     -1626.78105        39.300  

  23992771.61904 126552302.18604      2221.48404        37.800  

 06 10 29 01 48  0.0000000  0  9G 1G21G 6G17G30G22G10G26G16                     
  19599659.45605 103466336.00015       274.61305        39.900  

  20698545.35145 109241018.31155      1775.70345        39.200  

  22043726.38604 116309987.62014      -916.52304        38.600  

  22400356.27604 118184094.94714     -2612.06604        38.300  

  22262790.03504 117461178.47614      2972.67204        38.500  

  22319782.94144 117760677.54554     -3419.51644        38.500  

  23409403.37504 123486669.16014      3790.82804        38.100  

  20484909.01505 108118355.01415     -1627.00405        39.000  

  23992348.88904 126550080.66114      2221.32804        38.000  

 06 10 29 01 48  1.0000000  0  9G 1G21G 6G17G30G22G10G26G16                     
  19599607.24805 103466061.57815       273.98005        39.700  

  20698207.50945 109239243.02145      1774.89845        39.100  

  22043900.87504 116310904.63214      -917.33604        38.400  

  22400853.36204 118186707.22314     -2612.50804        38.600  

  22262224.40944 117458206.04554      2972.47344        38.600  

  22320433.66904 117764097.02404     -3419.47704        38.300  

  23408682.01044 123482878.37554      3790.80944        37.900  

  20485218.67805 108119982.27215     -1627.35205        39.000  

  23991926.24004 126547859.57714      2221.15604        37.800  

 06 10 29 01 48  2.0000000  0  9G 1G21G 6G17G30G22G10G26G16                     
  19599555.13405 103465787.70315       273.71905        39.400  

  20697869.77745 109237468.15745      1774.53545        39.100  

  22044075.49604 116311822.28114      -917.96104        38.600  

  22401350.53004 118189319.84114     -2612.81304        38.300  

  22261658.78104 117455233.71904      2972.59404        38.400  

  22321084.39804 117767516.74014     -3419.79304        38.500  

  23407960.67604 123479087.63904      3790.93804        38.000  

  20485528.41405 108121609.78515     -1627.77005        39.000  

  23991503.65104 126545638.96414      2220.35504        37.800  

 06 10 29 01 48  3.0000000  0  9G 1G21G 6G17G30G22G10G26G16                     
  19599503.13205 103465514.45315       272.83205        39.400  

  20697532.12445 109235693.73745      1774.07845        39.000  

  22044250.26044 116312740.60654      -918.56344        38.600  

  22401847.75804 118191932.86014     -2612.98404        38.400  

  22261093.17004 117452261.54914      2972.23804        38.400  

  22321735.17504 117770936.66314     -3420.26604        38.400  

  23407239.34304 123475296.98914      3790.37504        37.900  

  20485838.13505 108123237.55715     -1627.78505        39.100  

  23991081.16304 126543418.83814      2219.74604        37.700  

 06 10 29 01 48  4.0000000  0  9G 1G21G 6G17G30G22G10G26G16                     
  19599451.24705 103465241.70215       272.45305        39.700  

  20697194.54305 109233919.73205      1773.84405        39.100  

  22044425.10304 116313659.52404      -919.24604        38.500  

  22402345.05644 118194546.18154     -2613.63344        38.300  

  22260527.62544 117449289.42454      2971.93844        38.400  

  22322385.98444 117774356.71954     -3420.44544        38.400  

  23406517.99544 123471506.27054      3790.80944        38.100  

  20486147.90505 108124865.55215     -1628.11705        39.100  

  23990658.73844 126541199.09254      2219.55944        37.800  

 06 10 29 01 48  5.0000000  0  9G 1G21G 6G17G30G22G10G26G16                     
  19599399.48005 103464969.71415       271.90605        39.600  

  20696857.06405 109232146.30815      1773.35505        38.900  

  22044600.14004 116314579.27314      -919.89504        38.400  

  22402842.45744 118197160.03144     -2613.97344        38.500  

  22259962.09644 117446317.57144      2972.00044        38.400  

  22323036.87304 117777777.18104     -3420.75804        38.500  

  23405796.66504 123467715.77804      3790.30904        38.000  

  20486457.80405 108126493.97915     -1628.66805        39.100  

  23990236.48944 126538980.01544      2218.75844        37.800  

 06 10 29 01 48  6.0000000  0  9G 1G21G 6G17G30G22G10G26G16                     
  19599347.84605 103464698.36715       270.93005        39.300  

  20696519.72645 109230373.43555      1772.42245        39.000  

  22044775.30004 116315499.74314      -920.80504        38.400  

  22403339.93544 118199774.32844     -2614.81644        38.300  

  22259396.63104 117443345.94004      2971.52704        38.300  

  22323687.80604 117781197.88714     -3420.88704        38.400  

  23405075.37104 123463925.40714      3790.22304        37.900  

  20486767.72905 108128122.68915     -1628.85205        39.100  

  23989814.33244 126536761.45444      2218.16444        37.900  

 06 10 29 01 48  7.0000000  0  9G 1G21G 6G17G30G22G10G26G16                     
  19599296.39405 103464427.95815       270.17605        39.600  

  20696182.51305 109228601.34405      1771.84005        39.300  

  22044950.66304 116316421.21614      -921.64104        38.600  

  22403837.54844 118202389.32744     -2615.00444        38.200  

  22258831.22304 117440374.74314      2971.16404        38.400  

  22324338.86104 117784619.18714     -3421.65604        38.500  

  23404354.16944 123460135.43054      3789.84844        38.000  

  20487077.80505 108129752.06615     -1629.65205        39.300  

  23989392.32704 126534543.70404      2217.18404        37.800  

 06 10 29 01 48  8.0000000  0  9G 1G21G 6G17G30G22G10G26G16                     
  19599245.09405 103464158.36615       269.39805        39.300  

  20695845.42505 109226829.94815      1770.84805        39.100  

  22045126.20104 116317343.60914      -922.58204        38.600  

  22404335.28944 118205004.96544     -2615.86344        38.200  

  22258265.88404 117437403.93314      2970.85504        38.400  

  22324989.98504 117788040.92714     -3422.11704        38.200  

  23403633.00004 123456345.72904      3789.60904        38.000  

  20487387.95605 108131381.92615     -1630.02005        39.300  

  23988970.43504 126532326.65414      2216.33604        37.900  

 06 10 29 01 48  9.0000000  0  9G 1G21G 6G17G30G22G10G26G16                     
  19599193.95605 103463889.55915       268.55905        39.700  

  20695508.45405 109225059.17115      1770.45705        38.900  

  22045301.87304 116318266.86214      -923.89804        38.500  

  22404833.12704 118207621.15804     -2616.37104        38.500  

  22257700.59644 117434433.44254      2970.32444        38.300  

  22325641.19844 117791463.08454     -3422.54744        38.200  

  23402911.89444 123452556.28054      3789.36744        38.000  

  20487698.18705 108133012.23015     -1630.43005        39.200  

  23988548.68604 126530110.27014      2215.84004        37.600  

 06 10 29 01 48 10.0000000  0  9G 1G21G 6G17G30G22G10G26G16                     
  19599142.95545 103463621.50755       267.73445        39.600  

  20695171.62905 109223289.04215      1769.72305        39.000  

  22045477.72404 116319190.91314      -924.25404        38.500  

  22405331.07804 118210237.89814     -2617.07004        38.400  

  22257135.40404 117431463.23304      2969.85904        38.300  

  22326292.48444 117794885.58844     -3422.55144        38.400  

  23402190.83504 123448767.04104      3788.92204        37.900  

  20488008.51405 108134642.96315     -1630.84405        39.300  

  23988127.03704 126527894.52414      2215.61304        37.900  

 06 10 29 01 48 11.0000000  0  9G 1G21G 6G17G30G22G10G26G16                     
  19599092.09745 103463354.14445       267.02745        39.600  

  20694834.89505 109221519.47215      1769.03505        38.900  

  22045653.71204 116320115.75714      -925.32804        38.600  

  22405829.12404 118212855.10714     -2617.22704        38.300  

  22256570.23844 117428493.24254      2970.15644        38.400  

  22326943.85044 117798308.45644     -3422.95744        38.200  

  23401469.79404 123444977.95914      3789.08204        37.800  

  20488318.92705 108136274.09315     -1631.47305        39.200  

  23987705.47904 126525679.34914      2215.08204        37.900  

 06 10 29 01 48 12.0000000  0  9G 1G21G 6G17G30G22G10G26G16                     
  19599041.35105 103463087.36705       266.44905        39.600  

  20694498.24345 109219750.32955      1768.96145        39.100  

  22045829.84504 116321041.23814      -925.68804        38.500  

  22406327.25004 118215472.67814     -2617.63704        38.600  

  22256005.11044 117425523.41244      2969.66844        38.500  

  22327595.22444 117801731.51444     -3423.09844        38.400  

  23400748.77904 123441188.91414      3789.22304        38.000  

  20488629.37605 108137905.48515     -1631.55505        39.400  

  23987284.02504 126523464.64614      2214.56304        37.600  

 06 10 29 01 48 13.0000000  0  9G 1G21G 6G17G30G22G10G26G16                     
  19598990.69205 103462821.16715       266.06305        39.600  

  20694161.68505 109217981.65805      1768.41805        39.100  

  22046006.07904 116321967.40814      -926.52304        38.400  

  22406825.43004 118218090.64514     -2618.23804        38.300  

  22255439.98744 117422553.68744      2969.53544        38.500  

  22328246.64704 117805154.81904     -3423.76604        38.200  

  23400027.74204 123437399.92114      3788.92204        38.100  

  20488939.86845 108139537.13255     -1631.81345        39.000  

  23986862.68904 126521250.43914      2213.70704        37.800  

 06 10 29 01 48 14.0000000  0  9G 1G21G 6G17G30G22G10G26G16                     
  19598940.18205 103462555.58615       265.42205        39.600  

  20693825.20605 109216213.45215      1768.07805        39.100  

  22046182.43804 116322894.27714      -927.09004        38.700  

  22407323.65604 118220709.00714     -2618.44504        38.500  

  22254874.89844 117419584.12244      2969.41044        38.500  

  22328898.11404 117808578.33914     -3423.78904        38.500  

  23399306.70704 123433611.00714      3789.00004        38.200  

  20489250.42705 108141169.06405     -1631.85505        39.100  

  23986441.44604 126519036.71714      2213.34004        37.800  

 06 10 29 01 48 15.0000000  0  9G 1G21G 6G17G30G22G10G26G16                     
  19598889.76605 103462290.64115       264.46105        39.800  

  20693488.84905 109214445.76015      1767.13305        39.000  

  22046358.94404 116323821.83014      -928.07004        38.700  

  22407822.00104 118223327.77714     -2618.95304        38.700  

  22254309.81504 117416614.70804      2969.32004        38.600  

  22329549.63404 117812002.11714     -3424.10204        38.500  

  23398585.71104 123429822.16814      3789.02304        37.900  

  20489561.05645 108142801.30955     -1632.25045        39.100  

  23986020.29344 126516823.48554      2212.73844        37.700  

 06 10 29 01 48 16.0000000  0  9G 1G21G 6G17G30G22G10G26G16                     
  19598839.44805 103462026.36515       263.75005        39.700  

  20693152.55805 109212678.59415      1766.85205        39.100  

  22046535.58404 116324750.13514      -928.40604        38.600  

  22408320.41604 118225947.01214     -2619.34004        38.600  

  22253744.78604 117413645.53114      2968.77304        38.300  

  22330201.22304 117815426.20914     -3424.37904        38.500  

  23397864.76104 123426033.54614      3788.46104        38.100  

  20489871.71545 108144433.93145     -1632.59845        39.100  

  23985599.24304 126514610.85304      2212.19504        37.700  

 06 10 29 01 48 17.0000000  0  9G 1G21G 6G17G30G22G10G26G16                     
  19598789.30805 103461762.83615       263.47705        39.600  

  20692816.41905 109210912.06615      1766.28905        38.900  

  22046712.41004 116325679.30114      -929.54304        38.700  

  22408818.95444 118228566.81054     -2619.98444        38.300  

  22253179.82644 117410676.63154      2968.87544        38.500  

  22330852.87604 117818850.67614     -3424.58604        38.700  

  23397143.83904 123422245.05114      3788.68004        38.200  

  20490182.46645 108146066.98645     -1633.41445        39.300  

  23985178.29244 126512398.82054      2211.79744        37.700  

 06 10 29 01 48 18.0000000  0  9G 1G21G 6G17G30G22G10G26G16                     
  19598739.26005 103461499.94715       262.59405        39.700  

  20692480.36705 109209146.01915      1765.67605        39.000  

  22046889.34804 116326609.13714      -930.28504        38.600  

  22409317.55404 118231186.99604     -2620.53904        38.300  

  22252614.88204 117407707.90704      2968.53104        38.300  

  22331504.57204 117822275.41714     -3425.10904        38.500  

  23396422.94504 123418456.70014      3788.21504        37.800  

  20490493.28005 108147700.32805     -1633.58205        39.300  

  23984757.48204 126510187.31204      2211.18004        37.700  

 06 10 29 01 48 19.0000000  0  9G 1G21G 6G17G30G22G10G26G16                     
  19598689.35005 103461237.71115       261.87505        39.700  

  20692144.41945 109207380.50355      1765.05945        39.100  

  22047066.42804 116327539.71014      -930.87104        38.600  

  22409816.22104 118233807.63014     -2620.85904        38.600  

  22252050.04044 117404739.35954      2968.71944        38.600  

  22332156.31704 117825700.39114     -3424.78104        38.600  

  23395702.07704 123414668.44414      3788.07004        38.200  

  20490804.15545 108149334.01355     -1633.94545        39.300  

  23984336.79304 126507976.36114      2210.44104        37.900  

 06 10 29 01 48 20.0000000  0  9G 1G21G 6G17G30G22G10G26G16                     
  19598639.59605 103460976.08415       261.15605        39.600  

  20691808.53405 109205615.44105      1764.60505        39.000  

  22047243.62705 116328470.98015      -931.84405        39.000  

  22410314.98404 118236428.64614     -2621.41804        38.100  

  22251485.18044 117401770.99644      2968.27044        38.600  

  22332808.11104 117829125.65614     -3425.38304        38.300  

  23394981.21204 123410880.26114      3788.00804        37.800  

  20491115.07845 108150967.98845     -1634.30145        39.400  

  23983916.14604 126505765.88114      2210.16004        37.600  

 06 10 29 01 48 21.0000000  0  9G 1G21G 6G17G30G22G10G26G16                     
  19598589.95105 103460715.18815       260.52305        39.400  

  20691472.76845 109203851.01755      1764.16845        39.100  

  22047420.98004 116329403.06114      -932.65204        38.600  

  22410813.85104 118239050.20614     -2621.73804        38.300  

  22250920.35544 117398802.90444      2967.94544        38.600  

  22333459.97404 117832551.28714     -3425.75004        38.500  

  23394260.37844 123407092.29054      3787.71144        37.900  

  20491426.08305 108152602.38705     -1634.66005        39.200  

  23983495.67904 126503556.05514      2209.58604        38.100  

 06 10 29 01 48 22.0000000  0  9G 1G21G 6G17G30G22G10G26G16                     
  19598540.43945 103460454.92455       259.95345        39.700  

  20691137.09345 109202087.06045      1763.55945        39.000  

  22047598.48404 116330335.84514      -933.20704        38.400  

  22411312.78704 118241672.16514     -2622.13304        38.500  

  22250355.59104 117395834.97004      2967.97304        38.500  

  22334111.87504 117835977.16614     -3426.03104        38.400  

  23393539.54944 123403304.44844      3787.72344        38.100  

  20491737.16105 108154237.09515     -1635.16405        39.300  

  23983075.25104 126501346.72314      2208.78104        37.900  

 06 10 29 01 48 23.0000000  0  9G 1G21G 6G17G30G22G10G26G16                     
  19598491.04745 103460195.37545       259.21945        39.600  

  20690801.54845 109200323.69445      1762.88345        39.200  

  22047776.14504 116331269.42214      -933.94904        38.700  

  22411811.82504 118244294.62014     -2622.48404        38.400  

  22249790.86004 117392867.27414      2967.66004        38.600  

  22334763.88104 117839403.35014     -3426.10904        38.600  

  23392818.76144 123399516.71044      3787.68444        37.900  

  20492048.27805 108155872.17515     -1635.23405        39.100  

  23982654.97004 126499137.98214      2208.39104        38.000  

 06 10 29 01 48 24.0000000  0  9G 1G21G 6G17G30G22G10G26G16                     
  19598441.75745 103459936.42345       258.63345        39.600  

  20690466.09945 109198560.78945      1762.76645        39.300  

  22047953.91604 116332203.67314      -934.72704        38.400  

  22412310.94804 118246917.51014     -2623.30904        38.500  

  22249226.17504 117389899.74714      2967.43804        38.400  

  22335415.93304 117842829.82214     -3426.58604        38.200  

  23392097.97904 123395729.07504      3787.59404        38.100  

  20492359.45605 108157507.54715     -1635.38705        38.900  

  23982234.76204 126496929.72614      2208.05504        37.800  

 06 10 29 01 48 25.0000000  0  9G 1G21G 6G17G30G22G10G26G16                     
  19598392.62145 103459678.15445       258.02045        39.600  

  20690130.70745 109196798.44945      1762.17245        39.200  

  22048131.85004 116333138.68814      -935.39504        38.600  

  22412810.14204 118249540.82814     -2623.57404        38.400  

  22248661.51104 117386932.42714      2967.12104        38.600  

  22336068.00604 117846256.57014     -3426.77704        38.100  

  23391377.23304 123391941.58014      3787.43004        37.900  

  20492670.73105 108159143.29015     -1635.82805        38.900  

  23981814.66604 126494722.06714      2207.34804        37.800  

 06 10 29 01 48 26.0000000  0  9G 1G21G 6G17G30G22G10G26G16                     
  19598343.61445 103459420.62045       257.07845        39.600  

  20689795.47045 109195036.69045      1761.44945        39.200  

  22048309.92004 116334074.50314      -936.41404        38.700  

  22413309.44404 118252164.64514     -2624.15604        38.200  

  22248096.89204 117383965.38114      2966.85204        38.700  

  22336720.15404 117849683.67114     -3427.16004        38.400  

  23390656.54804 123388154.29214      3787.12504        38.000  

  20492982.07805 108160779.41915     -1636.23405        39.100  

  23981394.64804 126492514.98814      2206.69504        38.000  

 06 10 29 01 48 27.0000000  0  9G 1G21G 6G17G30G22G10G26G16                     
  19598294.72405 103459163.72705       256.59005        39.400  

  20689460.30745 109193275.45145      1761.12545        38.900  

  22048488.14704 116335011.04114      -937.05904        38.600  

  22413808.81804 118254788.92414     -2624.47704        38.400  

  22247532.32704 117380998.51514      2966.74204        38.500  

  22337372.36744 117853111.08254     -3427.66044        38.400  

  23389935.85044 123384367.10154      3787.09844        37.900  

  20493293.48505 108162415.91315     -1636.83205        39.100  

  23980974.75904 126490308.46714      2206.38304        38.200  

 06 10 29 01 48 28.0000000  0  9G 1G21G 6G17G30G22G10G26G16                     
  19598245.98505 103458907.55615       255.92605        39.700  

  20689125.28405 109191514.83405      1760.27005        39.000  

  22048666.51104 116335948.38914      -937.74204        38.400  

  22414308.30844 118257413.71454     -2624.98044        38.700  

  22246967.85704 117378031.93914      2966.22304        38.600  

  22338024.62204 117856538.81804     -3428.01604        38.300  

  23389215.19404 123380580.12504      3786.68804        38.200  

  20493604.97345 108164052.79755     -1636.99645        39.100  

  23980555.00544 126488102.54654      2205.48844        37.800  

 06 10 29 01 48 29.0000000  0  9G 1G21G 6G17G30G22G10G26G16                     
  19598197.35405 103458651.95515       255.63305        39.600  

  20688790.34305 109189754.61215      1759.90205        38.900  

  22048845.01704 116336886.37914      -938.30904        38.400  

  22414807.85644 118260038.84444     -2624.95744        38.400  

  22246403.36804 117375065.44514      2966.44504        38.300  

  22338676.93304 117859966.74514     -3427.79704        38.300  

  23388494.54504 123376793.15714      3786.81304        37.800  

  20493916.47605 108165689.90905     -1637.23805        39.200  

  23980135.34844 126485897.08644      2205.13344        37.900  

 06 10 29 01 48 30.0000000  0  9G 1G21G 6G17G30G22G10G26G16                     
  19598148.85245 103458396.93755       254.66045        39.400  

  20688455.48405 109187994.85615      1759.44905        39.200  

  22049023.64204 116337824.99814      -939.01604        38.400  

  22415307.48544 118262664.34344     -2625.91844        38.400  

  22245838.89304 117372099.06514      2966.07004        38.500  

  22339329.30304 117863394.88514     -3428.12504        38.600  

  23387773.91204 123373006.23514      3786.95704        38.100  

  20494228.08645 108167327.29355     -1637.76645        39.200  

  23979715.74144 126483692.08644      2204.71544        37.800  

 06 10 29 01 48 31.0000000  0  9G 1G21G 6G17G30G22G10G26G16                     
  19598100.46605 103458142.76205       253.89805        39.600  

  20688120.76705 109186235.82215      1758.38305        39.000  

  22049202.41904 116338764.59314      -940.10204        38.600  

  22415807.23044 118265290.49444     -2626.63744        38.300  

  22245274.48504 117369133.09714      2965.99204        38.500  

  22339981.75504 117866823.51314     -3428.73804        38.500  

  23387053.35604 123369219.64414      3786.50004        38.000  

  20494539.78905 108168965.20205     -1638.00005        39.400  

  23979296.28444 126481487.81644      2203.98444        38.000  

 06 10 29 01 48 32.0000000  0  9G 1G21G 6G17G30G22G10G26G16                     
  19598052.25005 103457889.46915       252.76605        39.500  

  20687786.19105 109184477.50815      1758.05505        39.000  

  22049381.38304 116339705.09214      -940.69904        38.600  

  22416307.10644 118267917.25544     -2626.92644        38.300  

  22244710.16004 117366167.53314      2965.31304        38.400  

  22340634.28104 117870252.63314     -3429.27704        38.400  

  23386332.85504 123365433.37714      3786.25404        38.000  

  20494851.59105 108170603.66715     -1638.45705        39.300  

  23978876.99344 126479284.29844      2203.14844        37.800  

 06 10 29 01 48 33.0000000  0  9G 1G21G 6G17G30G22G10G26G16                     
  19598004.15705 103457636.82415       252.27305        39.600  

  20687451.67505 109182719.70315      1757.55905        39.000  

  22049560.50504 116340646.32514      -941.39804        38.400  

  22416807.04604 118270544.48904     -2627.42604        38.600  

  22244145.83904 117363202.14514      2965.38304        38.600  

  22341286.86404 117873682.03314     -3429.54704        38.500  

  23385612.36204 123361647.22014      3786.26604        37.900  

  20495163.44605 108172242.44915     -1638.98405        39.300  

  23978457.77804 126477081.33704      2202.85504        37.800  

 06 10 29 01 48 34.0000000  0  9G 1G21G 6G17G30G22G10G26G16                     
  19597956.22205 103457384.80515       251.57805        39.500  

  20687117.26505 109180962.43715      1757.09405        39.100  

  22049739.76804 116341588.28714      -942.34004        38.300  

  22417307.07004 118273172.13614     -2627.93004        38.400  

  22243581.60104 117360236.95414      2965.16004        38.500  

  22341939.51704 117877111.69214     -3429.63704        38.400  

  23384891.88304 123357861.17614      3786.05904        38.000  

  20495475.34345 108173881.56255     -1639.36745        39.100  

  23978038.67104 126474878.89014      2202.21504        38.100  

 06 10 29 01 48 35.0000000  0  9G 1G21G 6G17G30G22G10G26G16                     
  19597908.38605 103457133.40115       251.30905        39.600  

  20686782.96805 109179205.65715      1756.64105        39.100  

  22049919.14104 116342530.94014      -942.74604        38.400  

  22417807.20044 118275800.17654     -2627.98044        38.600  

  22243017.36304 117357271.91014      2965.17604        38.500  

  22342592.19904 117880541.61214     -3429.96104        38.700  

  23384171.44104 123354075.23414      3785.90204        38.200  

  20495787.30605 108175520.97205     -1639.64105        39.300  

  23977619.66504 126472676.95214      2201.59004        38.000  

 06 10 29 01 48 36.0000000  0  9G 1G21G 6G17G30G22G10G26G16                     
  19597860.66505 103456882.57315       250.69505        39.400  

  20686448.75005 109177449.29315      1755.85505        39.100  

  22050098.65204 116343474.22714      -943.48404        38.600  

  22418307.37804 118278428.59304     -2628.56304        38.200  

  22242453.13804 117354306.99314      2964.80904        38.500  

  22343244.91944 117883971.71254     -3430.37144        38.400  

  23383451.00004 123350289.30414      3785.68004        38.200  

  20496099.33105 108177160.61315     -1639.79705        39.300  

  23977200.71804 126470475.46414      2201.08204        37.900  

 06 10 29 01 48 37.0000000  0  9G 1G21G 6G17G30G22G10G26G16                     
  19597812.98805 103456632.07915       250.27005        39.500  

  20686114.54805 109175693.12515      1755.66805        39.000  

  22050278.23804 116344417.94314      -944.28904        38.400  

  22418807.56804 118281057.10714     -2628.78904        38.500  

  22241888.90604 117351341.94414      2964.66004        38.300  

  22343897.61544 117887401.78044     -3430.51244        38.400  

  23382730.50804 123346503.15714      3786.23404        38.100  

  20496411.36145 108178800.28955     -1639.80145        39.200  

  23976781.83444 126468274.19254      2201.06644        37.700  

 06 10 29 01 48 38.0000000  0  9G 1G21G 6G17G30G22G10G26G16                     
  19597765.51605 103456382.57415       249.15605        39.600  

  20685780.53205 109173937.82115      1754.92605        39.000  

  22050458.00404 116345362.70914      -945.32404        38.500  

  22419307.90104 118283686.41914     -2629.91804        38.500  

  22241324.77204 117348377.41814      2964.33204        38.600  

  22344550.44844 117890832.45744     -3430.97344        38.400  

  23382010.09304 123342717.50214      3785.19904        38.000  

  20496723.52545 108180440.61845     -1640.52345        39.200  

  23976363.09404 126466073.81104      2199.82404        38.000  

 06 10 29 01 48 39.0000000  0  9G 1G21G 6G17G30G22G10G26G16                     
  19597718.19905 103456133.89215       248.41405        39.700  

  20685446.66805 109172183.23515      1754.32005        39.000  

  22050637.94904 116346308.37214      -946.00404        38.700  

  22419808.37204 118286316.30514     -2630.16404        38.600  

  22240760.70804 117345413.25714      2964.07804        38.600  

  22345203.35944 117894263.59944     -3431.43044        38.300  

  23381289.76104 123338932.11214      3785.32404        38.000  

  20497035.76445 108182081.47345     -1641.00045        38.900  

  23975944.52144 126463874.10754      2199.35944        37.800  

 06 10 29 01 48 40.0000000  0  9G 1G21G 6G17G30G22G10G26G16                     
  19597671.04005 103455886.01215       247.51605        39.500  

  20685112.91705 109170429.27415      1753.69105        39.100  

  22050818.09904 116347254.92214      -947.10904        38.500  

  22420308.91104 118288946.77314     -2630.79704        38.400  

  22240196.69944 117342449.42954      2963.69144        38.600  

  22345856.37844 117897695.14244     -3431.71144        38.600  

  23380569.49004 123335146.98114      3785.12904        38.200  

  20497348.08545 108183722.77345     -1641.41045        39.300  

  23975526.04104 126461675.12504      2198.77004        37.900  

 06 10 29 01 48 41.0000000  0  9G 1G21G 6G17G30G22G10G26G16                     
  19597623.98845 103455638.76755       247.10545        39.700  

  20684779.25705 109168675.87415      1752.83205        39.000  

  22050998.34544 116348202.19854      -947.90244        38.300  

  22420809.56144 118291577.71954     -2631.45344        38.200  

  22239632.77244 117339485.81444      2963.21544        38.500  

  22346509.43144 117901127.00644     -3432.23044        38.300  

  23379849.25804 123331362.00314      3784.93404        38.000  

  20497660.48645 108185364.43445     -1641.93045        39.100  

  23975107.68904 126459476.65514      2198.27704        37.800  

 06 10 29 01 48 42.0000000  0  9G 1G21G 6G17G30G22G10G26G16                     
  19597577.04705 103455392.14605       246.43005        39.500  

  20684445.65705 109166922.92115      1752.63305        39.000  

  22051178.74344 116349150.15844      -948.23844        38.400  

  22421310.25204 118294209.01904     -2631.32404        38.300  

  22239068.83844 117336522.32944      2963.37544        38.700  

  22347162.53604 117904559.05304     -3431.82804        38.200  

  23379128.99404 123327577.09014      3784.98004        37.800  

  20497972.93105 108187006.38605     -1642.00005        39.100  

  23974689.42104 126457278.71214      2197.48404        37.900  

 06 10 29 01 48 43.0000000  0  9G 1G21G 6G17G30G22G10G26G16                     
  19597530.24305 103455146.19215       245.80905        39.300  

  20684112.17205 109165170.51415      1752.22305        39.300  

  22051359.28144 116350098.84844      -948.99244        38.400  

  22421811.07204 118296840.79314     -2632.11704        38.300  

  22238504.92144 117333559.06344      2963.22744        38.500  

  22347815.71004 117907991.43414     -3432.59804        38.300  

  23378408.75344 123323792.30754      3784.74644        38.100  

  20498285.42605 108188648.65715     -1642.42205        39.300  

  23974271.28504 126455081.31214      2197.10504        37.900  

 06 10 29 01 48 44.0000000  0  9G 1G21G 6G17G30G22G10G26G16                     
  19597483.53005 103454900.73215       245.29305        39.900  

  20683778.77205 109163418.48215      1752.14105        39.100  

  22051539.91544 116351048.11144      -949.44144        38.600  

  22422311.96304 118299472.82814     -2632.19104        38.500  

  22237941.04544 117330595.84544      2963.10244        38.600  

  22348468.89944 117911423.93354     -3432.76244        38.500  

  23377688.52744 123320007.47744      3785.02344        38.100  

  20498597.97505 108190291.12915     -1642.73405        39.000  

  23973853.23104 126452884.28014      2196.89804        37.800  

 06 10 29 01 48 45.0000000  0  9G 1G21G 6G17G30G22G10G26G16                     
  19597436.93105 103454655.88015       244.43005        39.500  

  20683445.47205 109161666.92015      1751.45305        39.100  

  22051720.65844 116351998.08544      -950.41844        38.500  

  22422812.89404 118302105.24914     -2632.38704        38.500  

  22237377.19204 117327632.74604      2962.85904        38.400  

  22349122.12004 117914856.62704     -3432.57404        38.600  

  23376968.32344 123316222.72844      3784.66444        38.000  

  20498910.58905 108191933.87415     -1643.06305        39.000  

  23973435.26904 126450687.74214      2196.32404        37.800  

 06 10 29 01 48 46.0000000  0  9G 1G21G 6G17G30G22G10G26G16                     
  19597390.47105 103454411.69615       243.78905        39.600  

  20683112.26905 109159915.89415      1750.78905        39.100  

  22051901.56804 116352948.78104      -950.94504        38.600  

  22423313.93504 118304738.15114     -2632.98004        38.500  

  22236813.35404 117324669.87514      2962.79704        38.000  

  22349775.39804 117918289.67414     -3433.03504        38.400  

  23376248.13144 123312438.12644      3784.57444        38.000  

  20499223.25705 108193576.95815     -1643.23005        39.000  

  23973017.39604 126448491.78214      2195.70704        37.900  

 06 10 29 01 48 47.0000000  0  9G 1G21G 6G17G30G22G10G26G16                     
  19597344.11905 103454168.20115       243.32005        39.600  

  20682779.15305 109158165.43415      1750.45305        39.000  

  22052082.60004 116353900.24714      -951.73804        38.500  

  22423815.06504 118307371.53014     -2633.81604        38.600  

  22236249.57904 117321707.23814      2962.52704        38.500  

  22350428.73404 117921723.02714     -3433.49604        38.600  

  23375527.97244 123308653.66344      3784.69144        37.900  

  20499535.97905 108195220.42715     -1643.68805        39.100  

  23972599.65104 126446296.39514      2195.04304        38.000  

 06 10 29 01 48 48.0000000  0  9G 1G21G 6G17G30G22G10G26G16                     
  19597297.94645 103453925.46255       242.43845        39.600  

  20682446.16305 109156415.60315      1749.58605        38.900  

  22052263.79204 116354852.55714      -952.72704        38.600  

  22424316.28304 118310005.42014     -2634.08604        38.400  

  22235685.85604 117318744.89414      2962.15604        38.600  

  22351082.14204 117925156.74714     -3434.05904        38.300  

  23374807.85104 123304869.42704      3784.27304        38.000  

  20499848.81505 108196864.32815     -1643.96105        39.400  

  23972181.99804 126444101.63914      2194.60904        37.800  

 06 10 29 01 48 49.0000000  0  9G 1G21G 6G17G30G22G10G26G16                     
  19597251.87045 103453683.38345       241.76245        39.600  

  20682113.26705 109154666.27515      1749.10505        39.100  

  22052445.12444 116355805.57754      -953.16044        38.400  

  22424817.57904 118312639.76514     -2634.64504        38.300  

  22235122.17604 117315782.76314      2962.04704        38.700  

  22351735.60104 117928590.73114     -3434.01204        38.200  

  23374087.76904 123301085.33314      3784.17604        37.900  

  20500161.68605 108198508.57415     -1644.53105        39.200  

  23971764.46904 126441907.45314      2193.96904        38.000  

 06 10 29 01 48 50.0000000  0  9G 1G21G 6G17G30G22G10G26G16                     
  19597205.93345 103453441.94545       241.05945        39.500  

  20681780.48605 109152917.49915      1748.60205        39.100  

  22052626.62344 116356759.33544      -953.96144        38.400  

  22425318.97944 118315274.53354     -2634.86744        38.500  

  22234558.52504 117312820.79214      2962.02704        38.500  

  22352389.14904 117932025.02814     -3434.44104        38.600  

  23373367.66604 123297301.34714      3784.04304        38.100  

  20500474.64405 108200153.12915     -1644.79705        39.200  

  23971347.01804 126439713.77614      2193.58604        37.700  

 06 10 29 01 48 51.0000000  0  9G 1G21G 6G17G30G22G10G26G16                     
  19597160.13545 103453201.24045       240.40645        39.600  

  20681447.79805 109151169.29505      1748.02305        39.200  

  22052808.26904 116357713.89604      -954.98004        38.400  

  22425820.42104 118317909.81504     -2635.43004        38.500  

  22233994.94904 117309859.09214      2961.78504        38.600  

  22353042.71104 117935459.67814     -3434.91004        38.600  

  23372647.64404 123293517.55914      3783.69504        38.100  

  20500787.68105 108201798.10015     -1645.08205        39.000  

  23970929.69344 126437520.74154      2192.74644        37.700  

 06 10 29 01 48 52.0000000  0  9G 1G21G 6G17G30G22G10G26G16                     
  19597114.47945 103452961.27245       239.66845        39.600  

  20681115.26005 109149421.71105      1746.87505        39.100  

  22052990.07104 116358669.27314      -955.74604        38.600  

  22426321.98604 118320545.65114     -2636.37504        38.500  

  22233431.43804 117306897.71514      2961.10204        38.400  

  22353696.38304 117938894.66914     -3435.04704        38.400  

  23371927.64904 123289733.98314      3783.68404        38.100  

  20501100.77805 108203443.48615     -1645.66005        38.900  

  23970512.46304 126435328.30504      2192.19904        37.700  

 06 10 29 01 48 53.0000000  0  9G 1G21G 6G17G30G22G10G26G16                     
  19597068.97245 103452722.04145       239.02045        39.600  

  20680782.80905 109147674.73905      1746.68805        39.200  

  22053172.04504 116359625.48514      -956.62904        38.500  

  22426823.65804 118323181.95214     -2636.46104        38.200  

  22232867.98404 117303936.60614      2961.01604        38.600  

  22354350.10504 117942330.04114     -3435.46104        38.600  

  23371207.69204 123285950.60814      3783.40204        38.000  

  20501413.98305 108205089.30715     -1646.02305        39.000  

  23970095.37204 126433136.52514      2191.13304        37.800  

 06 10 29 01 48 54.0000000  0  9G 1G21G 6G17G30G22G10G26G16                     
  19597023.59205 103452483.50405       238.06305        39.600  

  20680450.45305 109145928.31405      1746.19105        39.000  

  22053354.15504 116360582.41914      -957.30904        38.500  

  22427325.40404 118325818.74714     -2636.95304        38.500  

  22232304.51904 117300975.71314      2960.51604        38.500  

  22355003.87244 117945765.72954     -3436.09044        38.200  

  23370487.76244 123282167.39054      3783.29344        38.100  

  20501727.22005 108206735.47015     -1646.17205        39.300  

  23969678.42644 126430945.30254      2190.86344        37.900  

 06 10 29 01 48 55.0000000  0  9G 1G21G 6G17G30G22G10G26G16                     
  19596978.31505 103452245.57615       237.71105        39.600  

  20680118.20805 109144182.38105      1745.78505        39.300  

  22053536.39304 116361540.07314      -958.02704        38.600  

  22427827.24504 118328455.96514     -2637.46104        38.400  

  22231741.12004 117298014.96814      2960.59804        38.500  

  22355657.69244 117949201.66144     -3436.32044        38.200  

  23369767.83904 123278384.24904      3783.14804        37.900  

  20502040.54805 108208381.94115     -1646.47305        39.200  

  23969261.52444 126428754.57244      2190.48044        37.800  

 06 10 29 01 48 56.0000000  0  9G 1G21G 6G17G30G22G10G26G16                     
  19596933.15105 103452008.36815       236.55505        39.800  

  20679786.09045 109142437.03045      1745.05145        38.900  

  22053718.79504 116362498.50514      -958.77304        38.600  

  22428329.18804 118331093.63714     -2637.84004        38.700  

  22231177.77904 117295054.49114      2960.21904        38.400  

  22356311.61404 117952637.91204     -3436.49204        38.400  

  23369047.97204 123274601.29914      3783.07804        37.800  

  20502353.94405 108210028.81015     -1647.14105        39.400  

  23968844.76044 126426564.46144      2189.49644        37.700  

 06 10 29 01 48 57.0000000  0  9G 1G21G 6G17G30G22G10G26G16                     
  19596888.11905 103451771.76015       236.32805        39.600  

  20679454.04505 109140692.17105      1744.53505        39.000  

  22053901.30804 116363457.63914      -959.51604        38.300  

  22428831.20704 118333731.74914     -2638.39104        38.200  

  22230614.45244 117292094.17154      2960.15244        38.400  

  22356965.57904 117956074.42614     -3436.73004        38.500  

  23368328.13544 123270818.44354      3782.97344        37.900  

  20502667.40345 108211675.94955     -1646.98845        39.100  

  23968428.10004 126424374.86304      2189.14104        37.900  

 06 10 29 01 48 58.0000000  0  9G 1G21G 6G17G30G22G10G26G16                     
  19596843.22045 103451535.76655       235.85245        39.600  

  20679122.10305 109138947.77415      1744.19905        39.000  

  22054083.96304 116364417.44514      -960.19904        38.500  

  22429333.29704 118336370.22314     -2638.72304        38.600  

  22230051.14404 117289133.99504      2960.12104        38.600  

  22357619.55004 117959511.15714     -3436.82804        38.600  

  23367608.31304 123267035.63504      3782.82404        38.000  

  20502980.88805 108213323.39205     -1647.42205        39.100  

  23968011.56504 126422185.74014      2188.83204        37.900  

 06 10 29 01 48 59.0000000  0  9G 1G21G 6G17G30G22G10G26G16                     
  19596798.41405 103451300.36305       235.06605        39.600  

  20678790.23505 109137203.83615      1743.76605        39.300  

  22054266.71904 116365377.91714      -960.88304        38.500  

  22429835.42704 118339009.07014     -2639.05104        38.100  

  22229487.86604 117286173.94014      2960.13704        38.500  

  22358273.59304 117962948.09514     -3437.01604        38.500  

  23366888.47004 123263252.91214      3782.65204        38.100  

  20503294.42805 108214971.10715     -1647.71905        39.200  

  23967595.11504 126419997.11014      2188.17604        37.800  

 06 10 29 01 49  0.0000000  0  9G 1G21G 6G17G30G22G10G26G16                     
  19596753.75505 103451065.57115       234.57005        39.400  

  20678458.47805 109135460.40615      1743.26205        39.300  

  22054449.62604 116366339.10314      -961.75804        38.400  

  22430337.67144 118341648.33254     -2639.61344        38.500  

  22228924.63204 117283214.07014      2959.64804        38.500  

  22358927.66804 117966385.30214     -3437.20704        38.600  

  23366168.64304 123259470.25414      3782.66004        37.800  

  20503608.02305 108216619.13215     -1648.31605        39.200  

  23967178.74304 126417808.98414      2187.73404        37.700  

 06 10 29 01 49  1.0000000  0  9G 1G21G 6G17G30G22G10G26G16                     
  19596709.17905 103450831.39115       233.73805        39.600  

  20678126.81505 109133717.41615      1742.76205        39.100  

  22054632.67104 116367300.91614      -961.87904        38.400  

  22430839.98044 118344287.95044     -2639.68844        38.300  

  22228361.39204 117280254.29914      2959.87904        38.600  

  22359581.78444 117969822.71654     -3437.51244        38.400  

  23365448.83604 123255687.68414      3782.69904        38.200  

  20503921.68405 108218267.42315     -1648.58605        39.000  

  23966762.42704 126415621.33014      2187.40204        37.900  

 06 10 29 01 49  2.0000000  0  9G 1G21G 6G17G30G22G10G26G16                     
  19596664.78405 103450597.98715       232.97305        39.600  

  20677795.29105 109131975.11815      1742.04305        39.100  

  22054815.90204 116368263.62814      -963.05904        38.600  

  22431342.38744 118346928.14944     -2640.50044        38.400  

  22227798.24004 117277294.90514      2959.31304        38.400  

  22360235.99144 117973260.55544     -3438.07844        38.400  

  23364729.09204 123251905.34114      3782.20304        38.100  

  20504235.41405 108219916.16815     -1648.81305        39.300  

  23966346.25404 126413434.36214      2186.52004        37.600  

 06 10 29 01 49  3.0000000  0  9G 1G21G 6G17G30G22G10G26G16                     
  19596620.53745 103450365.42255       232.20345        39.400  

  20677463.88505 109130233.50915      1741.39805        39.100  

  22054999.28604 116369227.24214      -963.95304        38.700  

  22431844.93044 118349568.96744     -2641.06344        38.300  

  22227235.13404 117274335.86714      2959.05104        38.300  

  22360890.28344 117976698.84044     -3438.17244        38.500  

  23364009.42904 123248123.33614      3782.12904        38.000  

  20504549.24205 108221565.42715     -1649.39105        39.100  

  23965930.23504 126411248.11714      2186.12104        38.100  

 06 10 29 01 49  4.0000000  0  9G 1G21G 6G17G30G22G10G26G16                     
  19596576.41105 103450133.56305       231.60505        39.600  

  20677132.57705 109128492.49315      1740.80505        39.000  

  22055182.81304 116370191.65714      -964.94104        38.400  

  22432347.56504 118352210.27204     -2641.33604        38.300  

  22226672.08304 117271377.09414      2958.73804        38.600  

  22361544.65744 117980137.48044     -3438.47344        38.100  

  23363289.79344 123244341.52054      3781.70744        38.000  

  20504863.14805 108223215.09415     -1649.88705        39.400  

  23965514.29404 126409062.49914      2185.37104        37.700  

 06 10 29 01 49  5.0000000  0  9G 1G21G 6G17G30G22G10G26G16                     
  19596532.44505 103449902.42215       230.82805        39.600  

  20676801.37845 109126752.04855      1740.39145        39.200  

  22055366.48504 116371156.84914      -965.55904        38.400  

  22432850.29504 118354852.08314     -2642.13304        38.300  

  22226109.08944 117268418.55854      2958.50444        38.500  

  22362199.03744 117983576.46344     -3439.09844        38.300  

  23362570.16904 123240559.87104      3781.46504        38.100  

  20505177.17105 108224865.16715     -1650.42605        39.100  

  23965098.48804 126406877.45014      2184.77304        37.800  

 06 10 29 01 49  6.0000000  0  9G 1G21G 6G17G30G22G10G26G16                     
  19596488.60305 103449672.03315       229.79705        39.600  

  20676470.30805 109125012.25305      1739.32805        39.000  

  22055550.31904 116372122.85714      -966.25804        38.500  

  22433353.12604 118357494.43414     -2642.92604        38.500  

  22225546.14044 117265460.34344      2957.91444        38.300  

  22362853.52404 117987015.82404     -3439.72304        38.400  

  23361850.58504 123236778.43914      3781.33204        37.900  

  20505491.24505 108226515.63815     -1650.69505        39.100  

  23964682.78744 126404693.06154      2184.21944        37.900  

 06 10 29 01 49  7.0000000  0  9G 1G21G 6G17G30G22G10G26G16                     
  19596444.87905 103449442.31115       229.23005        39.600  

  20676139.33505 109123272.96115      1739.20705        39.200  

  22055734.28304 116373089.63914      -967.33204        38.800  

  22433856.02904 118360137.20914     -2642.79704        38.200  

  22224983.21344 117262502.31544      2957.89844        38.400  

  22363508.04044 117990455.46854     -3439.93844        38.600  

  23361131.03604 123232997.15014      3781.41004        38.100  

  20505805.39405 108228166.45915     -1650.82805        39.300  

  23964267.25904 126402509.25204      2183.32404        37.800  

 06 10 29 01 49  8.0000000  0  9G 1G21G 6G17G30G22G10G26G16                     
  19596401.31105 103449213.26115       228.50805        39.600  

  20675808.44845 109121534.21755      1738.64545        39.200  

  22055918.38304 116374057.14914      -967.92204        38.600  

  22434359.02504 118362780.44314     -2643.33604        38.700  

  22224420.33944 117259544.52744      2957.49244        38.300  

  22364162.62144 117993895.39844     -3439.93844        38.300  

  23360411.51704 123229216.00214      3781.09004        38.100  

  20506119.58805 108229817.66015     -1651.44905        39.100  

  23963851.82204 126400325.96414      2183.07004        37.900  

 06 10 29 01 49  9.0000000  0  9G 1G21G 6G17G30G22G10G26G16                     
  19596357.86405 103448984.86515       227.89505        39.500  

  20675477.67745 109119796.01145      1738.16045        39.000  

  22056102.61304 116375025.38414      -968.63704        38.500  

  22434862.09804 118365424.11614     -2643.67204        38.500  

  22223857.49404 117256586.88604      2957.85504        38.500  

  22364817.24504 117997335.61004     -3440.10504        38.700  

  23359692.02204 123225434.99314      3781.15204        38.100  

  20506433.84705 108231469.15315     -1651.38305        39.200  

  23963436.42904 126398143.21814      2182.48004        37.900  

 06 10 29 01 49 10.0000000  0  9G 1G21G 6G17G30G22G10G26G16                     
  19596314.52205 103448757.09715       227.21505        39.700  

  20675147.00445 109118058.31145      1737.52045        39.100  

  22056287.01844 116375994.32154      -969.32044        38.800  

  22435365.26404 118368068.22214     -2644.30104        38.500  

  22223294.74504 117253629.46614      2957.23404        38.500  

  22365471.96404 118000776.09814     -3440.62504        38.500  

  23358972.48904 123221654.07314      3780.60204        38.000  

  20506748.19405 108233120.97415     -1652.18405        39.200  

  23963021.19104 126395961.00114      2181.78504        38.000  

 06 10 29 01 49 11.0000000  0  9G 1G21G 6G17G30G22G10G26G16                     
  19596271.32305 103448530.06315       226.62905        39.600  

  20674816.44745 109116321.23345      1736.59845        39.100  

  22056471.53144 116376964.09144      -970.22344        38.600  

  22435868.51104 118370712.81814     -2644.74604        38.500  

  22222732.03004 117250672.31614      2957.02004        38.500  

  22366126.74804 118004216.93414     -3441.02004        38.600  

  23358253.04204 123217873.35114      3780.57404        38.000  

  20507062.60305 108234773.23015     -1652.52705        39.100  

  23962606.06804 126393779.41514      2181.32804        37.800  

 06 10 29 01 49 12.0000000  0  9G 1G21G 6G17G30G22G10G26G16                     
  19596228.24305 103448303.65915       226.48005        39.700  

  20674485.99205 109114584.63205      1736.45705        39.000  

  22056656.18644 116377934.58244      -971.03544        38.600  

  22436371.85004 118373357.86914     -2645.37104        38.300  

  22222169.35404 117247715.35014      2956.87504        38.400  

  22366781.58904 118007658.04214     -3441.12904        38.500  

  23357533.64404 123214092.76714      3780.26204        37.900  

  20507377.08405 108236425.78615     -1652.67205        39.000  

  23962191.02704 126391598.37214      2180.87104        37.800  

 06 10 29 01 49 13.0000000  0  9G 1G21G 6G17G30G22G10G26G16                     
  19596185.29205 103448077.86115       225.27705        39.600  

  20674155.60605 109112848.50915      1735.57805        39.000  

  22056840.96544 116378905.68544      -971.44544        38.500  

  22436875.25504 118376003.23714     -2645.58204        38.400  

  22221606.67644 117244758.46754      2957.04344        38.700  

  22367436.43904 118011099.33414     -3441.14504        38.600  

  23356814.25104 123210312.19914      3780.57404        38.100  

  20507691.61205 108238078.60015     -1652.84805        39.100  

  23961776.05104 126389417.78714      2180.48004        37.900  

 06 10 29 01 49 14.0000000  0  9G 1G21G 6G17G30G22G10G26G16                     
  19596142.44305 103447852.67915       224.63705        39.500  

  20673825.33505 109111112.88515      1735.39805        39.200  

  22057025.88744 116379877.54244      -972.43844        38.400  

  22437378.75204 118378649.06514     -2646.36304        38.200  

  22221044.02904 117241801.81504      2956.68804        38.300  

  22368091.36204 118014540.93514     -3441.62504        38.300  

  23356094.85804 123206531.77414      3780.28104        38.000  

  20508006.18605 108239731.74515     -1653.45705        39.300  

  23961361.20204 126387237.74114      2179.74604        37.900  

 06 10 29 01 49 15.0000000  0  9G 1G21G 6G17G30G22G10G26G16                     
  19596099.71505 103447628.17915       224.23405        39.600  

  20673495.17045 109109377.79955      1734.69145        39.000  

  22057211.00504 116380850.11904      -972.85904        38.700  

  22437882.33104 118381295.31714     -2646.51604        38.100  

  22220481.43404 117238845.38114      2956.20704        38.500  

  22368746.37004 118017982.81414     -3442.03904        38.500  

  23355375.46804 123202751.48314      3779.99204        37.900  

  20508320.84445 108241385.24055     -1653.75045        39.200  

  23960946.48204 126385058.26814      2179.01604        37.900  

 06 10 29 01 49 16.0000000  0  9G 1G21G 6G17G30G22G10G26G16                     
  19596057.10405 103447404.30215       223.49605        39.600  

  20673165.10105 109107643.23505      1734.20305        39.200  

  22057396.20704 116381823.42114      -973.60904        38.600  

  22438385.95704 118383941.96914     -2646.77004        38.200  

  22219918.88204 117235889.07414      2956.39804        38.600  

  22369401.35304 118021424.93114     -3442.43804        38.300  

  23354656.12404 123198971.27614      3780.16804        38.000  

  20508635.58645 108243039.02145     -1653.93045        39.300  

  23960531.83104 126382879.28514      2178.64104        38.000  

 06 10 29 01 49 17.0000000  0  9G 1G21G 6G17G30G22G10G26G16                     
  19596014.64505 103447181.06415       222.93405        39.400  

  20672835.12205 109105909.15615      1733.76605        39.100  

  22057581.57004 116382797.42314      -974.29304        38.700  

  22438889.69704 118386589.05814     -2647.03904        38.300  

  22219356.35504 117232932.97414      2956.05504        38.500  

  22370056.42104 118024867.30514     -3442.39104        38.500  

  23353936.80804 123195191.17414      3780.11704        38.100  

  20508950.35445 108244693.15945     -1654.68845        39.200  

  23960117.28804 126380700.83114      2178.10204        37.900  

 06 10 29 01 49 18.0000000  0  9G 1G21G 6G17G30G22G10G26G16                     
  19595972.27805 103446958.49315       222.15605        39.600  

  20672505.22205 109104175.61915      1733.05905        39.100  

  22057767.06104 116383772.17914      -975.11704        38.500  

  22439393.50904 118389236.59014     -2647.80104        38.300  

  22218793.86204 117229977.08514      2955.79304        38.400  

  22370711.51004 118028309.98614     -3442.91404        38.300  

  23353217.56304 123191411.23314      3779.88704        38.100  

  20509265.19345 108246347.58145     -1654.72745        39.100  

  23959702.85204 126378522.94814      2177.82004        38.100  

 06 10 29 01 49 19.0000000  0  9G 1G21G 6G17G30G22G10G26G16                     
  19595930.03805 103446736.61715       221.37905        39.400  

  20672175.47805 109102442.65715      1732.61705        39.300  

  22057952.70904 116384747.68614      -975.76204        38.500  

  22439897.40604 118391884.60414     -2648.38704        38.500  

  22218231.41104 117227021.42914      2955.73404        38.600  

  22371366.67304 118031752.98614     -3443.23004        38.600  

  23352498.29204 123187631.46214      3779.85904        38.100  

  20509580.11105 108248002.42305     -1655.05905        39.100  

  23959288.49004 126376345.63314      2177.23004        38.000  

 06 10 29 01 49 20.0000000  0  9G 1G21G 6G17G30G22G10G26G16                     
  19595887.95705 103446515.47115       220.97705        39.500  

  20671845.83605 109100710.31615      1732.07405        39.000  

  22058138.51204 116385724.03914      -976.76604        38.400  

  22440401.40604 118394533.12614     -2648.63704        38.500  

  22217669.02504 117224066.08314      2955.23804        38.500  

  22372021.91204 118035196.35214     -3443.65204        38.600  

  23351779.07804 123183851.89714      3779.55504        38.200  

  20509895.08405 108249657.67115     -1655.62105        39.300  

  23958874.26304 126374168.99614      2176.43004        37.700  

 06 10 29 01 49 21.0000000  0  9G 1G21G 6G17G30G22G10G26G16                     
  19595845.98505 103446295.05115       219.93405        39.600  

  20671516.28605 109098978.52915      1731.57805        39.200  

  22058324.45304 116386701.15114      -977.46104        38.600  

  22440905.48904 118397182.15014     -2649.25004        38.700  

  22217106.66304 117221110.95114      2954.91804        38.400  

  22372677.22204 118038640.05814     -3443.77704        38.400  

  23351059.89904 123180072.51114      3779.41004        38.200  

  20510210.13705 108251313.30415     -1655.44105        39.300  

  23958460.13404 126371992.91914      2175.83604        37.900  

 06 10 29 01 49 22.0000000  0  9G 1G21G 6G17G30G22G10G26G16                     
  19595804.16145 103446075.22655       219.60245        39.700  

  20671186.81605 109097247.24515      1731.05505        39.000  

  22058510.51704 116387678.95314      -978.05504        38.300  

  22441409.61804 118399831.52314     -2649.19504        38.500  

  22216544.35504 117218155.98014      2955.09804        38.600  

  22373332.58804 118042083.97614     -3443.99604        38.300  

  23350340.72544 123176293.21654      3779.02744        38.200  

  20510525.25005 108252969.23115     -1656.34005        39.100  

  23958046.14504 126369817.36914      2175.17204        37.900  

 06 10 29 01 49 23.0000000  0  9G 1G21G 6G17G30G22G10G26G16                     
  19595762.43745 103445856.03045       218.89845        39.600  

  20670857.45505 109095516.46015      1730.72305        39.000  

  22058696.71904 116388657.46714      -978.85504        38.400  

  22441913.87304 118402481.36414     -2649.91804        38.200  

  22215982.08944 117215201.20554      2954.57444        38.200  

  22373987.99004 118045528.17214     -3444.48804        38.300  

  23349621.55944 123172514.00444      3779.07844        38.100  

  20510840.43345 108254625.46055     -1656.25045        39.200  

  23957632.27104 126367642.28614      2174.79704        37.900  

 06 10 29 01 49 24.0000000  0  9G 1G21G 6G17G30G22G10G26G16                     
  19595720.83745 103445637.48545       218.31645        39.600  

  20670528.18405 109093786.20515      1729.81605        39.200  

  22058883.08004 116389636.70714      -979.68404        38.600  

  22442418.18704 118405131.59714     -2650.37504        38.500  

  22215419.83704 117212246.59704      2954.28904        38.400  

  22374643.44244 118048972.62054     -3444.62144        38.400  

  23348902.41644 123168734.90844      3778.96144        38.000  

  20511155.66205 108256282.03005     -1656.94905        39.100  

  23957218.47704 126365467.79214      2174.29704        37.900  

 06 10 29 01 49 25.0000000  0  9G 1G21G 6G17G30G22G10G26G16                     
  19595679.37105 103445419.64805       217.59405        39.600  

  20670199.01305 109092056.51215      1729.42605        39.000  

  22059069.55104 116390616.71314      -980.23004        38.600  

  22442922.59304 118407782.33714     -2651.05104        38.400  

  22214857.61804 117209292.23814      2954.46504        38.600  

  22375298.95804 118052417.40704     -3445.02004        38.400  

  23348183.35604 123164956.01104      3778.78104        37.900  

  20511470.97605 108257938.98115     -1657.05105        39.200  

  23956804.78404 126363293.88314      2173.53504        37.800  

 06 10 29 01 49 26.0000000  0  9G 1G21G 6G17G30G22G10G26G16                     
  19595638.06705 103445202.53815       216.84405        39.900  

  20669869.97405 109090327.40315      1729.16405        38.900  

  22059256.18804 116391597.51214      -980.96104        38.600  

  22443427.12004 118410433.56214     -2651.43404        38.500  

  22214295.47244 117206338.14854      2954.18044        38.400  

  22375954.55504 118055862.54314     -3445.34004        38.500  

  23347464.28404 123161177.29714      3778.72704        38.100  

  20511786.39205 108259596.32515     -1657.61705        39.300  

  23956391.19404 126361120.58814      2172.94504        37.500  

 06 10 29 01 49 27.0000000  0  9G 1G21G 6G17G30G22G10G26G16                     
  19595596.87905 103444986.08015       216.31605        39.600  

  20669541.06905 109088598.88115      1728.35905        38.900  

  22059442.97804 116392579.07814      -981.95304        38.500  

  22443931.72004 118413085.23714     -2651.78904        38.400  

  22213733.34504 117203384.29004      2953.68404        38.400  

  22376610.19804 118059307.98214     -3445.79304        38.400  

  23346745.24744 123157398.74754      3778.39144        38.000  

  20512101.83805 108261254.02315     -1658.03105        39.100  

  23955977.69604 126358947.84614      2172.34404        37.800  

 06 10 29 01 49 28.0000000  0  9G 1G21G 6G17G30G22G10G26G16                     
  19595555.81505 103444770.33615       215.60205        39.600  

  20669212.25205 109086870.91315      1727.63705        39.200  

  22059629.89804 116393561.43314      -982.76604        38.700  

  22444436.42604 118415737.42714     -2652.69904        38.300  

  22213171.30804 117200430.66814      2953.42204        38.600  

  22377265.93604 118062753.74014     -3446.02004        38.500  

  23346026.26144 123153620.36244      3778.31344        38.100  

  20512417.35005 108262912.10015     -1658.14505        39.100  

  23955564.34604 126356775.70714      2172.02704        37.900  

 06 10 29 01 49 29.0000000  0  9G 1G21G 6G17G30G22G10G26G16                     
  19595514.89805 103444555.31915       214.46905        39.600  

  20668883.54005 109085143.54015      1727.09405        39.000  

  22059816.97204 116394544.56214      -983.78504        38.400  

  22444941.18504 118418390.05614     -2652.91804        38.400  

  22212609.30504 117197477.30214      2953.29704        38.300  

  22377921.71204 118066199.82814     -3446.22704        38.300  

  23345307.30204 123149842.15304      3778.23804        38.100  

  20512732.94405 108264570.59515     -1658.79705        39.100  

  23955151.11504 126354604.17014      2171.36704        37.700  

 06 10 29 01 49 30.0000000  0  9G 1G21G 6G17G30G22G10G26G16                     
  19595474.13005 103444340.98015       214.04705        39.400  

  20668554.95004 109083416.73814      1726.39804        38.800  

  22060004.20304 116395528.46314      -984.43804        38.400  

  22445446.07204 118421043.18114     -2653.19504        38.200  

  22212047.38104 117194524.18714      2952.96104        38.600  

  22378577.53904 118069646.24514     -3446.43004        38.600  

  23344588.39904 123146064.14514      3777.74604        37.900  

  20513048.59105 108266229.43215     -1659.14505        39.300  

  23954738.01904 126352433.24314      2170.64104        37.700  

 06 10 29 01 49 31.0000000  0  9G 1G21G 6G17G30G22G10G26G16                     
  19595433.48105 103444127.38015       213.39505        39.800  

  20668226.45605 109081690.53815      1725.95305        39.200  

  22060191.58404 116396513.15114      -985.18404        38.500  

  22445951.03604 118423696.84514     -2653.96504        38.200  

  22211485.47704 117191571.33314      2952.68004        38.500  

  22379233.45104 118073093.02714     -3446.85204        38.200  

  23343869.49404 123142286.30714      3777.89504        37.800  

  20513364.34405 108267888.70415     -1659.47305        39.300  

  23954325.01304 126350262.92714      2169.96104        37.900  

 06 10 29 01 49 32.0000000  0  9G 1G21G 6G17G30G22G10G26G16                     
  19595392.95805 103443914.41915       212.59405        39.600  

  20667898.06845 109079964.83155      1725.47745        39.100  

  22060379.11904 116397498.57614      -985.89504        38.500  

  22446456.07404 118426350.91514     -2654.49604        38.300  

  22210923.60704 117188618.67014      2952.56604        38.400  

  22379889.40504 118076540.06814     -3447.41004        38.300  

  23343150.61404 123138508.59814      3777.82404        38.000  

  20513680.13705 108269548.27515     -1659.61705        39.300  

  23953912.14604 126348093.15314      2169.32004        37.800  

 06 10 29 01 49 33.0000000  0  9G 1G21G 6G17G30G22G10G26G16                     
  19595352.54745 103443702.07055       212.02045        39.600  

  20667569.76905 109078239.62605      1724.82005        39.000  

  22060566.78004 116398484.68214      -986.61704        38.700  

  22446961.19204 118429005.33214     -2654.57404        38.500  

  22210361.75644 117185666.16654      2952.32444        38.500  

  22380545.41204 118079987.32314     -3447.21504        38.300  

  23342431.73504 123134730.96714      3777.96904        38.200  

  20513995.99245 108271208.13955     -1659.98445        39.300  

  23953499.33144 126345923.85254      2169.10544        37.900  

 06 10 29 01 49 34.0000000  0  9G 1G21G 6G17G30G22G10G26G16                     
  19595312.24605 103443490.26305       211.51205        39.600  

  20667241.57005 109076514.83715      1724.56305        39.200  

  22060754.52404 116399471.40214      -986.89104        38.300  

  22447466.38204 118431660.13214     -2655.17604        38.600  

  22209799.94444 117182713.74344      2952.46544        38.700  

  22381201.43944 118083434.76254     -3447.52044        38.300  

  23341712.89104 123130953.36914      3777.46904        38.000  

  20514311.93205 108272868.24705     -1660.48405        39.200  

  23953086.64504 126343755.01804      2168.43404        37.900  

 06 10 29 01 49 35.0000000  0  9G 1G21G 6G17G30G22G10G26G16                     
  19595272.02605 103443278.97815       211.12105        39.500  

  20666913.39205 109074790.43815      1724.32805        39.200  

  22060942.40004 116400458.71614      -987.40604        38.600  

  22447971.62904 118434315.19814     -2655.15204        38.500  

  22209238.13944 117179761.37644      2952.55544        38.600  

  22381857.50844 118086882.35044     -3447.44944        38.400  

  23340994.01704 123127175.76214      3777.60904        38.100  

  20514627.86605 108274528.52115     -1660.05505        39.300  

  23952674.01504 126341586.56414      2168.46904        37.700  

 06 10 29 01 49 36.0000000  0  9G 1G21G 6G17G30G22G10G26G16                     
  19595231.91805 103443068.25815       210.14505        39.600  

  20666585.31305 109073066.47315      1723.71905        39.000  

  22061130.40504 116401446.67414      -988.47704        38.400  

  22448476.95004 118436970.62714     -2656.05904        38.400  

  22208676.33344 117176809.12644      2952.00844        38.600  

  22382513.59144 118090330.13244     -3448.18844        38.400  

  23340275.17504 123123398.19314      3777.50004        38.100  

  20514943.87505 108276189.07815     -1661.03905        39.300  

  23952261.42104 126339418.59114      2167.84804        37.900  

 06 10 29 01 49 37.0000000  0  9G 1G21G 6G17G30G22G10G26G16                     
  19595191.99245 103442858.38555       209.21945        39.700  

  20666257.40345 109071343.26655      1722.84445        39.300  

  22061318.57804 116402435.55414      -989.34804        38.600  

  22448982.36804 118439626.64814     -2656.51204        38.400  

  22208114.60004 117173857.29904      2951.55904        38.300  

  22383169.78544 118093778.38644     -3448.59044        38.500  

  23339556.39604 123119620.94914      3777.11304        38.200  

  20515259.96905 108277850.13515     -1661.43005        39.100  

  23951848.96404 126337251.36514      2166.75804        37.900  

 06 10 29 01 49 38.0000000  0  9G 1G21G 6G17G30G22G10G26G16                     
  19595152.19505 103442649.32705       208.72705        39.500  

  20665929.62705 109069620.72205      1722.09405        39.000  

  22061506.96704 116403425.35614      -990.41004        38.600  

  22449487.90804 118442283.30614     -2656.94104        38.400  

  22207552.97104 117170905.80814      2951.26204        38.700  

  22383826.06044 118097227.08244     -3448.85244        38.300  

  23338837.67304 123115844.02414      3776.58604        38.100  

  20515576.17605 108279511.70815     -1661.81605        39.100  

  23951436.70704 126335084.85214      2166.07804        38.100  

 06 10 29 01 49 39.0000000  0  9G 1G21G 6G17G30G22G10G26G16                     
  19595112.54605 103442441.08515       207.90205        39.700  

  20665601.96705 109067898.87215      1721.71905        39.000  

  22061695.46904 116404416.00614      -990.89504        38.600  

  22449993.55504 118444940.53814     -2657.65604        38.600  

  22206991.38704 117167954.67314      2951.05904        38.600  

  22384482.43804 118100676.20904     -3449.29704        38.500  

  23338119.00304 123112067.33114      3776.73004        38.300  

  20515892.46205 108281173.76715     -1662.32005        38.900  

  23951024.56804 126332919.05314      2165.34404        37.800  

 06 10 29 01 49 40.0000000  0  9G 1G21G 6G17G30G22G10G26G16                     
  19595073.06445 103442233.59355       207.02045        39.400  

  20665274.44405 109066177.66915      1720.72305        39.100  

  22061884.15004 116405407.52014      -991.98804        38.600  

  22450499.29304 118447598.29414     -2658.17604        38.300  

  22206429.88804 117165003.83414      2950.71104        38.500  

  22385138.86904 118104125.71414     -3450.02304        38.400  

  23337400.39004 123108290.91314      3776.24204        38.100  

  20516208.82505 108282836.24515     -1662.82805        39.300  

  23950612.57604 126330753.87914      2164.96904        37.800  

 06 10 29 01 49 41.0000000  0  9G 1G21G 6G17G30G22G10G26G16                     
  19595033.71605 103442026.75605       206.35205        39.600  

  20664947.01345 109064456.95955      1720.40245        39.000  

  22062072.91404 116406399.72114      -992.67604        38.600  

  22451005.12304 118450256.47914     -2658.71504        38.300  

  22205868.37804 117162053.19914      2950.48804        38.300  

  22385795.35604 118107575.47114     -3449.74604        38.200  

  23336681.78804 123104514.59314      3776.06604        38.000  

  20516525.24505 108284499.05315     -1662.99605        38.900  

  23950200.67304 126328589.23914      2164.37904        37.900  

 06 10 29 01 49 42.0000000  0  9G 1G21G 6G17G30G22G10G26G16                     
  19594994.50505 103441820.59215       205.71505        39.700  

  20664619.67945 109062736.82545      1719.89145        39.100  

  22062261.89004 116407392.72214      -993.66804        38.400  

  22451511.05904 118452915.13114     -2658.87904        38.600  

  22205306.93104 117159102.78414      2950.33204        38.400  

  22386451.90104 118111025.57014     -3450.47304        38.300  

  23335963.21204 123100738.44714      3776.04304        37.900  

  20516841.76305 108286162.25215     -1663.45705        39.200  

  23949788.87204 126326425.19314      2163.66404        37.900  

 06 10 29 01 49 43.0000000  0  9G 1G21G 6G17G30G22G10G26G16                     
  19594955.39305 103441615.02015       205.43405        39.400  

  20664292.43445 109061017.14345      1719.68845        39.000  

  22062450.96944 116408386.34654      -993.93044        38.400  

  22452017.04104 118455574.15014     -2659.16804        38.300  

  22204745.52844 117156152.50154      2950.37144        38.500  

  22387108.48204 118114475.85814     -3450.30504        38.600  

  23335244.66004 123096962.36814      3775.97704        38.100  

  20517158.31305 108287825.67415     -1663.32405        39.200  

  23949377.12504 126324261.63914      2163.31604        37.800  

 06 10 29 01 49 44.0000000  0  9G 1G21G 6G17G30G22G10G26G16                     
  19594916.39405 103441410.06115       204.59005        39.700  

  20663965.29345 109059297.97245      1718.66045        39.100  

  22062640.19744 116409380.65044      -994.53544        38.700  

  22452523.13004 118458233.54914     -2659.83604        38.200  

  22204184.13604 117153202.37104      2950.02704        38.600  

  22387765.11044 118117926.39554     -3450.77044        38.400  

  23334526.09604 123093186.35114      3776.06604        38.000  

  20517474.91905 108289489.42015     -1663.87105        39.000  

  23948965.52104 126322098.56214      2162.85204        37.800  

 06 10 29 01 49 45.0000000  0  9G 1G21G 6G17G30G22G10G26G16                     
  19594877.52845 103441205.74555       203.87145        39.600  

  20663638.22645 109057579.27545      1718.44145        39.100  

  22062829.55544 116410375.71144      -995.45344        38.500  

  22453029.26004 118460893.37214     -2660.22304        38.400  

  22203622.79804 117150252.45414      2949.80504        38.600  

  22388421.74204 118121377.19504     -3450.96904        38.500  

  23333807.58304 123089410.48114      3775.74604        38.000  

  20517791.57105 108291153.47615     -1664.09405        39.100  

  23948553.99104 126319936.05314      2162.19104        37.800  

 06 10 29 01 49 46.0000000  0  9G 1G21G 6G17G30G22G10G26G16                     
  19594838.78645 103441002.14045       203.21545        39.600  

  20663311.28205 109055861.19305      1717.83605        39.000  

  22063019.03844 116411371.54544      -996.25044        38.700  

  22453535.51904 118463553.68914     -2660.46104        38.100  

  22203061.47804 117147302.78914      2949.43804        38.500  

  22389078.47404 118124828.32414     -3451.27304        38.500  

  23333089.08704 123085634.79614      3775.45304        38.000  

  20518108.29205 108292817.92115     -1664.49205        39.100  

  23948142.59004 126317774.12714      2161.66004        37.700  

 06 10 29 01 49 47.0000000  0  9G 1G21G 6G17G30G22G10G26G16                     
  19594800.18445 103440799.24145       202.39545        39.500  

  20662984.48205 109054143.69115      1717.25005        39.200  

  22063208.68344 116412368.16044      -997.15644        38.400  

  22454041.84304 118466214.49014     -2661.01604        38.400  

  22202500.21504 117144353.34414      2949.27304        38.200  

  22389735.27304 118128279.78414     -3451.84404        38.500  

  23332370.65004 123081859.27514      3775.21904        38.100  

  20518425.08445 108294482.75655     -1665.25845        39.100  

  23947731.32104 126315612.80714      2160.77304        37.800  

 06 10 29 01 49 48.0000000  0  9G 1G21G 6G17G30G22G10G26G16                     
  19594761.69045 103440597.01045       201.98845        39.600  

  20662657.78905 109052426.73815      1716.54705        39.300  

  22063398.47804 116413365.52504      -997.85904        38.700  

  22454548.26304 118468875.73314     -2661.38304        38.500  

  22201938.99004 117141404.14514      2948.98804        38.500  

  22390392.13804 118131731.54214     -3451.77704        38.500  

  23331652.21044 123078083.89554      3775.25444        38.000  

  20518741.95705 108296147.93705     -1665.25405        39.000  

  23947320.14944 126313452.05154      2160.42244        37.700  

 06 10 29 01 49 49.0000000  0  9G 1G21G 6G17G30G22G10G26G16                     
  19594723.28405 103440395.31205       201.34805        39.300  

  20662331.10605 109050710.18415      1716.22705        39.100  

  22063588.37204 116414363.48814      -998.46504        38.500  

  22455054.73804 118471537.30914     -2662.07804        38.300  

  22201377.79304 117138455.01714      2949.12904        38.400  

  22391049.01804 118135183.45114     -3452.03104        38.500  

  23330933.77804 123074308.54904      3775.44904        38.100  

  20519058.87605 108297813.33115     -1665.50005        38.900  

  23946909.02644 126311291.72344      2160.09444        37.900  

 06 10 29 01 49 50.0000000  0  9G 1G21G 6G17G30G22G10G26G16                     
  19594685.06805 103440194.30015       200.80505        39.700  

  20662004.57805 109048994.18115      1716.07405        39.200  

  22063778.42904 116415362.21314      -999.03104        38.700  

  22455561.27904 118474199.31614     -2662.48804        38.400  

  22200816.64704 117135506.11614      2948.65604        38.400  

  22391705.94804 118138635.66614     -3452.20304        38.500  

  23330215.36044 123070533.36754      3775.12544        38.300  

  20519375.86545 108299479.08255     -1665.84445        39.100  

  23946498.05444 126309131.97244      2159.57044        37.600  

 06 10 29 01 49 51.0000000  0  9G 1G21G 6G17G30G22G10G26G16                     
  19594646.91005 103439993.84215       200.16405        39.600  

  20661678.13105 109047278.64215      1715.41805        39.100  

  22063968.59404 116416361.56614      -999.54704        38.600  

  22456067.90804 118476861.65614     -2662.47704        38.500  

  22200255.52404 117132557.31114      2948.67204        38.700  

  22392362.94204 118142088.06814     -3452.56304        38.300  

  23329496.95744 123066758.19244      3775.19144        38.200  

  20519692.89645 108301145.09545     -1666.25045        39.100  

  23946087.14144 126306972.69244      2159.01644        38.000  

 06 10 29 01 49 52.0000000  0  9G 1G21G 6G17G30G22G10G26G16                     
  19594608.87145 103439794.02055       199.41845        39.500  

  20661351.72305 109045563.59315      1714.72705        38.900  

  22064158.89804 116417361.61314     -1000.27704        38.300  

  22456574.61704 118479524.43214     -2663.20304        38.300  

  22199694.42304 117129608.68714      2948.34404        38.600  

  22393019.94504 118145540.71814     -3452.84804        38.300  

  23328778.59244 123062983.13544      3774.96944        38.100  

  20520009.99145 108302811.39045     -1666.59445        39.100  

  23945676.29004 126304813.91004      2158.42604        37.800  

 06 10 29 01 49 53.0000000  0  9G 1G21G 6G17G30G22G10G26G16                     
  19594570.99105 103439595.09505       198.34405        39.600  

  20661025.50605 109043849.31315      1714.00005        39.000  

  22064349.38104 116418362.65814     -1001.65204        38.700  

  22457081.48304 118482187.86414     -2663.89504        38.600  

  22199133.36704 117126660.50314      2947.90604        38.600  

  22393677.05004 118148993.90114     -3453.52304        38.500  

  23328060.32044 123059208.47144      3774.48044        38.000  

  20520327.18945 108304478.28545     -1667.10945        39.200  

  23945265.67304 126302655.93514      2157.67204        37.900  

 06 10 29 01 49 54.0000000  0  9G 1G21G 6G17G30G22G10G26G16                     
  19594533.30205 103439396.99915       197.72705        39.600  

  20660699.43005 109042135.76515      1713.29305        39.200  

  22064540.01804 116419364.61114     -1002.12504        38.600  

  22457588.41704 118484851.92614     -2664.64804        38.300  

  22198572.41704 117123712.72214      2947.64804        38.300  

  22394334.26804 118152447.54514     -3453.83604        38.300  

  23327342.07044 123055434.12744      3773.90244        38.100  

  20520644.46445 108306145.68545     -1667.64845        39.100  

  23944855.16804 126300498.69914      2156.81304        37.900  

 06 10 29 01 49 55.0000000  0  9G 1G21G 6G17G30G22G10G26G16                     
  19594495.75005 103439199.71015       196.98805        39.800  

  20660373.49105 109040422.86815      1712.52705        39.200  

  22064730.83604 116420367.43514     -1003.21504        38.800  

  22458095.47204 118487516.53114     -2664.79704        38.200  

  22198011.53404 117120765.26414      2947.35504        38.600  

  22394991.54704 118155901.60014     -3454.29704        38.300  

  23326623.88204 123051660.03704      3774.01604        38.200  

  20520961.85805 108307813.55405     -1667.96505        39.000  

  23944444.79844 126298342.13054      2156.56344        37.800  

 06 10 29 01 49 56.0000000  0  9G 1G21G 6G17G30G22G10G26G16                     
  19594458.32305 103439002.99215       196.34405        39.600  

  20660047.61505 109038710.41915      1711.96105        39.300  

  22064921.77704 116421370.90714     -1003.84804        38.600  

  22458602.60804 118490181.50614     -2665.14804        38.500  

  22197450.67904 117117817.92114      2947.27304        38.400  

  22395648.87704 118159355.83914     -3454.16404        38.300  

  23325905.71704 123047886.00314      3773.84804        38.000  

  20521279.28905 108309481.67815     -1668.23005        39.000  

  23944034.51204 126296186.06704      2155.74604        37.600  

 06 10 29 01 49 57.0000000  0  9G 1G21G 6G17G30G22G10G26G16                     
  19594421.01705 103438806.89215       195.62505        39.600  

  20659721.84605 109036998.48815      1711.59405        39.100  

  22065112.82504 116422375.08114     -1004.78504        38.400  

  22459109.79944 118492846.86654     -2665.44144        38.600  

  22196889.84204 117114870.75314      2947.03904        38.600  

  22396306.28404 118162810.35314     -3454.86704        38.400  

  23325187.55904 123044112.05414      3773.80904        38.100  

  20521596.77105 108311150.09615     -1668.59805        39.200  

  23943624.29204 126294030.49514      2155.02704        37.700  

 06 10 29 01 49 58.0000000  0  9G 1G21G 6G17G30G22G10G26G16                     
  19594383.81605 103438611.47415       195.08605        39.700  

  20659396.17105 109035287.10115      1710.94105        39.100  

  22065304.06604 116423380.00414     -1005.48804        38.400  

  22459617.11844 118495512.69944     -2665.84444        38.400  

  22196329.05804 117111923.79614      2946.97304        38.400  

  22396963.71104 118166265.13814     -3454.95704        38.200  

  23324469.44004 123040338.28514      3773.67204        38.200  

  20521914.32605 108312818.88815     -1668.77005        39.000  

  23943214.21144 126291875.48654      2154.86344        37.600  

 06 10 29 01 49 59.0000000  0  9G 1G21G 6G17G30G22G10G26G16                     
  19594346.73305 103438416.67315       194.68805        39.600  

  20659070.60105 109033576.21515      1710.60205        39.300  

  22065495.44304 116424385.60214     -1005.75804        38.300  

  22460124.48944 118498178.93944     -2666.55144        38.300  

  22195768.33004 117108977.04414      2946.65204        38.500  

  22397621.18204 118169720.19814     -3455.25004        38.500  

  23323751.36504 123036564.61914      3773.55104        38.000  

  20522231.95305 108314487.99215     -1669.25405        39.100  

  23942804.20204 126289721.03004      2154.18004        37.700  

 06 10 29 01 50  0.0000000  0  9G 1G21G 6G17G30G22G10G26G16                     
  19594309.76105 103438222.43615       194.14105        39.600  

  20658745.13705 109031865.78215      1710.10505        39.200  

  22065686.93144 116425391.85954     -1006.55944        38.500  

  22460631.92544 118500845.49744     -2666.63344        38.400  

  22195207.61404 117106030.37814      2946.45304        38.600  

  22398278.69544 118173175.42354     -3455.31644        38.400  

  23323033.27004 123032790.98114      3773.44104        37.900  

  20522549.62005 108316157.31315     -1669.52005        39.200  

  23942394.33204 126287567.03214      2153.41004        37.800  

 06 10 29 01 50  1.0000000  0  9G 1G21G 6G17G30G22G10G26G16                     
  19594272.91705 103438028.83115       193.42605        39.600  

  20658419.73105 109030155.83115      1709.63305        39.100  

  22065878.56404 116426398.81804     -1007.17204        38.600  

  22461139.44304 118503512.47604     -2667.09404        38.300  

  22194646.93004 117103083.90914      2946.25404        38.500  

  22398936.23304 118176630.90704     -3455.60204        38.400  

  23322315.18904 123029017.46414      3773.35504        38.100  

  20522867.33905 108317826.96215     -1669.91805        39.200  

  23941984.48504 126285413.52414      2153.05104        37.800  

 06 10 29 01 50  2.0000000  0  9G 1G21G 6G17G30G22G10G26G16                     
  19594236.20205 103437835.85015       192.64105        39.400  

  20658094.43805 109028446.38215      1709.20305        38.900  

  22066070.31104 116427406.46214     -1008.14804        38.500  

  22461647.05404 118506179.82614     -2667.54304        38.600  

  22194086.25804 117100137.56214      2946.28904        38.400  

  22399593.83404 118180086.61414     -3455.88304        38.300  

  23321597.12504 123025243.99714      3773.38704        38.400  

  20523185.11705 108319496.87915     -1670.15205        39.100  

  23941574.78404 126283260.51614      2152.73004        38.000  

 06 10 29 01 50  3.0000000  0  9G 1G21G 6G17G30G22G10G26G16                     
  19594199.58905 103437643.47915       191.91805        39.300  

  20657769.21505 109026737.42915      1708.80905        39.100  

  22066262.18105 116428414.80215     -1008.40605        39.000  

  22462154.71004 118508847.59214     -2668.12904        38.200  

  22193525.60204 117097191.41014      2945.93404        38.600  

  22400251.48544 118183542.57754     -3456.04344        38.300  

  23320879.08104 123021470.67314      3773.43404        38.200  

  20523502.95805 108321167.14015     -1670.55905        39.000  

  23941165.20704 126281108.07814      2152.22704        37.900  

 06 10 29 01 50  4.0000000  0  9G 1G21G 6G17G30G22G10G26G16                     
  19594163.12405 103437451.75815       191.59405        39.500  

  20657444.10205 109025029.02915      1708.35205        39.200  

  22066454.22104 116429423.89514     -1009.51604        38.500  

  22462662.46004 118511515.79014     -2668.51604        38.100  

  22192965.00004 117094245.45214      2945.84404        38.500  

  22400909.14704 118186998.83104     -3456.37504        38.700  

  23320161.08704 123017697.48014      3773.30504        38.100  

  20523820.85305 108322837.69115     -1670.33205        39.200  

  23940755.67904 126278956.16514      2151.80904        38.000  

 06 10 29 01 50  5.0000000  0  9G 1G21G 6G17G30G22G10G26G16                     
  19594126.77505 103437260.81915       190.66005        39.500  

  20657119.11705 109023321.26515      1707.29305        39.100  

  22066646.39304 116430433.80714     -1010.17204        38.500  

  22463170.29704 118514184.52014     -2669.09004        38.500  

  22192404.45204 117091299.81214      2945.59804        38.500  

  22401566.94604 118190455.46814     -3456.87904        38.200  

  23319443.12904 123013924.52414      3772.82804        38.000  

  20524138.84005 108324508.72515     -1671.47305        39.000  

  23940346.30544 126276804.90854      2150.87944        37.800  

 06 10 29 01 50  6.0000000  0  9G 1G21G 6G17G30G22G10G26G16                     
  19594090.58905 103437070.75115       189.50405        39.700  

  20656794.27205 109021614.21815      1706.67605        39.100  

  22066838.76244 116431444.66354     -1011.32044        38.500  

  22463678.25044 118516853.89154     -2669.92644        38.400  

  22191844.00404 117088354.56414      2945.02004        38.600  

  22402224.80804 118193912.56114     -3457.19904        38.300  

  23318725.23844 123010151.91254      3772.37144        38.100  

  20524456.93805 108326180.26015     -1671.81605        39.000  

  23939937.05044 126274654.42244      2150.13344        38.100  

 06 10 29 01 50  7.0000000  0  9G 1G21G 6G17G30G22G10G26G16                     
  19594054.56005 103436881.39615       189.08205        39.300  

  20656469.54445 109019907.81855      1705.92245        39.000  

  22067031.28004 116432456.32804     -1011.90204        38.400  

  22464186.30404 118519523.77604     -2670.12504        38.600  

  22191283.61404 117085409.62714      2945.07004        38.400  

  22402882.73604 118197370.04314     -3457.41404        38.400  

  23318007.39204 123006379.51204      3772.63304        38.000  

  20524775.09405 108327852.24815     -1672.43005        39.300  

  23939527.98304 126272504.59304      2149.26204        37.800  

 06 10 29 01 50  8.0000000  0  9G 1G21G 6G17G30G22G10G26G16                     
  19594018.62505 103436692.58515       188.84805        39.500  

  20656144.88045 109018201.81545      1705.99645        39.000  

  22067223.89644 116433468.63854     -1012.73044        38.400  

  22464694.42904 118522193.98514     -2670.04704        38.400  

  22190723.21204 117082464.77814      2944.96504        38.400  

  22403540.70204 118200827.71514     -3457.86304        38.600  

  23317289.55704 123002607.15914      3772.37104        37.900  

  20525093.33405 108329524.45415     -1672.34405        39.200  

  23939118.95704 126270355.16414      2149.09404        37.900  

 06 10 29 01 50  9.0000000  0  9G 1G21G 6G17G30G22G10G26G16                     
  19593982.81045 103436504.36455       187.62545        39.300  

  20655820.34705 109016496.25105      1705.39505        39.100  

  22067416.62144 116434481.54844     -1013.58244        38.300  

  22465202.60704 118524864.50814     -2670.75004        38.200  

  22190162.83704 117079520.00014      2944.77304        38.500  

  22404198.73204 118204285.53514     -3458.06304        38.400  

  23316571.71404 122998834.81114      3772.31304        38.000  

  20525411.58305 108331196.86815     -1672.74605        39.200  

  23938710.01004 126268206.19214      2148.75404        37.800  

 06 10 29 01 50 10.0000000  0  9G 1G21G 6G17G30G22G10G26G16                     
  19593947.10805 103436316.73605       187.09405        39.600  

  20655495.86605 109014791.18815      1704.93805        39.200  

  22067609.51944 116435495.17144     -1014.34444        38.500  

  22465710.87304 118527535.44514     -2671.07804        38.300  

  22189602.51704 117076575.42514      2944.48004        38.400  

  22404856.77604 118207743.59714     -3458.40604        38.200  

  23315853.87104 122995062.58914      3772.10204        37.800  

  20525729.89905 108332869.60515     -1672.95705        39.300  

  23938301.18104 126266057.74714      2148.24604        37.700  

 06 10 29 01 50 11.0000000  0  9G 1G21G 6G17G30G22G10G26G16                     
  19593911.56805 103436129.79615       186.57005        39.600  

  20655171.51505 109013086.70915      1704.42205        39.100  

  22067802.55944 116436509.53544     -1014.89844        38.700  

  22466219.22504 118530206.86614     -2671.64804        38.200  

  22189042.21604 117073631.10014      2943.94504        38.500  

  22405514.88304 118211201.96614     -3458.39104        38.400  

  23315136.04104 122991290.51214      3772.20304        38.000  

  20526048.27605 108334542.73115     -1673.52305        39.100  

  23937892.47004 126263909.90014      2147.64504        37.700  

 06 10 29 01 50 12.0000000  0  9G 1G21G 6G17G30G22G10G26G16                     
  19593876.17705 103435943.70915       185.70305        39.600  

  20654847.30505 109011382.93015      1703.66005        38.900  

  22067995.75204 116437524.83504     -1015.81304        38.500  

  22466727.69504 118532878.88014     -2672.22304        38.600  

  22188481.98704 117070687.10814      2944.01604        38.500  

  22406173.06744 118214660.80354     -3458.59444        38.500  

  23314418.28904 122987518.79514      3771.67204        37.800  

  20526366.76305 108336216.34715     -1673.77305        39.300  

  23937483.86544 126261762.78554      2146.88344        37.600  

 06 10 29 01 50 13.0000000  0  9G 1G21G 6G17G30G22G10G26G16                     
  19593840.94605 103435758.46415       184.86305        39.500  

  20654523.24005 109009679.88915      1702.90205        38.900  

  22068189.11904 116438541.04414     -1016.53504        38.500  

  22467236.26804 118535551.51614     -2672.94904        38.300  

  22187921.86344 117067743.54354      2943.58644        38.400  

  22406831.37444 118218120.12244     -3459.23044        38.300  

  23313700.59404 122983747.36514      3771.35504        38.200  

  20526685.32905 108337890.48915     -1674.32805        39.000  

  23937075.40244 126259616.42244      2146.04744        37.700  

 06 10 29 01 50 14.0000000  0  9G 1G21G 6G17G30G22G10G26G16                     
  19593805.80845 103435573.95255       184.35245        39.600  

  20654199.27605 109007977.47315      1702.20305        39.000  

  22068382.64904 116439558.08314     -1017.30504        38.400  

  22467744.94704 118538224.65514     -2673.00404        38.200  

  22187361.74544 117064800.28344      2943.19144        38.500  

  22407489.73944 118221579.80144     -3459.76244        38.300  

  23312982.96804 122979976.18314      3771.14504        38.100  

  20527003.99205 108339565.07415     -1674.77705        39.200  

  23936667.07444 126257470.68044      2145.44144        37.800  

 06 10 29 01 50 15.0000000  0  9G 1G21G 6G17G30G22G10G26G16                     
  19593770.83345 103435390.08045       183.50845        39.700  

  20653875.39145 109006275.54855      1701.62945        39.100  

  22068576.32004 116440575.82814     -1018.16804        38.300  

  22468253.73704 118540898.21914     -2673.72304        38.300  

  22186801.67744 117061857.16744      2943.20344        38.600  

  22408148.14344 118225039.73844     -3460.00444        38.400  

  23312265.37404 122976205.09214      3771.03504        37.900  

  20527322.71305 108341239.94505     -1675.02005        39.400  

  23936258.85344 126255325.46244      2144.87544        38.000  

 06 10 29 01 50 16.0000000  0  9G 1G21G 6G17G30G22G10G26G16                     
  19593735.94645 103435206.81545       182.84045        39.400  

  20653551.64105 109004574.12005      1700.92205        39.000  

  22068770.08804 116441594.24014     -1018.93804        38.600  

  22468762.57204 118543572.15714     -2674.34004        38.300  

  22186241.67944 117058914.22844      2942.72744        38.300  

  22408806.59704 118228499.88804     -3460.51204        38.400  

  23311547.77504 122972434.09814      3770.60504        38.000  

  20527641.47105 108342915.09005     -1675.07805        39.000  

  23935850.72904 126253180.76504      2144.55104        37.900  

 06 10 29 01 50 17.0000000  0  9G 1G21G 6G17G30G22G10G26G16                     
  19593701.20745 103435024.21245       182.09845        39.600  

  20653227.96005 109002873.23315      1700.50805        39.000  

  22068964.03304 116442613.40614     -1019.78904        38.500  

  22469271.50604 118546246.54914     -2674.87104        38.400  

  22185681.68244 117055971.49744      2942.40644        38.200  

  22409465.09004 118231960.32214     -3460.65204        38.500  

  23310830.19904 122968663.25414      3770.82004        38.200  

  20527960.32105 108344590.62605     -1675.75405        39.000  

  23935442.71304 126251036.64114      2143.48804        38.000  

 06 10 29 01 50 18.0000000  0  9G 1G21G 6G17G30G22G10G26G16                     
  19593666.56005 103434842.27305       181.62505        39.700  

  20652904.38105 109001172.87115      1700.17205        39.100  

  22069158.14044 116443633.29254     -1020.12944        38.700  

  22469780.49304 118548921.36614     -2675.24604        38.200  

  22185121.71704 117053028.96604      2942.39804        38.600  

  22410123.65404 118235421.06714     -3461.11304        38.400  

  23310112.62804 122964892.55014      3770.77004        38.100  

  20528279.22605 108346266.46005     -1675.77705        39.000  

  23935034.77404 126248893.05014      2143.40204        37.900  

 06 10 29 01 50 19.0000000  0  9G 1G21G 6G17G30G22G10G26G16                     
  19593632.03905 103434660.87515       180.93805        39.700  

  20652580.90405 108999472.95215      1699.46905        39.000  

  22069352.32504 116444653.80904     -1020.73404        38.400  

  22470289.52904 118551596.46714     -2675.13704        38.600  

  22184561.78704 117050086.51914      2942.56304        38.700  

  22410782.23504 118238881.95314     -3461.24604        38.300  

  23309395.06804 122961121.86114      3770.67604        38.000  

  20528598.15805 108347942.54905     -1676.38305        39.000  

  23934626.93604 126246749.91714      2142.51204        37.600  

 06 10 29 01 50 20.0000000  0  9G 1G21G 6G17G30G22G10G26G16                     
  19593597.61005 103434480.09515       180.42205        39.300  

  20652257.53505 108997773.51415      1699.02305        39.100  

  22069546.63004 116445675.00914     -1021.55504        38.300  

  22470798.64104 118554272.00514     -2675.78904        38.400  

  22184001.88204 117047144.24414      2942.33604        38.400  

  22411440.85104 118242343.08514     -3461.55104        38.400  

  23308677.54704 122957351.28214      3770.61704        38.100  

  20528917.15905 108349618.91105     -1676.57405        39.200  

  23934219.21304 126244607.28914      2142.45704        37.800  

 06 10 29 01 50 21.0000000  0  9G 1G21G 6G17G30G22G10G26G16                     
  19593563.35505 103434300.07415       179.55105        39.800  

  20651934.28205 108996074.72915      1698.55905        39.100  

  22069741.09904 116446697.05314     -1022.53904        38.800  

  22471307.86604 118556948.06814     -2676.33604        38.500  

  22183442.03844 117044202.28654      2941.82444        38.400  

  22412099.56504 118245804.60414     -3461.99604        38.200  

  23307960.08804 122953580.94914      3770.13304        38.300  

  20529236.26805 108351295.72515     -1677.17205        38.900  

  23933811.59844 126242465.31454      2141.53944        37.700  

 06 10 29 01 50 22.0000000  0  9G 1G21G 6G17G30G22G10G26G16                     
  19593529.22805 103434120.65915       179.27005        39.700  

  20651611.10105 108994376.44015      1697.98005        39.000  

  22069935.73804 116447719.79114     -1023.24204        38.600  

  22471817.17604 118559624.51914     -2676.65604        38.300  

  22182882.22344 117041260.49344      2941.79344        38.300  

  22412758.29704 118249266.32814     -3461.57804        38.400  

  23307242.59804 122949810.69814      3770.21104        38.200  

  20529555.41105 108352972.83615     -1677.34005        39.000  

  23933404.09044 126240323.86744      2141.28944        37.800  

 06 10 29 01 50 23.0000000  0  9G 1G21G 6G17G30G22G10G26G16                     
  19593495.19905 103433941.86615       178.44505        39.600  

  20651287.99805 108992678.61815      1697.30905        39.300  

  22070130.47404 116448743.19214     -1023.69504        38.600  

  22472326.53704 118562301.33814     -2676.86304        38.400  

  22182322.47604 117038318.86304      2941.53504        38.200  

  22413417.09204 118252728.32614     -3462.12504        38.100  

  23306525.15904 122946040.52314      3770.22304        38.200  

  20529874.59845 108354650.20355     -1677.42645        39.100  

  23932996.70804 126238182.92304      2140.79304        37.700  

 06 10 29 01 50 24.0000000  0  9G 1G21G 6G17G30G22G10G26G16                     
  19593461.29345 103433763.71655       177.92245        39.600  

  20650964.99005 108990981.33315      1697.00005        39.000  

  22070325.37304 116449767.31114     -1024.19104        38.400  

  22472835.99304 118564978.60514     -2677.52004        38.000  

  22181762.73804 117035377.41514      2941.08204        38.500  

  22414075.93504 118256190.56214     -3462.14104        38.300  

  23305807.75304 122942270.51914      3770.05904        38.100  

  20530193.85944 108356327.93744     -1677.82044        38.800  

  23932589.41604 126236042.52714      2139.87104        37.900  

 06 10 29 01 50 25.0000000  0  9G 1G21G 6G17G30G22G10G26G16                     
  19593427.54005 103433586.33305       176.88305        39.600  

  20650642.13905 108989284.68315      1696.33205        39.200  

  22070520.39904 116450792.28514     -1025.01204        38.600  

  22473345.55704 118567656.38114     -2677.92604        38.500  

  22181203.07804 117032436.26814      2940.84004        38.600  

  22414734.82904 118259653.19614     -3462.68404        38.300  

  23305090.37904 122938500.74414      3769.59404        38.000  

  20530513.19545 108358006.08745     -1678.37545        39.200  

  23932182.22304 126233902.76714      2139.59404        37.900  

 06 10 29 01 50 26.0000000  0  9G 1G21G 6G17G30G22G10G26G16                     
  19593393.89405 103433409.48415       176.69505        39.700  

  20650319.38005 108987588.47415      1695.81605        39.100  

  22070715.59104 116451817.88414     -1025.90204        38.500  

  22473855.19304 118570334.50214     -2678.46904        38.500  

  22180643.38604 117029495.21414      2940.89104        38.500  

  22415393.78344 118263115.99554     -3463.00044        38.300  

  23304373.01044 122934730.97854      3769.66044        38.100  

  20530832.57245 108359684.47645     -1678.52345        39.200  

  23931775.13704 126231763.46914      2139.09804        37.900  

 06 10 29 01 50 27.0000000  0  9G 1G21G 6G17G30G22G10G26G16                     
  19593360.37205 103433233.32515       175.73405        39.600  

  20649996.70105 108985892.83015      1695.28905        39.300  

  22070910.90304 116452844.23714     -1026.63304        38.600  

  22474364.91304 118573013.07514     -2679.04304        38.100  

  22180083.76444 117026554.42354      2940.60544        38.800  

  22416052.79444 118266579.11444     -3463.27744        38.500  

  23303655.71144 122930961.42044      3769.40644        38.100  

  20531152.01945 108361363.23645     -1678.66445        39.000  

  23931368.17804 126229624.75514      2138.50004        37.900  

 06 10 29 01 50 28.0000000  0  9G 1G21G 6G17G30G22G10G26G16                     
  19593326.98805 103433057.98415       174.95305        39.500  

  20649674.14105 108984197.85015      1694.73405        39.300  

  22071106.37004 116453871.48614     -1027.91804        38.700  

  22474874.76104 118575692.21914     -2679.58604        38.200  

  22179524.21404 117023613.95404      2940.23804        38.600  

  22416711.87444 118270042.62744     -3463.58644        38.600  

  23302938.43944 122927192.11444      3769.12944        37.900  

  20531471.56305 108363042.46805     -1679.55105        38.900  

  23930961.34004 126227486.74314      2137.80104        37.800  

 06 10 29 01 50 29.0000000  0  9G 1G21G 6G17G30G22G10G26G16                     
  19593293.77005 103432883.40715       174.32805        39.600  

  20649351.73245 108982503.55755      1693.82445        39.100  

  22071302.00104 116454899.55214     -1028.30104        38.500  

  22475384.71304 118578371.90614     -2679.89104        38.300  

  22178964.75004 117020673.83914      2939.68804        38.800  

  22417371.03504 118273506.59404     -3464.47704        38.500  

  23302221.21844 122923423.08144      3769.05144        37.900  

  20531791.17405 108364722.15915     -1679.93405        39.100  

  23930554.61804 126225349.43214      2137.12104        37.900  

 06 10 29 01 50 30.0000000  0  9G 1G21G 6G17G30G22G10G26G16                     
  19593260.62805 103432709.53415       173.67205        39.700  

  20649029.41345 108980809.81345      1693.62945        39.100  

  22071497.77744 116455928.40854     -1029.28544        38.500  

  22475894.71904 118581052.07514     -2680.35904        38.800  

  22178405.28704 117017733.93414      2939.77704        38.400  

  22418030.26104 118276970.83214     -3464.62504        38.500  

  23301504.05504 122919654.23704      3768.78504        38.200  

  20532110.85805 108366402.22315     -1680.02005        39.400  

  23930148.02004 126223212.69014      2136.33604        38.000  

 06 10 29 01 50 31.0000000  0  9G 1G21G 6G17G30G22G10G26G16                     
  19593227.66505 103432536.28715       173.03505        39.600  

  20648707.21645 108979116.60245      1692.90645        39.200  

  22071693.67104 116456957.97204     -1030.05104        38.600  

  22476404.81104 118583732.63614     -2680.42204        38.400  

  22177845.86604 117014794.22714      2939.57004        38.500  

  22418689.54204 118280435.31314     -3464.41004        38.500  

  23300786.89504 122915885.46314      3768.98004        38.200  

  20532430.63805 108368082.58315     -1680.29305        39.100  

  23929741.50644 126221076.48054      2136.07844        37.800  

 06 10 29 01 50 32.0000000  0  9G 1G21G 6G17G30G22G10G26G16                     
  19593194.80905 103432363.66015       172.18405        39.600  

  20648385.09845 108977423.85945      1692.51245        39.100  

  22071889.70104 116457988.20814     -1030.44104        38.600  

  22476914.97804 118586413.59014     -2681.05504        38.700  

  22177286.48504 117011854.66814      2939.55104        38.700  

  22419348.83944 118283900.03554     -3464.67244        38.400  

  23300069.76504 122912116.81914      3768.69104        38.100  

  20532750.45705 108369763.26615     -1680.83205        39.100  

  23929335.11404 126218940.78204      2135.55104        37.800  

 06 10 29 01 50 33.0000000  0  9G 1G21G 6G17G30G22G10G26G16                     
  19593162.09205 103432191.62115       171.60905        39.600  

  20648063.08605 108975731.61105      1691.97305        38.900  

  22072085.86304 116459019.13814     -1031.34804        38.600  

  22477425.21504 118589094.92614     -2681.49604        38.600  

  22176727.13704 117008915.27014      2939.41404        38.700  

  22420008.19704 118287364.98404     -3464.88704        38.500  

  23299352.62004 122908348.26314      3768.60204        38.000  

  20533070.36105 108371444.20315     -1680.87505        39.200  

  23928928.80104 126216805.57914      2134.93404        37.600  

 06 10 29 01 50 34.0000000  0  9G 1G21G 6G17G30G22G10G26G16                     
  19593129.48305 103432020.29815       171.09405        39.300  

  20647741.15645 108974039.95155      1691.53145        39.000  

  22072282.19004 116460050.83614     -1031.85504        38.700  

  22477935.52104 118591776.75614     -2682.13704        38.000  

  22176167.83204 117005976.13614      2938.97304        38.600  

  22420667.63304 118290830.28214     -3465.19104        38.500  

  23298635.53804 122904579.89514      3768.50004        38.100  

  20533390.29805 108373125.54415     -1681.44905        39.300  

  23928522.60204 126214671.01814      2133.97704        37.800  

 06 10 29 01 50 35.0000000  0  9G 1G21G 6G17G30G22G10G26G16                     
  19593097.02505 103431849.68015       169.92205        39.800  

  20647419.34605 108972348.88805      1690.57405        39.200  

  22072478.67404 116461083.31514     -1032.93004        38.500  

  22478445.94804 118594459.01714     -2682.39804        38.700  

  22175608.57304 117003037.22514      2938.73404        38.500  

  22421327.12604 118294295.89814     -3465.82804        38.600  

  23297918.48404 122900811.70214      3768.18004        38.000  

  20533710.32605 108374807.24315     -1681.87105        39.400  

  23928116.51304 126212537.02314      2133.70304        37.800  

 06 10 29 01 50 36.0000000  0  9G 1G21G 6G17G30G22G10G26G16                     
  19593064.67845 103431679.69555       169.61745        39.600  

  20647097.65305 108970658.32715      1690.34805        38.900  

  22072675.27144 116462116.51954     -1033.84844        38.600  

  22478956.44304 118597141.72314     -2682.79304        38.400  

  22175049.33404 117000098.54014      2938.50404        38.400  

  22421986.67104 118297761.78914     -3466.12104        38.300  

  23297201.43004 122897043.66214      3768.01604        37.900  

  20534030.41505 108376489.29115     -1682.05905        39.100  

  23927710.51104 126210403.56614      2133.24204        38.000  

 06 10 29 01 50 37.0000000  0  9G 1G21G 6G17G30G22G10G26G16                     
  19593032.44705 103431510.34105       169.08205        39.500  

  20646776.04305 108968968.27115      1689.96905        39.000  

  22072872.02544 116463150.41144     -1034.06644        38.500  

  22479467.03504 118599824.82714     -2683.32804        38.600  

  22174490.16104 116997160.01514      2938.37904        38.500  

  22422646.28244 118301227.89454     -3466.23444        38.200  

  23296484.39804 122893275.70014      3767.96904        37.900  

  20534350.54905 108378171.64215     -1682.53105        39.400  

  23927304.62704 126208270.66314      2132.57004        38.100  

 06 10 29 01 50 38.0000000  0  9G 1G21G 6G17G30G22G10G26G16                     
  19593000.33305 103431341.56415       168.48005        39.600  

  20646454.53045 108967278.69055      1689.21145        39.100  

  22073068.90444 116464184.96844     -1034.94544        38.600  

  22479977.66904 118602508.27714     -2683.63704        38.300  

  22173931.00504 116994221.61114      2938.35204        38.400  

  22423305.93544 118304694.20444     -3466.21544        38.300  

  23295767.38704 122889507.82214      3767.62104        38.000  

  20534670.72045 108379854.23555     -1682.97345        39.100  

  23926898.80904 126206138.19014      2132.17604        37.700  

 06 10 29 01 50 39.0000000  0  9G 1G21G 6G17G30G22G10G26G16                     
  19592968.34705 103431173.41215       167.90205        39.400  

  20646133.10305 108965589.61305      1688.68405        39.200  

  22073265.88844 116465220.19144     -1035.21544        38.700  

  22480488.39404 118605192.13414     -2684.05904        38.600  

  22173371.87404 116991283.39614      2938.05904        38.500  

  22423965.57644 118308160.78544     -3466.97344        38.400  

  23295050.41904 122885740.04814      3767.73404        38.100  

  20534990.97345 108381537.13845     -1683.15245        39.200  

  23926493.13504 126204006.26914      2131.80504        37.900  

 06 10 29 01 50 40.0000000  0  9G 1G21G 6G17G30G22G10G26G16                     
  19592936.46905 103431005.92315       167.28105        39.400  

  20645811.79605 108963901.08415      1688.05905        39.300  

  22073463.04204 116466256.20504     -1036.50804        38.700  

  22480999.20604 118607876.42214     -2684.59404        38.200  

  22172812.80804 116988345.36214      2938.14104        38.700  

  22424625.28404 118311627.62704     -3467.01204        38.400  

  23294333.46004 122881972.40514      3767.50004        38.100  

  20535311.26505 108383220.39205     -1683.50005        39.200  

  23926087.58244 126201874.93354      2131.34844        37.500  

 06 10 29 01 50 41.0000000  0  9G 1G21G 6G17G30G22G10G26G16                     
  19592904.73305 103430839.06515       166.56305        39.700  

  20645490.56805 108962213.05515      1687.64105        39.000  

  22073660.31004 116467292.89114     -1037.27304        38.600  

  22481510.06804 118610561.10114     -2684.78104        38.300  

  22172253.73904 116985407.54114      2937.63304        38.600  

  22425285.05504 118315094.72014     -3467.50004        38.500  

  23293616.53504 122878204.88614      3767.62104        38.100  

  20535631.64705 108384903.92915     -1683.61705        39.100  

  23925682.11604 126199744.10804      2130.65604        37.800  

 06 10 29 01 50 42.0000000  0  9G 1G21G 6G17G30G22G10G26G16                     
  19592873.11805 103430672.95915       165.45305        39.600  

  20645169.47705 108960525.64015      1687.02005        39.000  

  22073857.72804 116468330.38714     -1037.84404        38.600  

  22482021.04404 118613246.29614     -2685.58604        38.500  

  22171694.73204 116982469.98314      2937.40604        38.700  

  22425944.90104 118318562.17114     -3467.75804        38.600  

  23292899.67404 122874437.59714      3767.16004        38.000  

  20535952.11405 108386587.92315     -1684.27305        39.300  

  23925276.74604 126197613.95914      2129.66404        37.900  

 06 10 29 01 50 43.0000000  0  9G 1G21G 6G17G30G22G10G26G16                     
  19592841.67705 103430507.65015       164.83205        39.600  

  20644848.49005 108958838.92615      1686.59005        39.100  

  22074055.30504 116469368.78614     -1038.85904        38.800  

  22482532.15404 118615932.08014     -2686.08204        38.300  

  22171135.82704 116979532.81714      2936.93404        38.300  

  22426604.82404 118322030.05814     -3467.94104        38.600  

  23292182.83804 122870670.59914      3766.96104        38.200  

  20536272.67104 108388272.39114     -1684.67204        38.800  

  23924871.49544 126195484.46154      2129.00844        37.800  

 06 10 29 01 50 44.0000000  0  9G 1G21G 6G17G30G22G10G26G16                     
  19592810.39405 103430343.11715       164.06605        39.700  

  20644527.64104 108957152.87314      1685.87104        38.800  

  22074253.04604 116470408.01914     -1039.75004        38.500  

  22483043.35804 118618618.40614     -2686.28104        38.500  

  22170576.96604 116976595.97314      2936.44104        38.500  

  22427264.79604 118325498.33414     -3468.07004        38.400  

  23291466.06604 122866903.88314      3766.45704        37.900  

  20536593.27205 108389957.29915     -1685.00805        39.200  

  23924466.41044 126193355.66244      2128.54344        37.700  

 06 10 29 01 50 45.0000000  0  9G 1G21G 6G17G30G22G10G26G16                     
  19592779.22205 103430179.33015       163.26605        39.600  

  20644206.91205 108955467.45015      1684.86305        39.100  

  22074450.93804 116471448.07114     -1040.38304        38.600  

  22483554.65004 118621305.25614     -2687.16804        38.300  

  22170018.13904 116973659.37214      2936.66004        38.500  

  22427924.82904 118328966.99114     -3468.72704        38.200  

  23290749.31904 122863137.36614      3766.17204        37.900  

  20536913.96605 108391642.64015     -1685.62105        39.200  

  23924061.45344 126191227.52044      2127.93044        38.000  

 06 10 29 01 50 46.0000000  0  9G 1G21G 6G17G30G22G10G26G16                     
  19592748.17905 103430016.19815       162.67605        39.600  

  20643886.24845 108953782.53355      1684.89545        39.100  

  22074649.02004 116472488.85414     -1040.96104        38.600  

  22484066.02904 118623992.51914     -2687.40604        38.400  

  22169459.41304 116970723.02614      2936.05104        38.500  

  22428584.94304 118332435.91614     -3469.15604        38.300  

  23290032.59404 122859370.98114      3766.33204        37.900  

  20537234.75945 108393328.30755     -1685.66045        39.100  

  23923656.58444 126189099.93344      2127.40644        37.800  

 06 10 29 01 50 47.0000000  0  9G 1G21G 6G17G30G22G10G26G16                     
  19592717.22805 103429853.69215       162.18405        39.700  

  20643565.73105 108952098.16205      1684.07005        39.000  

  22074847.20104 116473530.36514     -1041.91804        38.500  

  22484577.48204 118626680.18014     -2687.49204        38.400  

  22168900.67804 116967786.83514      2936.07004        38.500  

  22429245.10804 118335905.11114     -3469.55104        38.300  

  23289315.89904 122855604.73914      3766.13304        38.000  

  20537555.62645 108395014.30845     -1686.32445        39.300  

  23923251.80644 126186972.86144      2126.77744        37.800  

 06 10 29 01 50 48.0000000  0  9G 1G21G 6G17G30G22G10G26G16                     
  19592686.41805 103429691.76515       161.49605        39.500  

  20643245.27005 108950414.24315      1683.35905        39.000  

  22075045.50804 116474572.51014     -1042.58204        38.300  

  22485088.97544 118629368.21654     -2688.02744        38.200  

  22168341.97804 116964850.78814      2935.79704        38.600  

  22429905.30504 118339374.47914     -3469.59804        38.500  

  23288599.23704 122851838.56714      3765.92204        38.100  

  20537876.52445 108396700.56545     -1686.70745        38.900  

  23922847.10004 126184846.28604      2126.21904        37.900  

 06 10 29 01 50 49.0000000  0  9G 1G21G 6G17G30G22G10G26G16                     
  19592655.71505 103429530.54015       160.93405        39.600  

  20642924.95505 108948730.90615      1683.02305        39.200  

  22075243.96144 116475615.41654     -1043.38744        38.400  

  22485600.59244 118632056.70744     -2688.64544        38.300  

  22167783.31004 116961914.95014      2935.94504        38.600  

  22430565.54704 118342844.16214     -3469.91004        38.600  

  23287882.58004 122848072.54614      3765.90604        38.100  

  20538197.47645 108398387.17345     -1686.87945        39.200  

  23922442.52404 126182720.27114      2125.90204        37.800  

 06 10 29 01 50 50.0000000  0  9G 1G21G 6G17G30G22G10G26G16                     
  19592625.15505 103429370.00215       160.09805        39.700  

  20642604.72305 108947048.12915      1682.34405        39.000  

  22075442.57804 116476659.10004     -1044.23804        38.400  

  22486112.26004 118634745.64104     -2689.09404        38.100  

  22167224.66504 116958979.37414      2935.86304        38.400  

  22431225.85504 118346314.17714     -3470.56604        38.500  

  23287165.94344 122844306.70854      3765.72344        38.200  

  20538518.49545 108400074.14745     -1687.09045        39.400  

  23922038.09404 126180594.90214      2125.02704        37.900  

 06 10 29 01 50 51.0000000  0  9G 1G21G 6G17G30G22G10G26G16                     
  19592594.72205 103429210.09515       159.83205        39.600  

  20642284.61205 108945365.87215      1682.18405        39.300  

  22075641.30904 116477703.46514     -1044.34004        38.500  

  22486624.02144 118637435.00854     -2689.43444        38.500  

  22166666.10104 116956044.00114      2935.34404        38.500  

  22431886.19204 118349784.41414     -3470.25404        38.700  

  23286449.35544 122840540.99644      3765.68044        38.100  

  20538839.55244 108401761.47244     -1687.57044        38.800  

  23921633.78004 126178470.04814      2124.73004        37.500  

 06 10 29 01 50 52.0000000  0  9G 1G21G 6G17G30G22G10G26G16                     
  19592564.41705 103429050.91515       158.87105        39.500  

  20641964.58945 108943684.20155      1681.59045        38.900  

  22075840.19704 116478748.65814     -1045.62504        38.300  

  22487135.88744 118640124.85644     -2690.03944        38.500  

  22166107.57944 116953108.88054      2934.98044        38.600  

  22432546.61904 118353255.01014     -3470.94104        38.500  

  23285732.81544 122836775.46844      3765.76244        38.100  

  20539160.69905 108403449.13605     -1687.54705        39.200  

  23921229.55704 126176345.77714      2123.89804        37.600  

 06 10 29 01 50 53.0000000  0  9G 1G21G 6G17G30G22G10G26G16                     
  19592534.22705 103428892.32515       158.23405        39.400  

  20641644.66344 108942003.03644      1680.95344        38.800  

  22076039.21144 116479794.50654     -1046.34444        38.300  

  22487647.81944 118642815.06644     -2690.30544        38.400  

  22165549.09904 116950173.90104      2935.00004        38.500  

  22433207.06804 118356725.80214     -3470.78904        38.500  

  23285016.27544 122833010.07144      3765.51644        38.200  

  20539481.90005 108405137.12515     -1688.11305        39.200  

  23920825.44204 126174222.02614      2123.63304        37.900  

 06 10 29 01 50 54.0000000  0  9G 1G21G 6G17G30G22G10G26G16                     
  19592504.14605 103428734.30715       157.65205        39.400  

  20641324.84045 108940322.30545      1680.61745        39.000  

  22076238.33444 116480840.99144     -1046.72744        38.500  

  22488159.80604 118645505.62504     -2690.95304        38.200  

  22164990.59204 116947239.05914      2934.73404        38.500  

  22433867.57804 118360196.82714     -3471.12104        38.400  

  23284299.75744 122829244.71444      3765.28944        38.100  

  20539803.12405 108406825.35915     -1688.78105        39.300  

  23920421.42704 126172098.76614      2123.23004        37.800  

 06 10 29 01 50 55.0000000  0  9G 1G21G 6G17G30G22G10G26G16                     
  19592474.21305 103428576.96515       157.16805        39.700  

  20641005.12345 108938642.15545      1679.94145        39.200  

  22076437.64804 116481888.25304     -1047.53504        38.700  

  22488671.89504 118648196.63114     -2691.03904        38.200  

  22164432.13804 116944304.42814      2934.75404        38.300  

  22434528.16504 118363668.11414     -3471.40204        38.600  

  23283583.25604 122825479.52404      3765.13304        38.200  

  20540124.44804 108408513.93414     -1688.77704        38.700  

  23920017.47104 126169976.08614      2122.50804        37.800  

 06 10 29 01 50 56.0000000  0  9G 1G21G 6G17G30G22G10G26G16                     
  19592444.40445 103428420.35355       156.08645        39.400  

  20640685.51945 108936962.58445      1679.42245        38.900  

  22076637.07304 116482936.27014     -1048.17604        38.500  

  22489184.06604 118650888.12714     -2691.72304        38.300  

  22163873.77104 116941370.08214      2934.37504        38.300  

  22435188.80704 118367139.75514     -3471.80104        38.200  

  23282866.77404 122821714.52014      3765.07404        37.900  

  20540445.84305 108410202.90515     -1689.19905        39.300  

  23919613.61304 126167854.01614      2121.62104        37.800  

 06 10 29 01 50 57.0000000  0  9G 1G21G 6G17G30G22G10G26G16                     
  19592414.72345 103428264.38545       155.77745        39.600  

  20640366.00905 108935283.56105      1678.90605        39.300  

  22076836.63204 116483985.05804     -1049.05104        38.300  

  22489696.34204 118653580.04914     -2692.11704        38.300  

  22163315.42304 116938435.92914      2934.12904        38.500  

  22435849.48604 118370611.67814     -3472.14804        38.600  

  23282150.34504 122817949.67514      3764.69504        38.200  

  20540767.31505 108411892.22815     -1689.52005        39.100  

  23919209.95104 126165732.50914      2121.05904        37.800  

 06 10 29 01 50 58.0000000  0  9G 1G21G 6G17G30G22G10G26G16                     
  19592385.17545 103428109.15245       154.92645        39.600  

  20640046.61405 108933605.16215      1677.96105        39.200  

  22077036.35004 116485034.61404     -1049.80904        38.700  

  22490208.69204 118656272.45614     -2692.36304        38.200  

  22162757.13404 116935502.05114      2933.79704        38.600  

  22436510.23804 118374083.91914     -3472.13304        38.400  

  23281433.99004 122814185.02614      3764.63704        37.900  

  20541088.84105 108413581.94315     -1689.99205        39.300  

  23918806.35004 126163611.62214      2120.16404        38.000  

 06 10 29 01 50 59.0000000  0  9G 1G21G 6G17G30G22G10G26G16                     
  19592355.74945 103427954.59145       154.14845        39.600  

  20639727.30605 108931927.29415      1677.59005        39.100  

  22077236.20844 116486084.94854     -1050.61344        38.600  

  22490721.15004 118658965.34714     -2693.28504        38.500  

  22162198.86904 116932568.42814      2933.16404        38.700  

  22437171.04144 118377556.47854     -3472.43444        38.600  

  23280717.64904 122810420.54914      3764.55504        37.900  

  20541410.43905 108415272.02715     -1690.13305        39.000  

  23918402.87504 126161491.30714      2119.87904        37.900  

 06 10 29 01 51  0.0000000  0  9G 1G21G 6G17G30G22G10G26G16                     
  19592326.43905 103427800.73405       153.66405        39.500  

  20639408.13605 108930250.04315      1677.07805        39.200  

  22077436.24244 116487136.06844     -1051.63744        38.700  

  22491233.68104 118661658.70414     -2693.74604        38.000  

  22161640.67504 116929635.04714      2933.15204        38.600  

  22437831.92744 118381029.39544     -3473.30544        38.600  

  23280001.32504 122806656.29014      3764.02704        38.100  

  20541732.12105 108416962.49215     -1690.64105        39.200  

  23917999.48444 126159371.61954      2119.47344        38.000  

 06 10 29 01 51  1.0000000  0  9G 1G21G 6G17G30G22G10G26G16                     
  19592297.23505 103427647.30815       153.12505        39.500  

  20639089.01305 108928573.08615      1676.64805        38.900  

  22077636.38244 116488187.64944     -1051.90244        38.500  

  22491746.26104 118664352.22814     -2693.89804        38.400  

  22161082.45904 116926701.62614      2933.03904        38.600  

  22438492.80444 118384502.30644     -3473.30144        38.600  

  23279285.00944 122802891.91154      3764.13344        37.900  

  20542053.84805 108418653.04415     -1690.43805        39.100  

  23917596.18704 126157252.22704      2119.29704        37.800  

 06 10 29 01 51  2.0000000  0  9G 1G21G 6G17G30G22G10G26G16                     
  19592268.18005 103427494.64715       152.23805        39.700  

  20638770.01505 108926896.78615      1675.84805        39.100  

  22077836.66544 116489240.08644     -1052.93844        38.500  

  22492258.93304 118667046.30814     -2694.63704        38.200  

  22160524.28804 116923768.51214      2933.05104        38.400  

  22439153.76144 118387975.60344     -3473.50444        38.500  

  23278568.71604 122799127.77404      3764.09404        38.000  

  20542375.66105 108420344.06015     -1691.05505        39.300  

  23917193.01804 126155133.53614      2118.64104        38.000  

 06 10 29 01 51  3.0000000  0  9G 1G21G 6G17G30G22G10G26G16                     
  19592239.29545 103427342.74555       151.54345        39.600  

  20638451.15205 108925221.11215      1675.44105        39.100  

  22078037.08444 116490293.36444     -1053.48444        38.600  

  22492771.73104 118669740.91714     -2694.92204        38.800  

  22159966.20404 116920835.72114      2932.76604        38.500  

  22439814.80844 118391449.28644     -3473.54744        38.400  

  23277852.46404 122795363.92614      3763.77304        38.000  

  20542697.51705 108422035.52115     -1691.56605        39.200  

  23916789.98104 126153015.52414      2117.59004        37.900  

 06 10 29 01 51  4.0000000  0  9G 1G21G 6G17G30G22G10G26G16                     
  19592210.55245 103427191.62445       150.80945        39.600  

  20638132.42645 108923546.13455      1674.73845        39.200  

  22078237.67904 116491347.49204     -1054.49604        38.400  

  22493284.61644 118672436.05754     -2695.53944        38.400  

  22159408.14404 116917903.27514      2932.26604        38.400  

  22440475.89004 118394923.39404     -3474.16004        38.400  

  23277136.27604 122791600.32114      3763.69904        38.100  

  20543019.46105 108423727.43415     -1692.01605        39.300  

  23916387.07104 126150898.15914      2117.01204        38.100  

 06 10 29 01 51  5.0000000  0  9G 1G21G 6G17G30G22G10G26G16                     
  19592181.92105 103427041.30605       149.88305        39.600  

  20637813.79305 108921871.79605      1674.09405        39.100  

  22078438.43904 116492402.49414     -1055.40204        38.600  

  22493797.58444 118675131.78744     -2696.29344        38.600  

  22158850.19704 116914971.15714      2932.03104        38.400  

  22441137.06904 118398397.89114     -3474.61704        38.200  

  23276420.16104 122787837.01314      3763.09004        38.100  

  20543341.49545 108425419.80555     -1692.45745        39.200  

  23915984.33004 126148781.49014      2116.38304        37.900  

 06 10 29 01 51  6.0000000  0  9G 1G21G 6G17G30G22G10G26G16                     
  19592153.42705 103426891.50515       149.53505        39.600  

  20637495.25305 108920197.89015      1673.67205        39.100  

  22078639.32304 116493458.09514     -1056.12504        38.400  

  22494310.62544 118677827.79544     -2696.20744        38.400  

  22158292.25104 116912039.14114      2931.87904        38.500  

  22441798.27104 118401872.55014     -3474.80504        38.600  

  23275704.03604 122784073.70814      3763.27004        38.000  

  20543663.58505 108427112.42105     -1692.93805        39.000  

  23915581.61504 126146665.26114      2116.07404        37.900  

 06 10 29 01 51  7.0000000  0  9G 1G21G 6G17G30G22G10G26G16                     
  19592125.05905 103426742.30415       148.84005        39.800  

  20637176.79905 108918524.45115      1673.26605        39.100  

  22078840.30504 116494514.35114     -1056.73004        38.400  

  22494823.72604 118680524.16704     -2696.57004        38.300  

  22157734.32904 116909107.23414      2931.87904        38.400  

  22442459.52904 118405347.40614     -3475.02004        38.600  

  23274987.90704 122780310.49914      3763.05104        38.000  

  20543985.73005 108428805.28215     -1693.38705        39.200  

  23915179.00304 126144549.53814      2115.28104        37.800  

 06 10 29 01 51  8.0000000  0  9G 1G21G 6G17G30G22G10G26G16                     
  19592096.81405 103426593.79215       148.23005        39.600  

  20636858.45745 108916851.61655      1672.75045        39.100  

  22079041.44304 116495571.41014     -1057.57004        38.500  

  22495336.92904 118683221.02514     -2697.00404        38.500  

  22157176.46204 116906175.61514      2931.42604        38.600  

  22443120.81704 118408822.60614     -3475.50004        38.300  

  23274271.83504 122776547.47914      3762.89104        37.900  

  20544307.94505 108430498.52915     -1693.57805        39.000  

  23914776.49544 126142434.41254      2114.75044        37.900  

 06 10 29 01 51  9.0000000  0  9G 1G21G 6G17G30G22G10G26G16                     
  19592068.71905 103426446.01915       147.30905        39.600  

  20636540.25105 108915179.39605      1671.89105        39.000  

  22079242.72604 116496629.24214     -1058.13704        38.700  

  22495850.19504 118685918.37114     -2697.47304        38.400  

  22156618.68404 116903244.27214      2930.99604        38.600  

  22443782.17904 118412298.12614     -3475.59004        38.500  

  23273555.78904 122772784.66014      3762.82404        38.100  

  20544630.23605 108432192.17215     -1693.80505        39.200  

  23914374.12104 126140319.93404      2114.23404        38.200  

 06 10 29 01 51 10.0000000  0  9G 1G21G 6G17G30G22G10G26G16                     
  19592040.73705 103426298.91615       146.92605        39.600  

  20636222.13905 108913507.70715      1671.48005        39.100  

  22079444.17904 116497687.84414     -1058.77004        38.300  

  22496363.55704 118688616.16914     -2697.99204        38.600  

  22156060.88444 116900313.12354      2931.07844        38.400  

  22444443.59304 118415773.96414     -3475.88704        38.300  

  23272839.79704 122769021.99614      3762.82004        38.200  

  20544952.59505 108433886.17415     -1693.97705        39.000  

  23913971.83904 126138205.99614      2114.09004        38.000  

 06 10 29 01 51 11.0000000  0  9G 1G21G 6G17G30G22G10G26G16                     
  19592012.61805 103426151.35615       148.07005        39.600  

  20635903.93105 108911835.46815      1672.62905        39.100  

  22079645.55604 116498746.04414     -1057.69904        38.600  

  22496876.81504 118691313.27914     -2696.55504        38.500  

  22155502.93244 116897381.08244      2933.02344        38.700  

  22445104.87104 118419248.94414     -3474.37104        38.100  

  23272123.63204 122765258.40214      3763.98404        38.100  

  20545274.83845 108435579.40555     -1692.32445        39.000  

  23913569.48904 126136091.54014      2115.03504        37.800  

 06 10 29 01 51 12.0000000  0  9G 1G21G 6G17G30G22G10G26G16                     
  19591984.46305 103426003.25815       147.97305        39.500  

  20635585.60005 108910162.55915      1672.88705        39.100  

  22079846.83404 116499803.79814     -1058.08604        38.600  

  22497389.92804 118694009.61314     -2696.36704        38.600  

  22154944.78344 116894448.04744      2933.29744        38.600  

  22445765.97004 118422723.00514     -3473.71104        38.200  

  23271407.23504 122761493.72214      3764.81304        38.100  

  20545596.90545 108437271.78045     -1692.46145        39.100  

  23913167.00504 126133976.42714      2114.94904        37.800  

 06 10 29 01 51 13.0000000  0  9G 1G21G 6G17G30G22G10G26G16                     
  19591956.37805 103425855.56715       147.26205        39.600  

  20635267.30305 108908489.93315      1672.65205        39.100  

  22080048.21904 116500862.02714     -1058.77704        38.500  

  22497903.06004 118696706.11314     -2696.56604        38.600  

  22154386.62004 116891514.99204      2933.03504        38.500  

  22446427.07504 118426197.10114     -3474.19504        38.500  

  23270690.81904 122757728.96314      3764.47304        38.200  

  20545918.96745 108438964.23445     -1692.71545        39.000  

  23912764.56944 126131861.63854      2114.16444        38.100  

 06 10 29 01 51 14.0000000  0  9G 1G21G 6G17G30G22G10G26G16                     
  19591928.49605 103425708.97615       145.93005        39.600  

  20634949.20905 108906818.31915      1670.91805        39.200  

  22080249.81304 116501921.37414     -1059.69104        38.500  

  22498416.34344 118699403.49854     -2698.10544        38.300  

  22153828.59504 116888582.60114      2931.85904        38.700  

  22447088.30104 118429671.91814     -3475.30904        38.400  

  23269974.50204 122753964.76514      3763.87104        37.900  

  20546241.17845 108440657.47745     -1693.99645        39.100  

  23912362.34844 126129747.84544      2113.03144        37.800  

 06 10 29 01 51 15.0000000  0  9G 1G21G 6G17G30G22G10G26G16                     
  19591900.88005 103425563.80715       144.33605        39.700  

  20634631.38605 108905147.99115      1669.48005        39.100  

  22080451.70504 116502982.29014     -1061.65204        38.500  

  22498929.86644 118702102.06344     -2699.02044        38.600  

  22153270.78904 116885651.13314      2930.65604        38.500  

  22447749.73604 118433147.77214     -3476.48004        38.500  

  23269258.38504 122750201.50714      3762.71104        38.200  

  20546563.59345 108442351.80345     -1695.33245        39.100  

  23911960.33144 126127635.34444      2111.96944        37.800  

 06 10 29 01 51 16.0000000  0  9G 1G21G 6G17G30G22G10G26G16                     
  19591873.53305 103425420.04115       143.28905        39.700  

  20634313.75405 108903478.98015      1668.24205        39.100  

  22080653.86304 116504044.68714     -1063.22704        38.500  

  22499443.61644 118704801.82644     -2700.55144        38.400  

  22152713.13004 116882720.65114      2929.94504        38.400  

  22448411.38304 118436624.63514     -3476.99204        38.300  

  23268542.41004 122746439.11414      3762.30104        38.200  

  20546886.23445 108444047.22045     -1696.03945        39.000  

  23911558.62104 126125524.21304      2110.40604        37.900  

 06 10 29 01 51 17.0000000  0  9G 1G21G 6G17G30G22G10G26G16                     
  19591846.39605 103425277.55815       141.83605        39.700  

  20633996.34345 108901811.09355      1667.29745        39.300  

  22080856.26704 116505108.40314     -1064.39804        38.700  

  22499957.54044 118707502.60344     -2701.28944        38.600  

  22152155.62104 116879790.99214      2929.18404        38.600  

  22449073.18704 118440102.41614     -3478.06304        38.300  

  23267826.56704 122742677.50314      3761.46904        38.100  

  20547209.05345 108445743.58045     -1696.79345        39.100  

  23911157.09204 126123414.23914      2109.23804        37.800  

 06 10 29 01 51 18.0000000  0  9G 1G21G 6G17G30G22G10G26G16                     
  19591819.51705 103425136.24915       140.65205        39.700  

  20633679.15545 108900144.27645      1666.52745        39.100  

  22081058.92704 116506173.35714     -1065.48804        38.700  

  22500471.67404 118710204.33504     -2702.09004        38.300  

  22151598.27004 116876862.04314      2928.55504        38.700  

  22449735.14204 118443580.97814     -3479.07404        38.400  

  23267110.87844 122738916.56454      3760.89144        38.100  

  20547532.03005 108447440.81905     -1697.70705        39.100  

  23910755.81004 126121305.32414      2108.65604        38.000  

 06 10 29 01 51 19.0000000  0  9G 1G21G 6G17G30G22G10G26G16                     
  19591792.76205 103424995.84615       139.84005        39.500  

  20633362.13145 108898478.25845      1665.55145        39.000  

  22081261.78204 116507239.30814     -1066.33604        38.700  

  22500985.91444 118712906.74654     -2702.62944        38.400  

  22151040.98504 116873933.55314      2928.33604        38.500  

  22450397.21304 118447060.06914     -3479.31304        38.500  

  23266395.28704 122735156.01804      3760.25404        37.900  

  20547855.12345 108449138.62455     -1698.13745        39.000  

  23910354.64904 126119197.22114      2107.83604        38.100  

 06 10 29 01 51 20.0000000  0  9G 1G21G 6G17G30G22G10G26G16                     
  19591766.17105 103424856.22015       139.16005        39.400  

  20633045.23645 108896812.91345      1665.06345        39.000  

  22081464.81204 116508306.11314     -1067.37104        38.400  

  22501500.26604 118715609.69104     -2702.90604        38.300  

  22150483.77404 116871005.42314      2927.79704        38.500  

  22451059.33404 118450539.55014     -3479.43004        38.300  

  23265679.71004 122731395.75314      3760.03904        38.100  

  20548178.30745 108450836.91345     -1698.40245        39.100  

  23909953.62044 126117089.84954      2107.12944        37.800  

 06 10 29 01 51 21.0000000  0  9G 1G21G 6G17G30G22G10G26G16                     
  19591739.73505 103424717.36415       138.38305        39.600  

  20632728.45305 108895148.21105      1664.41405        39.200  

  22081668.00204 116509373.76014     -1068.12504        38.400  

  22502014.73404 118718313.19514     -2703.79704        38.400  

  22149926.59944 116868077.58354      2927.87544        38.700  

  22451721.54504 118454019.43114     -3480.05104        38.300  

  23264964.19604 122727635.72814      3759.97304        38.300  

  20548501.56945 108452535.59445     -1698.82445        39.100  

  23909552.72844 126114983.10644      2106.21944        38.000  

 06 10 29 01 51 22.0000000  0  9G 1G21G 6G17G30G22G10G26G16                     
  19591713.42845 103424579.10555       137.93845        39.400  

  20632411.75005 108893483.98315      1664.15205        39.100  

  22081871.32704 116510442.06514     -1068.38704        38.600  

  22502529.26444 118721017.03754     -2703.75044        38.500  

  22149369.45705 116865149.94105      2927.23405        39.000  

  22452383.79304 118457499.52114     -3480.18404        38.200  

  23264248.68304 122723875.78814      3760.00404        38.100  

  20548824.85305 108454234.60405     -1698.93005        39.200  

  23909151.92044 126112876.86344      2106.10244        38.100  

 06 10 29 01 51 23.0000000  0  9G 1G21G 6G17G30G22G10G26G16                     
  19591687.20545 103424441.30545       137.48845        39.400  

  20632095.11105 108891820.13215      1663.46105        39.300  

  22082074.73704 116511510.91514     -1068.99204        38.600  

  22503043.83544 118723721.13344     -2703.96144        38.400  

  22148812.33404 116862222.25614      2927.87104        38.600  

  22453046.05904 118460979.68514     -3480.14104        38.300  

  23263533.18204 122720115.79514      3760.45304        38.000  

  20549148.21005 108455933.75115     -1699.53905        39.300  

  23908751.18204 126110771.02604      2105.25404        38.000  

 06 10 29 01 51 24.0000000  0  9G 1G21G 6G17G30G22G10G26G16                     
  19591661.09945 103424304.11645       136.83645        39.400  

  20631778.58305 108890156.74415      1663.02005        39.000  

  22082278.28504 116512580.46714     -1070.09404        38.300  

  22503558.46404 118726425.60004     -2704.45304        38.300  

  22148255.25304 116859294.77114      2927.35204        38.800  

  22453708.34404 118464460.11114     -3480.73004        38.400  

  23262817.71604 122716355.94614      3759.62904        38.000  

  20549471.59405 108457633.17215     -1699.75005        39.200  

  23908350.52004 126108665.67414      2105.08604        37.900  

 06 10 29 01 51 25.0000000  0  9G 1G21G 6G17G30G22G10G26G16                     
  19591635.15045 103424167.72445       136.29345        39.600  

  20631462.18905 108888494.06415      1662.66805        39.200  

  22082481.99404 116513650.87714     -1070.85504        38.600  

  22504073.21004 118729130.65714     -2705.21104        38.200  

  22147698.25004 116856367.62514      2927.09004        38.400  

  22454370.70704 118467940.92114     -3480.80904        38.700  

  23262102.29204 122712596.35914      3759.44904        37.800  

  20549795.08905 108459333.08815     -1700.23405        39.000  

  23907950.02044 126106561.04754      2104.03144        37.900  

 06 10 29 01 51 26.0000000  0  9G 1G21G 6G17G30G22G10G26G16                     
  19591609.31745 103424031.95945       135.68045        39.300  

  20631145.88405 108886831.87615      1662.11305        39.300  

  22082685.83904 116514721.96714     -1071.39804        38.300  

  22504588.04904 118731836.06514     -2705.57004        38.500  

  22147141.25804 116853440.62714      2926.92604        38.400  

  22455033.14604 118471421.95514     -3481.01204        38.400  

  23261386.89004 122708836.87514      3759.27304        38.000  

  20550118.62305 108461033.26915     -1700.33605        39.100  

  23907549.64144 126104456.90344      2103.87144        37.900  

 06 10 29 01 51 27.0000000  0  9G 1G21G 6G17G30G22G10G26G16                     
  19591583.57405 103423896.70405       135.19105        39.600  

  20630829.64505 108885170.09215      1661.50005        38.900  

  22082889.80904 116515793.65014     -1072.00404        38.300  

  22505102.92804 118734541.77014     -2705.75804        38.400  

  22146584.29504 116850513.71614      2926.94904        38.200  

  22455695.60404 118474903.14814     -3481.12904        38.600  

  23260671.50804 122705077.40614      3759.39504        38.100  

  20550442.19305 108462733.65915     -1700.31605        39.100  

  23907149.34804 126102353.21304      2103.46504        37.800  

 06 10 29 01 51 28.0000000  0  9G 1G21G 6G17G30G22G10G26G16                     
  19591557.93905 103423762.03415       134.50405        39.500  

  20630513.49005 108883508.79615      1661.07005        39.300  

  22083093.85704 116516866.01014     -1072.81304        38.200  

  22505617.84604 118737247.84214     -2706.36704        38.200  

  22146027.33804 116847586.97614      2926.39504        38.500  

  22456358.07504 118478384.54914     -3481.48804        38.600  

  23259956.11504 122701318.02014      3759.42604        38.000  

  20550765.83405 108464434.33515     -1700.89805        39.200  

  23906749.11004 126100250.01514      2102.93404        37.800  

 06 10 29 01 51 29.0000000  0  9G 1G21G 6G17G30G22G10G26G16                     
  19591532.43505 103423628.00115       133.61305        39.700  

  20630197.42205 108881847.98615      1660.43405        39.100  

  22083298.04904 116517939.03114     -1073.31304        38.400  

  22506132.86204 118739954.28914     -2706.89104        38.400  

  22145470.41844 116844660.35654      2926.67644        38.600  

  22457020.60204 118481866.18114     -3481.82804        38.500  

  23259240.73104 122697558.71914      3759.34404        38.000  

  20551089.52545 108466135.30855     -1701.29745        39.200  

  23906348.99004 126098147.32114      2102.31604        37.900  

 06 10 29 01 51 30.0000000  0  9G 1G21G 6G17G30G22G10G26G16                     
  19591507.06605 103423494.56415       133.20705        39.600  

  20629881.49205 108880187.66715      1660.05105        39.000  

  22083502.39504 116519012.78114     -1073.94504        38.400  

  22506647.92804 118742661.09114     -2707.09804        38.300  

  22144913.55604 116841733.91404      2926.32404        38.100  

  22457683.16804 118485348.03414     -3481.72304        38.400  

  23258525.39904 122693799.55414      3758.93004        38.300  

  20551413.26205 108467836.55505     -1701.35205        38.900  

  23905948.96304 126096045.15014      2101.95304        37.900  

 06 10 29 01 51 31.0000000  0  9G 1G21G 6G17G30G22G10G26G16                     
  19591481.80505 103423361.81515       132.28505        39.500  

  20629565.66005 108878527.93015      1659.30905        39.100  

  22083706.81704 116520087.24114     -1074.75804        38.500  

  22507163.08304 118745368.37614     -2707.46904        38.200  

  22144356.73304 116838807.71514      2925.91404        38.500  

  22458345.81344 118488830.19354     -3482.38344        38.400  

  23257810.09804 122690040.53714      3759.19104        38.200  

  20551737.06405 108469538.14915     -1701.80505        39.100  

  23905549.03804 126093943.56814      2101.43804        37.700  

 06 10 29 01 51 32.0000000  0  9G 1G21G 6G17G30G22G10G26G16                     
  19591456.67405 103423229.62615       131.89805        39.500  

  20629249.92205 108876868.64615      1659.28105        39.200  

  22083911.40804 116521162.37114     -1075.30104        38.600  

  22507678.32204 118748075.98914     -2707.80904        38.500  

  22143799.91004 116835881.63714      2926.01604        38.600  

  22459008.45744 118492312.52544     -3481.95744        38.500  

  23257094.79044 122686281.59954      3758.87544        38.000  

  20552060.91705 108471240.01415     -1701.91405        39.000  

  23905149.19504 126091842.46914      2100.90204        37.800  

 06 10 29 01 51 33.0000000  0  9G 1G21G 6G17G30G22G10G26G16                     
  19591431.60205 103423097.92115       131.55105        39.500  

  20628934.25105 108875209.72415      1658.82805        39.200  

  22084116.08544 116522238.06754     -1075.84444        38.500  

  22508193.62104 118750783.84914     -2708.13704        38.500  

  22143243.08304 116832955.59014      2926.15604        38.400  

  22459671.11744 118495794.98344     -3482.48844        38.600  

  23256379.47804 122682522.64104      3758.89504        38.200  

  20552384.79605 108472942.05815     -1702.12505        39.100  

  23904749.43804 126089741.76514      2100.37104        38.000  

 06 10 29 01 51 34.0000000  0  9G 1G21G 6G17G30G22G10G26G16                     
  19591406.65105 103422966.79715       130.75405        39.600  

  20628618.63705 108873551.28315      1658.00805        39.100  

  22084320.89944 116523314.39444     -1076.63744        38.600  

  22508708.97504 118753492.05114     -2708.47704        38.300  

  22142686.29204 116830029.66514      2926.02004        38.400  

  22460333.85544 118499277.61944     -3482.71144        38.300  

  23255664.16204 122678763.72614      3758.95704        38.000  

  20552708.73305 108474644.31515     -1702.41005        39.000  

  23904349.76704 126087641.52714      2099.94904        37.900  

 06 10 29 01 51 35.0000000  0  9G 1G21G 6G17G30G22G10G26G16                     
  19591381.81405 103422836.36215       130.31605        39.700  

  20628303.14705 108871893.41315      1657.64805        39.300  

  22084525.88044 116524391.49244     -1077.45744        38.600  

  22509224.40604 118756200.71014     -2708.82004        38.600  

  22142129.55504 116827104.00014      2925.72704        38.500  

  22460996.65944 118502760.58644     -3483.21944        38.500  

  23254948.88304 122675005.00914      3758.76604        38.200  

  20553032.72805 108476346.97115     -1702.75005        39.100  

  23903950.20404 126085541.88414      2099.46904        37.800  

 06 10 29 01 51 36.0000000  0  9G 1G21G 6G17G30G22G10G26G16                     
  19591357.11705 103422706.68615       129.18405        39.600  

  20627987.76505 108870236.16415      1656.90605        39.100  

  22084731.01144 116525469.41944     -1078.48444        38.300  

  22509739.93904 118758909.88614     -2708.99604        38.400  

  22141572.90904 116824178.64414      2925.16804        38.600  

  22461659.53204 118506243.89904     -3483.47704        38.600  

  23254233.66704 122671246.53614      3758.69504        38.200  

  20553356.82205 108478050.05915     -1703.40605        39.300  

  23903550.77504 126083442.90814      2098.72704        37.800  

 06 10 29 01 51 37.0000000  0  9G 1G21G 6G17G30G22G10G26G16                     
  19591332.54705 103422577.66315       129.05105        39.600  

  20627672.50505 108868579.49215      1656.70305        39.200  

  22084936.25204 116526548.08604     -1078.98004        38.600  

  22510255.54704 118761619.53114     -2709.89804        38.400  

  22141016.27344 116821253.49754      2925.01644        38.700  

  22462322.44204 118509727.50914     -3483.76604        38.400  

  23253518.48904 122667488.23114      3758.38304        38.000  

  20553680.97905 108479753.48715     -1703.48805        39.000  

  23903151.44404 126081344.50514      2098.37104        37.800  

 06 10 29 01 51 38.0000000  0  9G 1G21G 6G17G30G22G10G26G16                     
  19591308.17405 103422449.51615       127.44505        39.600  

  20627357.42805 108866923.54115      1655.41405        39.200  

  22085141.69804 116527627.64714     -1079.91004        38.500  

  22510771.28704 118764329.74014     -2710.66804        38.600  

  22140459.72144 116818328.72044      2924.82044        38.600  

  22462985.43104 118513211.54914     -3484.21104        38.400  

  23252803.38104 122663730.25614      3757.85504        38.100  

  20554005.23305 108481457.43815     -1704.25405        39.300  

  23902752.28404 126079246.83014      2097.64504        37.900  

